station_id,station_name,province,district,latitude,longitude,timestamp,data_source,data_quality,data_time,error_reason,temperature_current,temperature_max,temperature_min,temperature_avg,humidity_current,humidity_max,humidity_min,humidity_avg,pressure_current,pressure_max,pressure_min,pressure_avg,wind_speed_current,wind_speed_max,wind_speed_min,wind_speed_avg,wind_direction_current,wind_direction_avg,rain_current,rain_max,rain_min,rain_avg,rain_total,cloud_cover_current,cloud_cover_max,cloud_cover_min,cloud_cover_avg,visibility_current,visibility_max,visibility_min,visibility_avg,thunder_probability
AG_AT,Huyện An Phú - An Giang,An Giang,An Phú,10.8333,105.0833,2026-03-17 14:54:06,openmeteo,high,2026-03-17T14:45,,33.3,35.0,22.4,28.3,43,92,40,67.4,1008.8,1015.0,1007.0,1011.0,6.5,12.7,2.3,7.2,90,137.4,0.0,0.1,0.1,0.0,0.1,75,100,0,57.9,24.1,24.1,11.9,23.9,10
AG_CL,Huyện Châu Phú - An Giang,An Giang,Châu Phú,10.5667,105.1667,2026-03-17 14:54:06,openmeteo,high,2026-03-17T14:45,,33.3,35.1,23.0,28.4,41,90,40,66.6,1008.8,1014.9,1007.1,1011.1,8.3,14.8,2.2,7.4,95,137.6,0.0,0.0,0.0,0.0,0.0,75,100,0,60.4,24.1,24.1,8.7,23.8,10
AG_CP,Huyện Châu Thành - An Giang,An Giang,Châu Thành,10.45,105.25,2026-03-17 14:54:07,openmeteo,high,2026-03-17T14:45,,33.1,34.8,22.3,27.8,42,97,40,70.4,1008.8,1014.9,1007.1,1011.1,9.4,15.8,0.5,7.2,92,136.8,0.0,0.0,0.0,0.0,0.0,91,100,0,65.0,24.1,24.1,8.7,23.8,10
AG_CT,Huyện Chợ Mới - An Giang,An Giang,Chợ Mới,10.5333,105.3833,2026-03-17 14:54:07,openmeteo,high,2026-03-17T14:45,,33.2,34.8,22.5,28.0,42,95,41,69.7,1008.8,1014.8,1007.0,1011.0,8.7,14.8,1.0,7.2,95,138.8,0.0,0.0,0.0,0.0,0.0,91,100,0,64.4,24.1,24.1,8.2,24.0,10
AG_PT,Huyện Phú Tân - An Giang,An Giang,Phú Tân,10.65,105.2833,2026-03-17 14:54:08,openmeteo,high,2026-03-17T14:45,,33.4,35.2,22.4,28.2,41,93,40,67.8,1008.8,1014.9,1007.1,1011.0,7.6,13.2,1.9,6.9,93,135.9,0.0,0.0,0.0,0.0,0.0,80,100,0,61.6,24.1,24.1,11.4,23.9,10
AG_TV,Huyện Thoại Sơn - An Giang,An Giang,Thoại Sơn,10.2667,105.2667,2026-03-17 14:54:07,openmeteo,high,2026-03-17T14:45,,33.1,34.9,22.8,28.1,42,93,40,69.3,1008.7,1014.8,1007.0,1011.1,10.8,16.5,1.6,7.7,88,128.0,0.0,0.0,0.0,0.0,0.0,60,100,0,66.2,24.1,24.1,8.4,23.8,10
AG_TX,Huyện Tri Tôn - An Giang,An Giang,Tri Tôn,10.4167,105.0,2026-03-17 14:54:08,openmeteo,high,2026-03-17T14:45,,33.1,34.9,23.1,28.2,43,91,40,69.5,1008.8,1014.9,1007.2,1011.2,10.5,15.5,1.5,7.5,82,132.9,0.0,0.0,0.0,0.0,0.0,93,100,0,62.4,24.1,24.1,13.8,23.9,10
AG_TN,Huyện Tịnh Biên - An Giang,An Giang,Tịnh Biên,10.55,105.0,2026-03-17 14:54:08,openmeteo,high,2026-03-17T14:45,,33.6,35.3,23.6,28.7,42,89,39,66.7,1008.9,1015.0,1007.2,1011.2,9.7,15.8,2.1,7.8,86,132.2,0.0,0.1,0.1,0.0,0.1,88,100,0,62.3,24.1,24.1,13.8,23.9,10
AG_CD,Thành phố Châu Đốc - An Giang,An Giang,Châu Đốc,10.7,105.1167,2026-03-17 14:54:05,openmeteo,high,2026-03-17T14:45,,33.4,35.0,22.7,28.5,41,91,39,66.3,1008.8,1015.0,1007.0,1011.0,7.6,14.1,2.5,7.3,87,136.9,0.0,0.2,0.2,0.0,0.2,82,100,0,58.0,24.1,24.1,11.9,23.9,10
AG_LX,Thành phố Long Xuyên - An Giang,An Giang,Long Xuyên,10.3865,105.4351,2026-03-17 14:54:05,openmeteo,high,2026-03-17T14:45,,33.3,35.0,22.3,28.1,41,95,39,68.3,1008.8,1014.8,1007.0,1011.0,10.5,16.1,2.3,7.7,94,132.1,0.0,0.0,0.0,0.0,0.0,71,100,0,64.3,24.1,24.1,8.2,24.0,10
AG_AP,Thị xã Tân Châu - An Giang,An Giang,Tân Châu,10.8,105.2167,2026-03-17 14:54:06,openmeteo,high,2026-03-17T14:45,,33.5,35.1,22.1,28.2,42,94,41,68.0,1008.8,1014.9,1007.1,1011.0,7.6,13.7,2.0,7.2,93,134.9,0.0,0.0,0.0,0.0,0.0,81,100,0,59.7,24.1,24.1,11.4,23.9,10
BR_CH,Huyện Châu Đức - Bà Rịa - Vũng Tàu,Bà Rịa - Vũng Tàu,Châu Đức,10.65,107.25,2026-03-17 14:54:05,openmeteo,high,2026-03-17T14:45,,30.7,33.9,23.8,27.2,50,89,39,70.0,1009.4,1014.5,1007.9,1011.4,19.5,23.5,11.8,16.5,124,111.8,0.0,0.0,0.0,0.0,0.0,66,91,0,57.4,24.1,24.1,20.2,24.1,10
BR_CD,Huyện Côn Đảo - Bà Rịa - Vũng Tàu,Bà Rịa - Vũng Tàu,Côn Đảo,8.6822,106.6089,2026-03-17 14:54:04,openmeteo,high,2026-03-17T14:45,,26.2,27.0,25.2,26.1,76,86,73,80.0,1010.2,1014.4,1008.8,1011.5,21.1,27.1,9.9,18.2,76,85.9,0.0,0.0,0.0,0.0,0.0,45,100,0,46.4,24.1,24.1,24.1,24.1,5
BR_LD,Huyện Long Điền - Bà Rịa - Vũng Tàu,Bà Rịa - Vũng Tàu,Long Điền,10.4667,107.2333,2026-03-17 14:54:05,openmeteo,high,2026-03-17T14:45,,30.8,33.1,24.8,27.5,51,86,45,70.9,1009.7,1014.5,1008.2,1011.5,21.9,25.3,12.8,18.0,120,109.2,0.0,0.0,0.0,0.0,0.0,0,92,0,52.5,24.1,24.1,22.9,24.1,10
BR_XM,Huyện Xuyên Mộc - Bà Rịa - Vũng Tàu,Bà Rịa - Vũng Tàu,Xuyên Mộc,10.6333,107.4333,2026-03-17 14:54:05,openmeteo,high,2026-03-17T14:45,,30.5,34.0,23.2,26.9,50,91,40,71.6,1009.5,1014.7,1008.1,1011.5,17.8,22.1,9.4,14.7,126,109.2,0.0,0.0,0.0,0.0,0.0,47,90,0,56.4,24.1,24.1,14.5,24.0,10
BR_DD,Huyện Đất Đỏ - Bà Rịa - Vũng Tàu,Bà Rịa - Vũng Tàu,Đất Đỏ,10.5,107.2833,2026-03-17 14:54:04,openmeteo,high,2026-03-17T14:45,,30.8,33.0,24.8,27.5,51,86,45,70.9,1009.7,1014.5,1008.2,1011.5,21.9,25.3,12.8,18.0,120,109.2,0.0,0.0,0.0,0.0,0.0,0,92,0,52.5,24.1,24.1,22.9,24.1,10
BR_BR,Thành phố Bà Rịa - Bà Rịa - Vũng Tàu,Bà Rịa - Vũng Tàu,Bà Rịa,10.5,107.1833,2026-03-17 14:54:03,openmeteo,high,2026-03-17T14:45,,30.4,32.7,25.3,27.7,53,84,46,71.3,1009.6,1014.4,1008.1,1011.4,17.1,18.5,9.7,13.6,136,117.7,0.0,0.0,0.0,0.0,0.0,12,94,0,55.3,24.1,24.1,22.9,24.1,10
BR_VT,Thành phố Vũng Tàu - Bà Rịa - Vũng Tàu,Bà Rịa - Vũng Tàu,Vũng Tàu,10.346,107.0843,2026-03-17 14:54:03,openmeteo,high,2026-03-17T14:45,,30.4,32.7,25.3,27.7,53,84,46,71.3,1009.6,1014.4,1008.1,1011.4,17.1,18.5,9.7,13.6,136,117.7,0.0,0.0,0.0,0.0,0.0,12,94,0,55.3,24.1,24.1,22.9,24.1,10
BR_PT,Thị xã Phú Mỹ - Bà Rịa - Vũng Tàu,Bà Rịa - Vũng Tàu,Phú Mỹ,10.6,107.05,2026-03-17 14:54:04,openmeteo,high,2026-03-17T14:45,,33.3,35.6,24.2,28.1,40,85,35,68.0,1008.8,1014.4,1007.7,1011.2,11.9,21.4,6.2,13.0,145,125.2,0.0,0.0,0.0,0.0,0.0,64,94,0,56.7,24.1,24.1,24.0,24.1,10
BR_CD2,Đảo Côn Sơn - Bà Rịa - Vũng Tàu,Bà Rịa - Vũng Tàu,Côn Đảo,8.6822,106.6089,2026-03-17 14:55:00,openmeteo,high,2026-03-17T14:45,,26.2,27.0,25.2,26.1,76,86,73,80.0,1010.2,1014.4,1008.8,1011.5,21.1,27.1,9.9,18.2,76,85.9,0.0,0.0,0.0,0.0,0.0,45,100,0,46.4,24.1,24.1,24.1,24.1,5
BD_BA,Huyện Bàu Bàng - Bình Dương,Bình Dương,Bàu Bàng,11.25,106.8,2026-03-17 14:54:00,openmeteo,high,2026-03-17T14:45,,33.5,35.7,22.1,28.1,38,90,36,66.2,1008.5,1014.8,1006.7,1011.0,1.8,19.1,0.4,7.3,11,142.2,0.0,0.0,0.0,0.0,0.0,63,100,2,61.2,24.1,24.1,17.7,24.0,10
BD_BC,Huyện Bắc Tân Uyên - Bình Dương,Bình Dương,Bắc Tân Uyên,11.1667,106.8667,2026-03-17 14:54:00,openmeteo,high,2026-03-17T14:45,,33.5,36.3,22.5,28.1,39,88,33,65.6,1008.5,1014.7,1006.6,1011.0,0.7,21.3,0.4,8.4,360,132.9,0.0,0.0,0.0,0.0,0.0,39,100,6,59.9,24.1,24.1,17.7,24.0,10
BD_DH,Huyện Dầu Tiếng - Bình Dương,Bình Dương,Dầu Tiếng,11.2667,106.3667,2026-03-17 14:54:00,openmeteo,high,2026-03-17T14:45,,33.3,35.1,22.0,27.9,44,93,41,69.5,1008.7,1014.8,1006.8,1011.0,2.7,19.1,1.0,7.1,23,150.8,0.0,0.0,0.0,0.0,0.0,53,100,0,58.2,24.1,24.1,20.4,24.1,10
BD_PG,Huyện Phú Giáo - Bình Dương,Bình Dương,Phú Giáo,11.3333,106.7667,2026-03-17 14:54:01,openmeteo,high,2026-03-17T14:45,,33.6,35.7,22.0,28.1,37,92,37,66.3,1008.5,1014.8,1006.7,1011.0,2.2,19.2,0.4,6.5,351,155.2,0.0,0.0,0.0,0.0,0.0,62,100,3,61.6,24.1,24.1,17.7,24.0,10
BD_TDM,Thành phố Thủ Dầu Một - Bình Dương,Bình Dương,Thủ Dầu Một,10.9804,106.6519,2026-03-17 14:53:58,openmeteo,high,2026-03-17T14:45,,33.7,36.1,22.7,28.2,41,91,36,68.1,1008.6,1014.7,1006.7,1011.0,2.1,21.1,1.1,9.5,31,135.0,0.0,0.0,0.0,0.0,0.0,71,100,0,58.4,24.1,24.1,16.4,24.0,10
BD_BG,Thị xã Bến Cát - Bình Dương,Bình Dương,Bến Cát,11.15,106.6,2026-03-17 14:53:59,openmeteo,high,2026-03-17T14:45,,33.8,36.1,22.4,28.1,40,92,36,68.0,1008.5,1014.8,1006.7,1011.0,1.9,20.4,0.4,8.3,22,136.0,0.0,0.0,0.0,0.0,0.0,64,100,1,60.4,24.1,24.1,17.4,24.0,10
BD_DT,Thị xã Dĩ An - Bình Dương,Bình Dương,Dĩ An,10.9,106.7667,2026-03-17 14:54:00,openmeteo,high,2026-03-17T14:45,,33.6,36.6,22.9,28.2,41,90,33,66.9,1008.6,1014.7,1006.7,1011.0,2.9,21.2,2.3,10.6,30,132.2,0.0,0.0,0.0,0.0,0.0,57,99,2,59.5,24.1,24.1,16.4,24.0,10
BD_TN,Thị xã Thuận An - Bình Dương,Bình Dương,Thuận An,10.9333,106.7,2026-03-17 14:53:59,openmeteo,high,2026-03-17T14:45,,33.8,36.8,23.1,28.4,41,90,33,66.9,1008.6,1014.7,1006.7,1011.0,2.9,21.2,2.3,10.6,30,132.2,0.0,0.0,0.0,0.0,0.0,57,99,2,59.5,24.1,24.1,16.4,24.0,10
BD_TU,Thị xã Tân Uyên - Bình Dương,Bình Dương,Tân Uyên,11.0667,106.8,2026-03-17 14:53:59,openmeteo,high,2026-03-17T14:45,,34.0,36.3,22.6,28.3,40,92,36,68.0,1008.5,1014.8,1006.7,1011.0,1.9,20.4,0.4,8.3,22,136.0,0.0,0.0,0.0,0.0,0.0,64,100,1,60.4,24.1,24.1,16.4,24.0,10
BP_DX,Thành phố Đồng Xoài - Bình Phước,Bình Phước,Đồng Xoài,11.5349,106.8823,2026-03-17 14:54:52,openmeteo,high,2026-03-17T14:45,,34.2,35.9,22.1,28.4,35,92,35,64.7,1008.4,1014.9,1006.6,1010.9,3.2,15.3,0.0,5.5,333,189.3,0.0,0.0,0.0,0.0,0.0,31,92,2,59.6,24.1,24.1,18.3,24.1,10
BP_BL,Thị xã Bình Long - Bình Phước,Bình Phước,Bình Long,11.65,106.6,2026-03-17 14:54:52,openmeteo,high,2026-03-17T14:45,,33.4,35.6,21.7,28.2,42,92,39,67.4,1008.5,1014.9,1006.7,1010.9,3.6,14.2,0.8,5.4,354,200.1,0.0,0.0,0.0,0.0,0.0,62,95,0,56.7,24.1,24.1,21.2,24.1,10
BP_PL,Thị xã Phước Long - Bình Phước,Bình Phước,Phước Long,11.8333,106.9667,2026-03-17 14:54:53,openmeteo,high,2026-03-17T14:45,,33.3,35.5,20.9,27.7,41,97,39,69.6,1008.4,1015.1,1006.7,1011.0,5.6,11.2,0.0,4.8,285,247.7,0.0,0.3,0.1,0.0,1.2,52,94,0,51.5,24.1,24.1,7.3,23.9,10
BT_HD,Huyện Hàm Thuận Bắc - Bình Thuận,Bình Thuận,Hàm Thuận Bắc,11.0833,108.1167,2026-03-17 14:54:38,openmeteo,high,2026-03-17T14:45,,30.1,32.3,19.3,25.1,50,97,46,77.5,1010.0,1015.9,1009.3,1012.8,10.9,17.3,1.4,6.6,136,103.8,0.0,0.0,0.0,0.0,0.0,44,98,0,53.1,24.1,24.1,24.1,24.1,10
BT_PH,Huyện Phú Quý - Bình Thuận,Bình Thuận,Phú Quý,10.5,108.9333,2026-03-17 14:54:38,openmeteo,high,2026-03-17T14:45,,25.6,26.2,24.6,25.7,73,89,73,82.9,1010.1,1014.9,1008.7,1011.8,26.2,30.8,8.5,18.8,56,55.6,0.0,0.1,0.1,0.0,0.3,11,88,0,38.4,24.1,24.1,24.1,24.1,5
BT_PT,Thành phố Phan Thiết - Bình Thuận,Bình Thuận,Phan Thiết,10.9333,108.1,2026-03-17 14:54:38,openmeteo,high,2026-03-17T14:45,,30.1,32.7,20.8,26.2,57,94,48,73.8,1009.7,1015.2,1008.6,1012.0,17.7,22.7,3.5,9.0,117,73.7,0.0,0.0,0.0,0.0,0.0,75,87,0,46.1,24.1,24.1,24.1,24.1,10
BT_LC,Thị xã La Gi - Bình Thuận,Bình Thuận,La Gi,10.6667,107.7667,2026-03-17 14:54:39,openmeteo,high,2026-03-17T14:45,,29.6,32.8,22.9,26.5,55,87,47,71.8,1009.9,1015.0,1008.6,1011.9,19.0,21.9,8.1,14.7,109,95.9,0.0,0.0,0.0,0.0,0.0,16,90,0,51.5,24.1,24.1,24.1,24.1,5
BT_PQ2,Đảo Phú Quý - Bình Thuận,Bình Thuận,Phú Quý,10.5,108.9333,2026-03-17 14:55:02,openmeteo,high,2026-03-17T14:45,,25.6,26.2,24.6,25.7,73,89,73,82.9,1010.1,1014.9,1008.7,1011.8,26.2,30.8,8.5,18.8,56,55.6,0.0,0.1,0.1,0.0,0.3,11,88,0,38.4,24.1,24.1,24.1,24.1,5
BD_AL,Huyện An Lão - Bình Định,Bình Định,An Lão,14.5667,108.9,2026-03-17 14:54:35,openmeteo,high,2026-03-17T14:45,,27.1,32.7,17.1,24.0,61,99,49,80.3,1012.3,1017.3,1009.4,1014.1,9.5,10.0,0.7,5.2,29,121.0,0.0,0.2,0.1,0.0,0.9,46,100,0,46.6,24.1,24.1,17.6,24.0,5
BD_HV,Huyện Hoài Ân - Bình Định,Bình Định,Hoài Ân,14.35,108.9,2026-03-17 14:54:35,openmeteo,high,2026-03-17T14:45,,25.6,30.3,14.8,21.9,57,100,48,81.5,1012.1,1017.4,1010.0,1014.3,12.1,13.1,0.5,5.7,60,116.9,0.0,0.0,0.0,0.0,0.0,72,99,0,59.4,24.1,24.1,18.4,24.0,5
BD_QN,Thành phố Quy Nhơn - Bình Định,Bình Định,Quy Nhơn,13.7667,109.2333,2026-03-17 14:54:34,openmeteo,high,2026-03-17T14:45,,27.6,29.7,19.1,24.8,63,100,60,82.7,1011.5,1016.6,1009.1,1013.1,13.2,20.3,0.0,6.2,64,40.3,0.0,0.1,0.1,0.0,0.6,36,93,7,55.7,24.1,24.1,12.4,24.0,5
BL_HH,Huyện Hòa Bình - Bạc Liêu,Bạc Liêu,Hòa Bình,9.2833,105.6333,2026-03-17 14:54:30,openmeteo,high,2026-03-17T14:45,,30.6,33.0,23.5,27.2,54,91,47,72.6,1009.8,1014.4,1008.5,1011.4,19.7,21.7,3.4,12.4,108,108.4,0.0,0.0,0.0,0.0,0.0,95,100,0,56.7,24.1,24.1,24.1,24.1,10
BL_HB,Huyện Hồng Dân - Bạc Liêu,Bạc Liêu,Hồng Dân,9.55,105.4167,2026-03-17 14:54:28,openmeteo,high,2026-03-17T14:45,,32.5,35.0,23.1,27.7,45,93,39,70.8,1009.1,1014.5,1007.4,1011.2,14.5,18.5,3.7,9.6,96,110.5,0.0,0.0,0.0,0.0,0.0,79,100,1,62.9,24.1,24.1,18.0,24.1,10
BL_PT,Huyện Phước Long - Bạc Liêu,Bạc Liêu,Phước Long,9.4333,105.4667,2026-03-17 14:54:29,openmeteo,high,2026-03-17T14:45,,31.7,33.9,23.4,27.5,49,92,44,72.0,1009.4,1014.4,1008.2,1011.3,16.2,20.1,2.6,10.9,103,109.4,0.0,0.0,0.0,0.0,0.0,92,100,0,60.8,24.1,24.1,18.0,24.1,10
BL_VL,Huyện Vĩnh Lợi - Bạc Liêu,Bạc Liêu,Vĩnh Lợi,9.35,105.5667,2026-03-17 14:54:30,openmeteo,high,2026-03-17T14:45,,30.6,33.0,23.5,27.2,54,91,47,72.6,1009.8,1014.4,1008.5,1011.4,19.7,21.7,3.4,12.4,108,108.4,0.0,0.0,0.0,0.0,0.0,95,100,0,56.7,24.1,24.1,24.1,24.1,10
BL_DD,Huyện Đông Hải - Bạc Liêu,Bạc Liêu,Đông Hải,9.1667,105.4333,2026-03-17 14:54:29,openmeteo,high,2026-03-17T14:45,,30.0,32.6,23.5,27.2,59,91,49,73.7,1009.8,1014.4,1008.3,1011.4,22.1,24.5,3.7,12.7,106,107.1,0.0,0.0,0.0,0.0,0.0,90,100,0,59.9,24.1,24.1,24.1,24.1,5
BL_BL,Thành phố Bạc Liêu - Bạc Liêu,Bạc Liêu,Bạc Liêu,9.2833,105.7167,2026-03-17 14:54:28,openmeteo,high,2026-03-17T14:45,,30.2,32.2,23.9,27.3,57,90,47,72.6,1010.0,1014.4,1008.7,1011.5,22.5,23.6,4.8,14.2,103,105.9,0.0,0.0,0.0,0.0,0.0,95,100,14,57.5,24.1,24.1,24.1,24.1,10
BL_GD,Thị xã Giá Rai - Bạc Liêu,Bạc Liêu,Giá Rai,9.2333,105.4667,2026-03-17 14:54:28,openmeteo,high,2026-03-17T14:45,,31.2,33.5,23.1,27.2,52,93,45,73.7,1009.5,1014.4,1008.2,1011.3,16.5,19.8,3.1,10.4,110,108.5,0.0,0.0,0.0,0.0,0.0,89,100,0,61.5,24.1,24.1,24.1,24.1,10
BG_LN,Huyện Lạng Giang - Bắc Giang,Bắc Giang,Lạng Giang,21.35,106.25,2026-03-17 14:54:51,openmeteo,high,2026-03-17T14:45,,27.1,28.8,20.0,23.5,62,96,62,83.6,1011.0,1016.4,1007.4,1012.6,14.9,17.5,1.9,8.5,165,142.8,0.0,0.5,0.1,0.1,3.1,93,100,29,79.3,24.1,24.1,8.5,23.8,5
BG_YL,Huyện Yên Thế - Bắc Giang,Bắc Giang,Yên Thế,21.5167,106.1167,2026-03-17 14:54:51,openmeteo,high,2026-03-17T14:45,,27.1,28.7,19.9,23.4,62,96,62,83.6,1011.0,1016.5,1007.4,1012.6,14.8,16.1,2.2,8.0,162,138.4,0.0,0.4,0.1,0.2,4.1,87,100,37,83.5,24.1,24.1,14.8,23.9,5
BG_BG,Thành phố Bắc Giang - Bắc Giang,Bắc Giang,Bắc Giang,21.2667,106.2,2026-03-17 14:54:50,openmeteo,high,2026-03-17T14:45,,27.4,29.4,20.3,23.8,63,96,63,84.0,1011.0,1016.3,1007.3,1012.5,15.9,17.9,3.4,10.5,162,141.0,0.0,0.3,0.1,0.1,1.8,85,100,27,80.0,24.1,24.1,8.5,23.8,5
BK_BB,Huyện Ba Bể - Bắc Kạn,Bắc Kạn,Ba Bể,22.4167,105.75,2026-03-17 14:54:44,openmeteo,high,2026-03-17T14:45,,23.3,26.4,19.1,22.4,78,94,67,84.8,1011.9,1016.9,1008.3,1013.0,7.2,11.1,3.4,5.7,183,180.5,0.0,0.4,0.1,0.3,7.0,96,100,45,86.1,24.1,24.1,7.4,21.7,0
BK_PT,Huyện Pác Nặm - Bắc Kạn,Bắc Kạn,Pác Nặm,22.6333,105.6667,2026-03-17 14:54:44,openmeteo,high,2026-03-17T14:45,,23.4,26.8,18.6,21.9,74,98,65,85.7,1011.4,1016.8,1007.8,1012.8,7.9,10.7,2.3,5.1,180,180.2,0.0,0.8,0.1,0.4,10.0,72,100,29,80.6,24.1,24.1,0.2,17.8,0
BK_BK,Thành phố Bắc Kạn - Bắc Kạn,Bắc Kạn,Bắc Kạn,22.15,105.8333,2026-03-17 14:54:43,openmeteo,high,2026-03-17T14:45,,23.0,25.1,19.1,21.7,79,96,76,89.0,1012.1,1017.0,1008.7,1013.3,4.3,8.8,0.8,4.9,156,164.3,0.0,1.2,0.1,0.4,9.7,99,100,49,92.0,24.1,24.1,9.0,23.0,0
BN_YL,Huyện Yên Phong - Bắc Ninh,Bắc Ninh,Yên Phong,21.2,105.95,2026-03-17 14:54:48,openmeteo,high,2026-03-17T14:45,,27.6,29.8,20.1,23.7,61,97,61,83.3,1010.7,1016.2,1007.1,1012.4,18.2,19.2,3.1,11.2,153,133.1,0.0,0.4,0.2,0.1,2.4,66,100,31,81.1,24.1,24.1,14.4,23.9,5
BN_BN,Thành phố Bắc Ninh - Bắc Ninh,Bắc Ninh,Bắc Ninh,21.1861,106.0764,2026-03-17 14:54:48,openmeteo,high,2026-03-17T14:45,,27.4,29.9,19.8,23.6,61,97,61,83.3,1010.8,1016.2,1007.2,1012.4,18.3,19.4,5.9,12.0,158,141.8,0.0,0.3,0.3,0.0,0.9,79,100,17,78.3,24.1,24.1,14.4,23.9,5
BN_TS,Thành phố Từ Sơn - Bắc Ninh,Bắc Ninh,Từ Sơn,21.1167,105.9667,2026-03-17 14:54:48,openmeteo,high,2026-03-17T14:45,,27.4,29.9,19.8,23.6,61,97,61,83.3,1010.8,1016.2,1007.2,1012.4,18.3,19.4,5.9,12.0,158,141.8,0.0,0.3,0.3,0.0,0.9,79,100,17,78.3,24.1,24.1,13.7,23.9,5
BT_BL,Huyện Ba Tri - Bến Tre,Bến Tre,Ba Tri,10.0667,106.6,2026-03-17 14:54:17,openmeteo,high,2026-03-17T14:45,,31.3,32.5,24.0,27.2,47,90,45,73.0,1009.8,1014.6,1008.3,1011.5,20.9,22.7,4.5,13.9,109,114.5,0.0,0.0,0.0,0.0,0.0,21,96,2,56.8,24.1,24.1,24.1,24.1,10
BT_BH,Huyện Bình Đại - Bến Tre,Bến Tre,Bình Đại,10.1833,106.7,2026-03-17 14:54:17,openmeteo,high,2026-03-17T14:45,,31.3,32.5,24.0,27.2,47,90,45,73.0,1009.8,1014.6,1008.3,1011.5,20.9,22.7,4.5,13.9,109,114.5,0.0,0.0,0.0,0.0,0.0,21,96,2,56.8,24.1,24.1,24.1,24.1,10
BT_CL,Huyện Châu Thành - Bến Tre,Bến Tre,Châu Thành,10.3,106.2667,2026-03-17 14:54:17,openmeteo,high,2026-03-17T14:45,,32.0,33.3,23.8,27.8,44,89,42,70.4,1009.3,1014.5,1007.7,1011.3,16.1,21.7,2.9,13.1,110,119.8,0.0,0.0,0.0,0.0,0.0,61,100,0,55.6,24.1,24.1,24.1,24.1,10
BT_CT,Huyện Chợ Lách - Bến Tre,Bến Tre,Chợ Lách,10.2667,106.15,2026-03-17 14:54:17,openmeteo,high,2026-03-17T14:45,,32.5,34.4,23.1,27.9,42,91,41,69.2,1009.1,1014.6,1007.4,1011.2,14.7,20.7,2.0,11.8,107,121.8,0.0,0.0,0.0,0.0,0.0,80,100,0,57.6,24.1,24.1,24.1,24.1,10
BT_GD,Huyện Giồng Trôm - Bến Tre,Bến Tre,Giồng Trôm,10.1667,106.4667,2026-03-17 14:54:18,openmeteo,high,2026-03-17T14:45,,31.7,32.9,24.1,27.5,46,89,44,72.1,1009.6,1014.5,1008.0,1011.4,18.8,22.3,4.1,13.5,110,117.7,0.0,0.0,0.0,0.0,0.0,72,96,3,56.3,24.1,24.1,24.1,24.1,10
BT_MB,Huyện Mỏ Cày Bắc - Bến Tre,Bến Tre,Mỏ Cày Bắc,10.1333,106.3,2026-03-17 14:54:18,openmeteo,high,2026-03-17T14:45,,32.3,33.9,23.1,27.8,43,91,42,69.9,1009.3,1014.5,1007.7,1011.2,16.6,21.7,1.6,12.1,112,119.0,0.0,0.0,0.0,0.0,0.0,67,100,0,55.7,24.1,24.1,24.1,24.1,10
BT_MN,Huyện Mỏ Cày Nam - Bến Tre,Bến Tre,Mỏ Cày Nam,10.0667,106.3333,2026-03-17 14:54:18,openmeteo,high,2026-03-17T14:45,,32.2,33.4,23.7,27.7,44,89,42,70.5,1009.5,1014.5,1007.9,1011.3,18.8,22.5,3.7,13.3,110,117.4,0.0,0.0,0.0,0.0,0.0,79,96,5,55.6,24.1,24.1,24.1,24.1,10
BT_TP,Huyện Thạnh Phú - Bến Tre,Bến Tre,Thạnh Phú,9.9333,106.5333,2026-03-17 14:54:19,openmeteo,high,2026-03-17T14:45,,30.4,31.8,24.6,27.4,52,87,50,72.9,1010.0,1014.5,1008.4,1011.5,22.5,23.2,4.8,14.3,102,109.3,0.0,0.0,0.0,0.0,0.0,47,98,8,59.0,24.1,24.1,24.1,24.1,10
BT_BT,Thành phố Bến Tre - Bến Tre,Bến Tre,Bến Tre,10.2333,106.3833,2026-03-17 14:54:17,openmeteo,high,2026-03-17T14:45,,32.0,33.3,23.8,27.8,44,89,42,70.4,1009.3,1014.5,1007.7,1011.3,16.1,21.7,2.9,13.1,110,119.8,0.0,0.0,0.0,0.0,0.0,61,100,0,55.6,24.1,24.1,24.1,24.1,10
CB_BL,Huyện Bảo Lâm - Cao Bằng,Cao Bằng,Bảo Lâm,22.8667,105.5,2026-03-17 14:54:42,openmeteo,high,2026-03-17T14:45,,24.6,27.6,19.3,22.5,67,96,61,82.3,1010.5,1016.5,1007.0,1012.3,11.2,14.0,2.9,6.7,195,186.3,0.0,1.1,0.1,0.9,21.3,80,100,38,81.4,24.1,24.1,0.5,22.2,0
CB_BC,Huyện Bảo Lạc - Cao Bằng,Cao Bằng,Bảo Lạc,22.95,105.7333,2026-03-17 14:54:44,openmeteo,high,2026-03-17T14:45,,25.7,28.8,19.3,23.2,62,97,57,78.6,1010.2,1016.2,1006.8,1012.0,13.4,19.0,0.4,6.3,204,201.5,0.0,1.0,0.1,0.5,11.8,77,100,20,70.8,24.1,24.1,1.3,22.4,5
CB_CB,Thành phố Cao Bằng - Cao Bằng,Cao Bằng,Cao Bằng,22.6667,106.25,2026-03-17 14:54:43,openmeteo,high,2026-03-17T14:45,,25.4,27.8,18.5,22.5,63,96,58,82.2,1010.9,1016.9,1007.5,1012.5,16.1,17.2,1.1,5.7,207,165.7,0.0,0.5,0.1,0.3,6.6,33,100,0,68.7,24.1,24.1,3.5,22.0,5
CM_CM,Huyện Cái Nước - Cà Mau,Cà Mau,Cái Nước,9.0,105.0333,2026-03-17 14:54:12,openmeteo,high,2026-03-17T14:45,,30.6,33.7,22.7,27.1,55,95,44,74.4,1009.5,1014.3,1007.8,1011.3,17.7,19.4,2.4,9.2,102,103.8,0.0,0.0,0.0,0.0,0.0,85,100,3,63.6,24.1,24.1,24.1,24.1,10
CM_NG,Huyện Ngọc Hiển - Cà Mau,Cà Mau,Ngọc Hiển,8.6667,105.05,2026-03-17 14:54:13,openmeteo,high,2026-03-17T14:45,,29.3,30.8,24.1,27.0,61,89,54,75.0,1010.1,1014.4,1008.7,1011.4,22.1,22.2,4.9,12.6,102,102.2,0.0,0.0,0.0,0.0,0.0,55,100,0,56.0,24.1,24.1,24.1,24.1,5
CM_NC,Huyện Năm Căn - Cà Mau,Cà Mau,Năm Căn,8.75,105.0,2026-03-17 14:54:13,openmeteo,high,2026-03-17T14:45,,30.1,32.1,23.9,27.3,57,93,47,73.5,1009.6,1014.3,1008.2,1011.3,20.3,21.0,5.2,11.6,103,100.7,0.0,0.0,0.0,0.0,0.0,71,100,0,61.3,24.1,24.1,24.1,24.1,10
CM_PT,Huyện Phú Tân - Cà Mau,Cà Mau,Phú Tân,8.8833,104.8833,2026-03-17 14:54:13,openmeteo,high,2026-03-17T14:45,,29.4,31.3,25.0,27.4,61,88,52,74.6,1009.4,1014.3,1008.0,1011.3,21.2,26.5,1.5,14.3,100,105.8,0.1,0.3,0.1,0.1,1.5,79,100,0,61.9,24.1,24.1,24.1,24.1,5
CM_TV,Huyện Thới Bình - Cà Mau,Cà Mau,Thới Bình,9.35,105.1,2026-03-17 14:54:13,openmeteo,high,2026-03-17T14:45,,32.1,34.2,22.7,27.2,47,96,42,73.7,1009.0,1014.4,1007.7,1011.2,13.8,17.4,2.6,8.0,105,112.0,0.0,0.0,0.0,0.0,0.0,87,100,21,67.3,24.1,24.1,24.1,24.1,10
CM_TR,Huyện Trần Văn Thời - Cà Mau,Cà Mau,Trần Văn Thời,9.0833,104.9667,2026-03-17 14:54:13,openmeteo,high,2026-03-17T14:45,,31.2,32.8,23.0,27.0,52,95,44,76.2,1009.2,1014.4,1008.3,1011.2,17.2,20.8,1.1,10.1,101,105.6,0.0,0.0,0.0,0.0,0.0,78,100,0,65.7,24.1,24.1,24.1,24.1,10
CM_UM,Huyện U Minh - Cà Mau,Cà Mau,U Minh,9.4,104.9833,2026-03-17 14:54:14,openmeteo,high,2026-03-17T14:45,,32.1,33.3,23.7,27.2,47,94,47,75.9,1008.9,1014.4,1008.4,1011.3,8.7,20.2,0.5,10.2,107,116.9,0.0,0.0,0.0,0.0,0.0,75,100,5,64.6,24.1,24.1,21.7,24.1,10
CM_DH,Huyện Đầm Dơi - Cà Mau,Cà Mau,Đầm Dơi,8.9833,105.2,2026-03-17 14:54:13,openmeteo,high,2026-03-17T14:45,,30.3,32.5,23.4,27.2,56,92,49,73.8,1009.9,1014.3,1008.3,1011.4,22.5,23.9,3.3,12.0,102,104.2,0.0,0.0,0.0,0.0,0.0,74,100,0,59.6,24.1,24.1,24.1,24.1,10
CM_TP,Thành phố Cà Mau - Cà Mau,Cà Mau,Cà Mau,9.1769,105.1521,2026-03-17 14:54:12,openmeteo,high,2026-03-17T14:45,,30.6,32.8,23.1,27.0,55,94,47,75.2,1009.5,1014.4,1007.9,1011.3,17.6,19.7,2.3,9.6,105,107.1,0.0,0.0,0.0,0.0,0.0,84,100,9,65.3,24.1,24.1,24.1,24.1,10
CT_CC,Huyện Cờ Đỏ - Cần Thơ,Cần Thơ,Cờ Đỏ,10.1,105.4333,2026-03-17 14:53:35,openmeteo,high,2026-03-17T14:45,,33.2,34.8,22.8,28.0,42,94,40,69.1,1008.8,1014.7,1007.0,1011.1,12.6,18.1,2.3,8.8,95,123.8,0.0,0.0,0.0,0.0,0.0,56,100,0,63.9,24.1,24.1,13.6,24.0,10
CT_PT,Huyện Phong Điền - Cần Thơ,Cần Thơ,Phong Điền,10.25,105.6667,2026-03-17 14:53:36,openmeteo,high,2026-03-17T14:45,,33.2,35.3,22.6,28.1,41,94,38,67.9,1008.9,1014.6,1007.0,1011.1,13.1,18.4,2.2,9.7,99,124.7,0.0,0.0,0.0,0.0,0.0,71,100,0,62.8,24.1,24.1,6.7,24.0,10
CT_TN,Huyện Thới Lai - Cần Thơ,Cần Thơ,Thới Lai,10.0667,105.55,2026-03-17 14:53:36,openmeteo,high,2026-03-17T14:45,,33.1,34.8,22.7,27.9,42,94,40,69.1,1008.8,1014.7,1007.0,1011.1,12.6,18.1,2.3,8.8,95,123.8,0.0,0.0,0.0,0.0,0.0,56,100,0,63.9,24.1,24.1,13.6,24.0,10
CT_VT,Huyện Vĩnh Thạnh - Cần Thơ,Cần Thơ,Vĩnh Thạnh,10.2167,105.4,2026-03-17 14:53:34,openmeteo,high,2026-03-17T14:45,,33.4,34.8,22.8,28.1,42,93,40,68.3,1008.7,1014.7,1007.0,1011.1,10.8,15.8,1.8,7.7,90,128.8,0.0,0.0,0.0,0.0,0.0,54,100,0,65.8,24.1,24.1,19.6,24.1,10
CT_BT,Quận Bình Thủy - Cần Thơ,Cần Thơ,Bình Thủy,10.0816,105.7378,2026-03-17 14:53:34,openmeteo,high,2026-03-17T14:45,,32.9,34.9,22.9,28.1,42,93,39,68.6,1009.0,1014.6,1007.2,1011.1,13.3,18.6,1.8,10.1,103,122.8,0.0,0.0,0.0,0.0,0.0,74,100,0,60.1,24.1,24.1,20.6,24.1,10
CT_CR,Quận Cái Răng - Cần Thơ,Cần Thơ,Cái Răng,10.0,105.7667,2026-03-17 14:53:33,openmeteo,high,2026-03-17T14:45,,32.7,34.9,22.7,27.9,43,94,38,69.3,1009.0,1014.6,1007.2,1011.1,14.2,18.9,1.8,9.9,99,120.8,0.0,0.0,0.0,0.0,0.0,60,100,0,59.4,24.1,24.1,20.6,24.1,10
CT_NK,Quận Ninh Kiều - Cần Thơ,Cần Thơ,Ninh Kiều,10.0452,105.7469,2026-03-17 14:53:34,openmeteo,high,2026-03-17T14:45,,32.7,34.9,22.7,27.9,43,94,38,69.3,1009.0,1014.6,1007.2,1011.1,14.2,18.9,1.8,9.9,99,120.8,0.0,0.0,0.0,0.0,0.0,60,100,0,59.4,24.1,24.1,20.6,24.1,10
CT_TL,Quận Thốt Nốt - Cần Thơ,Cần Thơ,Thốt Nốt,10.2667,105.5333,2026-03-17 14:53:34,openmeteo,high,2026-03-17T14:45,,33.4,35.2,22.6,28.2,41,94,38,67.6,1008.8,1014.7,1006.9,1011.1,11.9,17.5,2.5,8.9,95,126.6,0.0,0.0,0.0,0.0,0.0,69,100,0,63.3,24.1,24.1,19.6,24.1,10
CT_OT,Quận Ô Môn - Cần Thơ,Cần Thơ,Ô Môn,10.1167,105.6333,2026-03-17 14:53:34,openmeteo,high,2026-03-17T14:45,,33.1,35.2,22.6,28.0,42,94,38,68.4,1008.9,1014.6,1007.1,1011.1,13.5,18.7,2.2,9.7,99,123.0,0.0,0.0,0.0,0.0,0.0,70,100,0,61.8,24.1,24.1,20.6,24.1,10
GL_CP,Huyện Chư Prông - Gia Lai,Gia Lai,Chư Prông,13.5833,107.8333,2026-03-17 14:53:53,openmeteo,high,2026-03-17T14:45,,32.5,36.1,20.0,27.6,36,81,29,57.4,1009.3,1015.9,1006.7,1011.7,13.3,19.6,1.1,11.2,87,97.4,0.0,0.0,0.0,0.0,0.0,38,100,0,38.0,24.1,24.1,22.1,24.1,10
GL_CH,Huyện Chư Păh - Gia Lai,Gia Lai,Chư Păh,14.1667,107.9333,2026-03-17 14:53:53,openmeteo,high,2026-03-17T14:45,,28.9,31.8,16.3,24.0,36,93,32,65.7,1010.0,1016.7,1008.4,1012.9,3.6,11.2,0.7,4.6,6,77.6,0.0,0.3,0.1,0.0,0.4,74,100,0,55.3,24.1,24.1,17.4,24.1,5
GL_CS,Huyện Chư Sê - Gia Lai,Gia Lai,Chư Sê,13.75,108.0833,2026-03-17 14:53:53,openmeteo,high,2026-03-17T14:45,,28.4,31.9,16.9,23.9,44,88,34,64.1,1010.6,1016.9,1008.3,1013.1,14.0,18.8,5.1,10.9,91,95.6,0.0,0.0,0.0,0.0,0.0,46,100,0,41.8,24.1,24.1,17.0,24.1,5
GL_IA,Huyện Ia Grai - Gia Lai,Gia Lai,Ia Grai,13.9833,107.75,2026-03-17 14:53:54,openmeteo,high,2026-03-17T14:45,,33.3,36.2,19.0,27.8,34,88,31,59.4,1008.9,1015.9,1006.9,1011.6,3.4,13.3,1.0,4.8,198,139.4,0.0,0.1,0.1,0.0,0.3,76,100,0,48.2,24.1,24.1,14.2,23.9,10
GL_KB,Huyện KBang - Gia Lai,Gia Lai,KBang,14.35,108.5,2026-03-17 14:53:54,openmeteo,high,2026-03-17T14:45,,25.0,29.8,14.0,20.8,52,100,43,80.1,1012.3,1018.0,1010.1,1014.9,10.3,13.4,1.0,5.8,61,91.6,0.0,1.1,0.7,0.2,5.9,53,100,0,65.9,24.1,24.1,21.0,24.0,0
GL_KR,Huyện Krông Pa - Gia Lai,Gia Lai,Krông Pa,13.2167,108.6667,2026-03-17 14:53:55,openmeteo,high,2026-03-17T14:45,,28.1,32.6,16.7,23.4,47,97,36,74.4,1011.1,1017.2,1008.5,1013.7,14.0,18.4,3.6,8.8,89,114.0,0.0,0.0,0.0,0.0,0.0,35,87,0,34.9,24.1,24.1,24.1,24.1,5
GL_KN,Huyện Kông Chro - Gia Lai,Gia Lai,Kông Chro,13.7167,108.5167,2026-03-17 14:53:55,openmeteo,high,2026-03-17T14:45,,28.8,33.1,17.7,24.4,44,90,36,67.2,1010.6,1016.8,1007.7,1013.1,14.0,17.0,3.6,9.0,78,84.4,0.0,0.0,0.0,0.0,0.0,30,100,0,40.4,24.1,24.1,24.1,24.1,5
GL_MY,Huyện Mang Yang - Gia Lai,Gia Lai,Mang Yang,13.9833,108.25,2026-03-17 14:53:55,openmeteo,high,2026-03-17T14:45,,29.4,32.9,16.9,24.3,42,94,35,67.5,1010.7,1017.0,1008.4,1013.4,12.0,18.3,2.5,7.1,99,97.6,0.0,0.0,0.0,0.0,0.0,69,100,0,42.1,24.1,24.1,24.1,24.1,5
GL_PG,Huyện Phú Thiện - Gia Lai,Gia Lai,Phú Thiện,13.5333,108.3,2026-03-17 14:53:55,openmeteo,high,2026-03-17T14:45,,31.7,35.6,19.6,26.4,37,89,29,63.6,1009.7,1016.4,1006.9,1012.3,15.6,21.3,2.7,13.4,75,77.4,0.0,0.0,0.0,0.0,0.0,23,94,0,40.7,24.1,24.1,18.4,24.0,10
GL_DP,Huyện Đăk Pơ - Gia Lai,Gia Lai,Đăk Pơ,14.0,108.5,2026-03-17 14:53:54,openmeteo,high,2026-03-17T14:45,,26.3,31.3,16.2,22.3,50,97,40,74.6,1011.5,1017.4,1008.6,1014.0,14.2,17.8,3.7,8.6,69,71.6,0.0,0.5,0.1,0.1,1.8,36,96,0,53.1,24.1,24.1,24.1,24.1,5
GL_DC,Huyện Đăk Đoa - Gia Lai,Gia Lai,Đăk Đoa,14.1167,108.1167,2026-03-17 14:53:53,openmeteo,high,2026-03-17T14:45,,29.8,32.5,16.9,24.4,36,94,31,64.8,1010.1,1016.9,1008.4,1013.2,6.7,16.4,0.5,5.9,74,102.5,0.0,0.1,0.1,0.0,0.3,79,100,0,50.6,24.1,24.1,24.1,24.1,5
GL_DA,Huyện Đức Cơ - Gia Lai,Gia Lai,Đức Cơ,13.7833,107.6667,2026-03-17 14:53:54,openmeteo,high,2026-03-17T14:45,,33.4,36.0,19.7,28.0,34,83,30,56.0,1008.7,1015.8,1006.5,1011.3,4.1,13.8,0.8,6.2,135,135.3,0.0,0.0,0.0,0.0,0.0,67,100,0,43.8,24.1,24.1,22.8,24.1,10
GL_PC,Thành phố Pleiku - Gia Lai,Gia Lai,Pleiku,13.9833,108.0,2026-03-17 14:53:52,openmeteo,high,2026-03-17T14:45,,29.9,32.4,17.5,24.9,37,86,33,60.9,1009.9,1016.7,1008.0,1012.8,8.0,19.0,1.6,9.2,117,101.5,0.0,0.0,0.0,0.0,0.0,65,100,0,48.6,24.1,24.1,24.1,24.1,5
GL_AD,Thị xã An Khê - Gia Lai,Gia Lai,An Khê,14.0,108.6833,2026-03-17 14:53:52,openmeteo,high,2026-03-17T14:45,,27.6,32.9,16.3,23.2,46,97,36,73.2,1011.5,1017.4,1008.9,1014.0,15.5,18.4,2.2,7.6,72,57.5,0.0,0.4,0.4,0.1,1.2,34,98,0,54.0,24.1,24.1,0.8,23.8,5
GL_AY,Thị xã Ayun Pa - Gia Lai,Gia Lai,Ayun Pa,13.3833,108.4333,2026-03-17 14:53:53,openmeteo,high,2026-03-17T14:45,,32.1,35.8,19.1,26.6,39,93,32,65.5,1009.9,1016.6,1007.1,1012.6,12.8,15.9,3.3,8.6,80,80.7,0.0,0.0,0.0,0.0,0.0,15,91,0,36.0,24.1,24.1,24.0,24.1,10
HG_MK,Huyện Mèo Vạc - Hà Giang,Hà Giang,Mèo Vạc,23.1528,105.4069,2026-03-17 14:54:53,openmeteo,high,2026-03-17T14:45,,19.9,22.9,12.8,17.1,65,100,61,83.9,1010.3,1016.8,1007.5,1012.7,13.0,13.0,0.4,5.0,183,169.0,0.0,0.4,0.1,0.4,9.1,58,100,43,73.9,24.1,24.1,0.3,19.4,0
HG_DV,Huyện Đồng Văn - Hà Giang,Hà Giang,Đồng Văn,23.2547,105.25,2026-03-17 14:54:54,openmeteo,high,2026-03-17T14:45,,17.3,20.4,12.1,15.6,75,99,66,87.8,1011.3,1017.5,1008.7,1013.6,18.3,21.0,3.3,9.7,200,191.6,0.0,0.7,0.1,0.3,7.2,57,100,36,75.4,1.1,24.1,0.1,16.5,0
HG_HG,Thành phố Hà Giang - Hà Giang,Hà Giang,Hà Giang,22.8233,104.9836,2026-03-17 14:54:53,openmeteo,high,2026-03-17T14:45,,23.4,26.2,17.4,21.0,72,99,68,88.0,1010.9,1016.9,1007.8,1013.0,11.7,12.5,2.5,6.9,146,163.8,0.0,0.7,0.1,0.3,8.2,74,100,36,75.2,24.1,24.1,3.1,22.3,0
HNA_DT,Huyện Duy Tiên - Hà Nam,Hà Nam,Duy Tiên,20.6333,105.9667,2026-03-17 14:54:54,openmeteo,high,2026-03-17T14:45,,27.2,30.1,20.0,23.7,62,98,62,84.1,1011.0,1016.1,1007.2,1012.4,20.3,22.1,4.4,12.0,160,150.1,0.0,0.0,0.0,0.0,0.0,83,100,21,77.1,24.1,24.1,17.4,24.0,5
HNA_KB,Huyện Kim Bảng - Hà Nam,Hà Nam,Kim Bảng,20.5667,105.85,2026-03-17 14:54:54,openmeteo,high,2026-03-17T14:45,,27.3,30.6,20.1,23.8,62,96,59,81.6,1010.9,1016.1,1007.1,1012.3,20.1,21.4,2.8,11.3,159,154.4,0.0,0.1,0.1,0.0,0.1,54,100,25,76.1,24.1,24.1,11.3,23.9,5
HNA_PL,Thành phố Phủ Lý - Hà Nam,Hà Nam,Phủ Lý,20.5411,105.9139,2026-03-17 14:54:54,openmeteo,high,2026-03-17T14:45,,27.5,30.8,20.3,24.2,61,95,60,81.8,1011.0,1016.2,1007.3,1012.5,17.2,18.8,2.1,9.7,160,160.8,0.0,0.0,0.0,0.0,0.0,55,100,32,77.7,24.1,24.1,9.6,23.8,5
HN_BG,Huyện Ba Vì - Hà Nội,Hà Nội,Ba Vì,21.1992,105.4239,2026-03-17 14:53:21,openmeteo,high,2026-03-17T14:45,,28.3,29.5,20.0,23.9,60,97,60,84.5,1009.8,1016.2,1006.6,1011.8,13.5,19.3,4.0,10.6,115,105.9,0.0,0.0,0.0,0.0,0.0,75,100,26,77.2,24.1,24.1,19.3,24.0,5
HN_CM,Huyện Chương Mỹ - Hà Nội,Hà Nội,Chương Mỹ,20.8964,105.7039,2026-03-17 14:53:18,openmeteo,high,2026-03-17T14:45,,28.1,31.0,19.4,23.9,59,97,58,81.9,1010.2,1016.1,1006.7,1012.1,21.0,22.9,1.4,10.2,145,133.3,0.0,0.0,0.0,0.0,0.0,46,100,3,68.5,24.1,24.1,6.5,23.8,5
HN_GL,Huyện Gia Lâm - Hà Nội,Hà Nội,Gia Lâm,21.0408,105.95,2026-03-17 14:53:20,openmeteo,high,2026-03-17T14:45,,27.3,29.9,20.1,23.8,63,97,62,83.4,1010.7,1016.1,1007.1,1012.3,19.8,21.3,6.9,13.4,155,142.0,0.0,0.2,0.1,0.0,0.9,72,100,22,76.2,24.1,24.1,13.7,23.9,5
HN_HĐ,Huyện Hoài Đức - Hà Nội,Hà Nội,Hoài Đức,21.0392,105.7108,2026-03-17 14:53:17,openmeteo,high,2026-03-17T14:45,,28.0,30.8,19.9,24.0,60,98,59,83.1,1010.3,1016.1,1006.7,1012.1,20.9,22.2,6.1,12.7,148,137.7,0.0,0.0,0.0,0.0,0.0,55,100,0,71.3,24.1,24.1,6.5,23.8,5
HN_MT,Huyện Mê Linh - Hà Nội,Hà Nội,Mê Linh,21.1753,105.7219,2026-03-17 14:53:20,openmeteo,high,2026-03-17T14:45,,27.9,30.3,19.9,23.9,61,98,59,83.9,1010.2,1016.1,1006.7,1012.0,19.6,21.8,3.6,12.8,139,127.7,0.0,0.0,0.0,0.0,0.0,74,100,20,74.0,24.1,24.1,10.6,23.8,5
HN_MD,Huyện Mỹ Đức - Hà Nội,Hà Nội,Mỹ Đức,20.6472,105.7194,2026-03-17 14:53:20,openmeteo,high,2026-03-17T14:45,,27.0,29.9,18.7,22.9,57,96,56,81.3,1010.8,1016.3,1007.2,1012.5,17.5,18.7,2.4,8.5,166,162.2,0.0,0.3,0.1,0.0,0.6,56,100,46,81.5,24.1,24.1,14.5,23.8,5
HN_ML,Huyện Mỹ Đức - Hà Nội,Hà Nội,Mỹ Đức,20.6472,105.7194,2026-03-17 14:53:21,openmeteo,high,2026-03-17T14:45,,27.0,29.9,18.7,22.9,57,96,56,81.3,1010.8,1016.3,1007.2,1012.5,17.5,18.7,2.4,8.5,166,162.2,0.0,0.3,0.1,0.0,0.6,56,100,46,81.5,24.1,24.1,14.5,23.8,5
HN_PX,Huyện Phú Xuyên - Hà Nội,Hà Nội,Phú Xuyên,20.7392,105.9139,2026-03-17 14:53:19,openmeteo,high,2026-03-17T14:45,,27.5,30.3,19.8,23.8,61,98,61,83.8,1010.6,1016.0,1007.0,1012.2,22.7,23.2,5.8,13.1,157,147.8,0.0,0.0,0.0,0.0,0.0,51,100,24,74.3,24.1,24.1,17.4,24.0,5
HN_PH,Huyện Phú Xuyên - Hà Nội,Hà Nội,Phú Xuyên,20.7392,105.9139,2026-03-17 14:53:21,openmeteo,high,2026-03-17T14:45,,27.5,30.3,19.8,23.8,61,98,61,83.8,1010.6,1016.0,1007.0,1012.2,22.7,23.2,5.8,13.1,157,147.8,0.0,0.0,0.0,0.0,0.0,51,100,24,74.3,24.1,24.1,17.4,24.0,5
HN_PT,Huyện Phúc Thọ - Hà Nội,Hà Nội,Phúc Thọ,21.1031,105.5514,2026-03-17 14:53:20,openmeteo,high,2026-03-17T14:45,,27.8,29.4,19.5,23.8,60,98,59,82.5,1009.9,1016.2,1006.7,1011.9,16.2,20.7,1.8,9.6,122,113.2,0.0,0.2,0.1,0.0,0.9,83,100,29,79.0,24.1,24.1,7.1,23.7,5
HN_QO,Huyện Quốc Oai - Hà Nội,Hà Nội,Quốc Oai,20.9956,105.6119,2026-03-17 14:53:18,openmeteo,high,2026-03-17T14:45,,27.8,30.2,18.4,23.6,59,99,58,82.0,1010.1,1016.3,1006.7,1012.1,18.6,21.7,1.1,9.2,139,127.7,0.0,0.0,0.0,0.0,0.0,60,100,31,76.8,24.1,24.1,7.1,23.7,5
HN_SL,Huyện Sóc Sơn - Hà Nội,Hà Nội,Sóc Sơn,21.2578,105.8489,2026-03-17 14:53:20,openmeteo,high,2026-03-17T14:45,,27.7,30.0,20.1,23.9,61,97,61,82.7,1010.5,1016.1,1007.0,1012.2,19.5,20.1,5.6,12.9,150,135.0,0.0,0.2,0.2,0.0,0.6,63,100,34,79.2,24.1,24.1,10.6,23.8,5
HN_TO,Huyện Thanh Oai - Hà Nội,Hà Nội,Thanh Oai,20.8556,105.7722,2026-03-17 14:53:19,openmeteo,high,2026-03-17T14:45,,28.1,31.0,19.4,23.9,59,97,58,81.9,1010.2,1016.1,1006.7,1012.1,21.0,22.9,1.4,10.2,145,133.3,0.0,0.0,0.0,0.0,0.0,46,100,3,68.5,24.1,24.1,14.5,23.8,5
HN_TT2,Huyện Thường Tín - Hà Nội,Hà Nội,Thường Tín,20.87,105.8583,2026-03-17 14:53:19,openmeteo,high,2026-03-17T14:45,,27.8,30.7,20.0,24.0,61,98,60,83.0,1010.6,1016.1,1006.9,1012.2,22.2,22.9,6.8,13.5,155,146.2,0.0,0.0,0.0,0.0,0.0,54,100,11,74.0,24.1,24.1,14.5,23.8,5
HN_TT,Huyện Thạch Thất - Hà Nội,Hà Nội,Thạch Thất,21.0278,105.5564,2026-03-17 14:53:18,openmeteo,high,2026-03-17T14:45,,29.9,31.9,18.7,25.0,53,99,50,78.9,1009.9,1016.3,1006.6,1012.0,14.6,18.4,0.5,7.2,140,120.5,0.0,0.1,0.1,0.0,0.4,82,100,18,71.4,24.1,24.1,7.1,23.7,5
HN_DP,Huyện Đan Phượng - Hà Nội,Hà Nội,Đan Phượng,21.1394,105.6736,2026-03-17 14:53:18,openmeteo,high,2026-03-17T14:45,,27.9,30.3,19.9,24.0,61,98,59,83.9,1010.2,1016.1,1006.7,1012.0,19.6,21.8,3.6,12.8,139,127.7,0.0,0.0,0.0,0.0,0.0,74,100,20,74.0,24.1,24.1,10.6,23.8,5
HN_DH,Huyện Đông Anh - Hà Nội,Hà Nội,Đông Anh,21.1467,105.8464,2026-03-17 14:53:19,openmeteo,high,2026-03-17T14:45,,27.4,29.8,20.2,23.8,63,97,62,83.4,1010.5,1016.1,1006.9,1012.2,20.0,21.3,7.4,13.7,150,138.1,0.0,0.1,0.1,0.0,0.6,64,100,24,76.8,24.1,24.1,10.6,23.8,5
HN_UH,Huyện Ứng Hòa - Hà Nội,Hà Nội,Ứng Hòa,20.7292,105.8236,2026-03-17 14:53:19,openmeteo,high,2026-03-17T14:45,,27.5,30.3,19.8,23.8,61,98,61,83.8,1010.6,1016.0,1007.0,1012.2,22.7,23.2,5.8,13.1,157,147.8,0.0,0.0,0.0,0.0,0.0,51,100,24,74.3,24.1,24.1,14.5,23.8,5
HN_BD,Quận Ba Đình - Hà Nội,Hà Nội,Ba Đình,21.0338,105.8142,2026-03-17 14:53:15,openmeteo,high,2026-03-17T14:45,,28.0,30.8,19.9,23.9,60,98,59,83.1,1010.3,1016.1,1006.7,1012.1,20.9,22.2,6.1,12.7,148,137.7,0.0,0.0,0.0,0.0,0.0,55,100,0,71.3,24.1,24.1,6.5,23.8,5
HN_BTL,Quận Bắc Từ Liêm - Hà Nội,Hà Nội,Bắc Từ Liêm,21.0772,105.773,2026-03-17 14:53:16,openmeteo,high,2026-03-17T14:45,,27.8,30.2,19.8,23.9,61,98,59,83.9,1010.2,1016.1,1006.7,1012.0,19.6,21.8,3.6,12.8,139,127.7,0.0,0.0,0.0,0.0,0.0,74,100,20,74.0,24.1,24.1,6.5,23.8,5
HN_CG,Quận Cầu Giấy - Hà Nội,Hà Nội,Cầu Giấy,21.0301,105.8022,2026-03-17 14:53:15,openmeteo,high,2026-03-17T14:45,,28.0,30.8,19.9,24.0,60,98,59,83.1,1010.3,1016.1,1006.7,1012.1,20.9,22.2,6.1,12.7,148,137.7,0.0,0.0,0.0,0.0,0.0,55,100,0,71.3,24.1,24.1,6.5,23.8,5
HN_HBT,Quận Hai Bà Trưng - Hà Nội,Hà Nội,Hai Bà Trưng,21.0091,105.8606,2026-03-17 14:53:15,openmeteo,high,2026-03-17T14:45,,28.0,30.8,19.9,23.9,60,98,59,83.1,1010.3,1016.1,1006.7,1012.1,20.9,22.2,6.1,12.7,148,137.7,0.0,0.0,0.0,0.0,0.0,55,100,0,71.3,24.1,24.1,6.5,23.8,5
HN_HK,Quận Hoàn Kiếm - Hà Nội,Hà Nội,Hoàn Kiếm,21.0285,105.8542,2026-03-17 14:53:15,openmeteo,high,2026-03-17T14:45,,27.9,30.7,19.8,23.9,60,98,59,83.1,1010.3,1016.1,1006.7,1012.1,20.9,22.2,6.1,12.7,148,137.7,0.0,0.0,0.0,0.0,0.0,55,100,0,71.3,24.1,24.1,6.5,23.8,5
HN_HM,Quận Hoàng Mai - Hà Nội,Hà Nội,Hoàng Mai,20.9837,105.8636,2026-03-17 14:53:16,openmeteo,high,2026-03-17T14:45,,28.0,30.8,19.9,23.9,60,98,59,83.1,1010.3,1016.1,1006.7,1012.1,20.9,22.2,6.1,12.7,148,137.7,0.0,0.0,0.0,0.0,0.0,55,100,0,71.3,24.1,24.1,6.5,23.8,5
HN_HD,Quận Hà Đông - Hà Nội,Hà Nội,Hà Đông,20.9714,105.7788,2026-03-17 14:53:17,openmeteo,high,2026-03-17T14:45,,28.0,30.8,19.9,23.9,60,98,59,83.1,1010.3,1016.1,1006.7,1012.1,20.9,22.2,6.1,12.7,148,137.7,0.0,0.0,0.0,0.0,0.0,55,100,0,71.3,24.1,24.1,6.5,23.8,5
HN_LB,Quận Long Biên - Hà Nội,Hà Nội,Long Biên,21.054,105.8959,2026-03-17 14:53:16,openmeteo,high,2026-03-17T14:45,,28.0,30.8,19.9,24.0,60,98,59,83.1,1010.3,1016.1,1006.7,1012.1,20.9,22.2,6.1,12.7,148,137.7,0.0,0.0,0.0,0.0,0.0,55,100,0,71.3,24.1,24.1,13.7,23.9,5
HN_NTL,Quận Nam Từ Liêm - Hà Nội,Hà Nội,Nam Từ Liêm,21.0113,105.7547,2026-03-17 14:53:16,openmeteo,high,2026-03-17T14:45,,28.0,30.8,19.9,24.0,60,98,59,83.1,1010.3,1016.1,1006.7,1012.1,20.9,22.2,6.1,12.7,148,137.7,0.0,0.0,0.0,0.0,0.0,55,100,0,71.3,24.1,24.1,6.5,23.8,5
HN_TX,Quận Thanh Xuân - Hà Nội,Hà Nội,Thanh Xuân,21.001,105.8093,2026-03-17 14:53:16,openmeteo,high,2026-03-17T14:45,,28.0,30.8,19.9,23.9,60,98,59,83.1,1010.3,1016.1,1006.7,1012.1,20.9,22.2,6.1,12.7,148,137.7,0.0,0.0,0.0,0.0,0.0,55,100,0,71.3,24.1,24.1,6.5,23.8,5
HN_DD,Quận Đống Đa - Hà Nội,Hà Nội,Đống Đa,21.019,105.8315,2026-03-17 14:53:15,openmeteo,high,2026-03-17T14:45,,28.0,30.8,19.9,23.9,60,98,59,83.1,1010.3,1016.1,1006.7,1012.1,20.9,22.2,6.1,12.7,148,137.7,0.0,0.0,0.0,0.0,0.0,55,100,0,71.3,24.1,24.1,6.5,23.8,5
HN_ST,Thị xã Sơn Tây - Hà Nội,Hà Nội,Sơn Tây,21.1376,105.507,2026-03-17 14:53:17,openmeteo,high,2026-03-17T14:45,,27.8,29.4,19.5,23.8,60,98,59,82.5,1009.9,1016.2,1006.7,1011.9,16.2,20.7,1.8,9.6,122,113.2,0.0,0.2,0.1,0.0,0.9,83,100,29,79.0,24.1,24.1,19.3,24.0,5
HT_HT,Thành phố Hà Tĩnh - Hà Tĩnh,Hà Tĩnh,Hà Tĩnh,18.3333,105.9,2026-03-17 14:54:32,openmeteo,high,2026-03-17T14:45,,25.6,29.8,18.8,23.7,78,100,64,87.6,1011.8,1016.2,1008.1,1012.3,13.0,13.4,0.0,4.9,66,85.6,0.0,0.0,0.0,0.0,0.0,79,100,0,56.0,24.1,24.1,10.1,23.6,5
HT_HK,Thị xã Hồng Lĩnh - Hà Tĩnh,Hà Tĩnh,Hồng Lĩnh,18.5333,105.7167,2026-03-17 14:54:32,openmeteo,high,2026-03-17T14:45,,26.1,30.4,18.6,23.7,72,100,64,84.3,1011.6,1016.3,1007.8,1012.3,11.2,11.5,0.0,4.3,90,81.5,0.0,0.0,0.0,0.0,0.0,59,100,0,51.6,24.1,24.1,10.8,23.7,5
HT_KL,Thị xã Kỳ Anh - Hà Tĩnh,Hà Tĩnh,Kỳ Anh,18.0833,106.3,2026-03-17 14:54:32,openmeteo,high,2026-03-17T14:45,,27.1,30.7,18.2,23.7,61,100,61,85.1,1011.8,1016.1,1007.8,1012.5,12.4,14.2,1.3,5.9,116,158.2,0.0,0.0,0.0,0.0,0.0,50,100,0,55.5,24.1,24.1,13.6,24.0,5
HB_KB,Huyện Kim Bôi - Hòa Bình,Hòa Bình,Kim Bôi,20.6667,105.5333,2026-03-17 14:54:41,openmeteo,high,2026-03-17T14:45,,27.2,30.5,18.3,23.0,60,99,55,83.8,1010.9,1016.6,1007.3,1012.8,12.4,17.6,0.8,7.1,163,163.8,0.0,0.1,0.1,0.0,0.6,60,100,47,82.4,24.1,24.1,5.9,23.6,5
HB_ML,Huyện Mai Châu - Hòa Bình,Hòa Bình,Mai Châu,20.6667,105.0833,2026-03-17 14:54:41,openmeteo,high,2026-03-17T14:45,,30.9,34.7,21.1,26.2,56,99,50,80.4,1010.4,1016.5,1006.8,1012.6,9.8,11.0,2.6,5.5,156,153.5,0.0,0.8,0.1,0.1,3.2,36,100,23,73.4,24.1,24.1,0.4,20.4,10
HB_HB,Thành phố Hòa Bình - Hòa Bình,Hòa Bình,Hòa Bình,20.8133,105.3383,2026-03-17 14:54:41,openmeteo,high,2026-03-17T14:45,,27.7,29.5,18.9,23.6,59,99,58,84.1,1010.3,1016.5,1007.3,1012.5,9.4,12.2,0.5,4.9,157,150.4,0.0,0.4,0.1,0.2,4.2,65,100,45,80.0,24.1,24.1,6.7,23.2,5
HY_ML,Huyện Mỹ Hào - Hưng Yên,Hưng Yên,Mỹ Hào,20.9333,106.0667,2026-03-17 14:54:49,openmeteo,high,2026-03-17T14:45,,27.2,29.7,19.9,23.6,62,98,61,83.5,1011.0,1016.2,1007.3,1012.4,20.1,21.4,6.1,12.5,159,143.5,0.0,0.1,0.1,0.0,0.3,92,100,10,78.8,24.1,24.1,13.7,23.9,5
HY_VD,Huyện Văn Lâm - Hưng Yên,Hưng Yên,Văn Lâm,20.9833,106.0333,2026-03-17 14:54:50,openmeteo,high,2026-03-17T14:45,,27.3,29.9,20.1,23.8,63,97,62,83.4,1010.7,1016.1,1007.1,1012.3,19.8,21.3,6.9,13.4,155,142.0,0.0,0.2,0.1,0.0,0.9,72,100,22,76.2,24.1,24.1,13.7,23.9,5
HY_HY,Thành phố Hưng Yên - Hưng Yên,Hưng Yên,Hưng Yên,20.6461,106.0511,2026-03-17 14:54:49,openmeteo,high,2026-03-17T14:45,,27.1,30.0,19.9,23.6,62,98,62,84.1,1011.0,1016.1,1007.2,1012.4,20.3,22.1,4.4,12.0,160,150.1,0.0,0.0,0.0,0.0,0.0,83,100,21,77.1,24.1,24.1,17.4,24.0,5
HD_CM,Huyện Cẩm Giàng - Hải Dương,Hải Dương,Cẩm Giàng,20.95,106.2167,2026-03-17 14:54:49,openmeteo,high,2026-03-17T14:45,,27.3,29.9,20.0,23.7,62,97,61,83.9,1011.0,1016.2,1007.3,1012.5,18.1,20.6,6.6,12.1,163,141.3,0.0,0.3,0.1,0.1,1.5,93,100,14,79.7,24.1,24.1,14.7,23.8,5
HD_HD,Thành phố Hải Dương - Hải Dương,Hải Dương,Hải Dương,20.9397,106.3308,2026-03-17 14:54:49,openmeteo,high,2026-03-17T14:45,,26.7,28.6,19.8,23.3,62,98,61,85.1,1011.3,1016.3,1007.8,1012.6,18.2,22.9,5.1,12.5,166,137.1,0.0,0.1,0.1,0.0,0.3,94,100,22,78.9,24.1,24.1,14.7,23.8,5
HD_CL,Thị xã Kinh Môn - Hải Dương,Hải Dương,Kinh Môn,21.0167,106.5,2026-03-17 14:54:49,openmeteo,high,2026-03-17T14:45,,26.0,27.4,19.5,23.0,64,97,62,85.0,1011.7,1016.4,1008.2,1012.8,15.4,20.7,2.9,11.0,164,126.0,0.0,0.1,0.1,0.0,0.3,97,100,26,76.7,24.1,24.1,13.1,24.0,5
HP_AC,Huyện An Dương - Hải Phòng,Hải Phòng,An Dương,20.8667,106.6167,2026-03-17 14:53:30,openmeteo,high,2026-03-17T14:45,,25.5,26.9,19.7,22.8,68,97,67,86.6,1011.9,1016.5,1008.5,1012.9,16.5,20.2,2.3,11.0,160,123.1,0.0,0.0,0.0,0.0,0.0,95,100,27,76.2,24.1,24.1,14.3,23.9,5
HP_AL,Huyện An Lão - Hải Phòng,Hải Phòng,An Lão,20.8167,106.55,2026-03-17 14:53:30,openmeteo,high,2026-03-17T14:45,,26.2,27.8,19.6,22.9,63,98,61,86.2,1011.6,1016.4,1008.1,1012.7,19.3,23.2,4.5,12.7,171,132.1,0.0,0.1,0.1,0.0,0.3,94,100,12,76.2,24.1,24.1,14.3,23.9,5
HP_BH,Huyện Bạch Long Vĩ - Hải Phòng,Hải Phòng,Bạch Long Vĩ,20.1333,107.7333,2026-03-17 14:53:31,openmeteo,high,2026-03-17T14:45,,23.4,23.8,22.0,22.7,78,94,78,90.0,1012.8,1016.7,1009.3,1013.2,8.0,18.1,1.5,8.7,162,108.9,0.0,0.3,0.1,0.0,1.2,64,100,0,46.7,24.1,24.1,17.3,24.0,0
HP_CH,Huyện Cát Hải - Hải Phòng,Hải Phòng,Cát Hải,20.7264,107.0489,2026-03-17 14:53:31,openmeteo,high,2026-03-17T14:45,,24.2,25.5,19.7,22.2,73,95,73,86.6,1012.4,1016.6,1008.8,1013.1,16.2,18.2,2.2,9.3,163,110.9,0.0,0.0,0.0,0.0,0.0,84,100,34,73.4,12.5,24.1,3.6,23.2,0
HP_KL,Huyện Kiến Thụy - Hải Phòng,Hải Phòng,Kiến Thụy,20.75,106.6667,2026-03-17 14:53:30,openmeteo,high,2026-03-17T14:45,,25.6,26.6,19.9,22.9,69,97,67,87.1,1012.0,1016.5,1008.5,1012.9,16.7,20.5,2.6,10.9,161,125.4,0.0,0.0,0.0,0.0,0.0,92,100,28,75.2,24.1,24.1,11.7,23.7,5
HP_TL,Huyện Thủy Nguyên - Hải Phòng,Hải Phòng,Thủy Nguyên,20.9583,106.6667,2026-03-17 14:53:29,openmeteo,high,2026-03-17T14:45,,26.2,27.5,19.7,23.2,64,97,62,85.0,1011.7,1016.4,1008.2,1012.8,15.4,20.7,2.9,11.0,164,126.0,0.0,0.1,0.1,0.0,0.3,97,100,26,76.7,24.1,24.1,13.3,24.0,5
HP_TH,Huyện Tiên Lãng - Hải Phòng,Hải Phòng,Tiên Lãng,20.7333,106.55,2026-03-17 14:53:31,openmeteo,high,2026-03-17T14:45,,26.0,27.7,19.6,23.0,63,98,61,86.5,1011.6,1016.4,1008.1,1012.7,20.2,23.8,4.3,12.7,169,133.8,0.0,0.0,0.0,0.0,0.0,92,100,5,76.0,24.1,24.1,14.3,23.9,5
HP_VB,Huyện Vĩnh Bảo - Hải Phòng,Hải Phòng,Vĩnh Bảo,20.7,106.4667,2026-03-17 14:53:31,openmeteo,high,2026-03-17T14:45,,26.0,27.7,19.6,23.0,63,98,61,86.5,1011.6,1016.4,1008.1,1012.7,20.2,23.8,4.3,12.7,169,133.8,0.0,0.0,0.0,0.0,0.0,92,100,5,76.0,24.1,24.1,14.3,23.9,5
HP_DS,Quận Dương Kinh - Hải Phòng,Hải Phòng,Dương Kinh,20.8025,106.6669,2026-03-17 14:53:29,openmeteo,high,2026-03-17T14:45,,25.6,26.6,19.9,22.9,69,97,67,87.1,1012.0,1016.5,1008.5,1012.9,16.7,20.5,2.6,10.9,161,125.4,0.0,0.0,0.0,0.0,0.0,92,100,28,75.2,24.1,24.1,11.7,23.7,5
HP_HA,Quận Hải An - Hải Phòng,Hải Phòng,Hải An,20.8378,106.7377,2026-03-17 14:53:29,openmeteo,high,2026-03-17T14:45,,25.2,26.4,19.7,22.8,70,96,69,86.0,1012.1,1016.5,1008.6,1013.0,16.0,18.8,2.2,9.9,157,114.9,0.0,0.0,0.0,0.0,0.0,93,100,32,76.3,24.1,24.1,11.7,23.7,5
HP_KS,Quận Kiến An - Hải Phòng,Hải Phòng,Kiến An,20.8075,106.6264,2026-03-17 14:53:29,openmeteo,high,2026-03-17T14:45,,25.5,26.5,19.9,22.8,69,97,67,87.1,1012.0,1016.5,1008.5,1012.9,16.7,20.5,2.6,10.9,161,125.4,0.0,0.0,0.0,0.0,0.0,92,100,28,75.2,24.1,24.1,11.7,23.7,5
HP_LC,Quận Lê Chân - Hải Phòng,Hải Phòng,Lê Chân,20.8516,106.6822,2026-03-17 14:53:27,openmeteo,high,2026-03-17T14:45,,25.5,26.9,19.7,22.8,68,97,67,86.6,1011.9,1016.5,1008.5,1012.9,16.5,20.2,2.3,11.0,160,123.1,0.0,0.0,0.0,0.0,0.0,95,100,27,76.2,24.1,24.1,11.7,23.7,5
HP_NQ,Quận Ngô Quyền - Hải Phòng,Hải Phòng,Ngô Quyền,20.858,106.7053,2026-03-17 14:53:28,openmeteo,high,2026-03-17T14:45,,25.2,26.4,19.7,22.8,70,96,69,86.0,1012.1,1016.5,1008.6,1013.0,16.0,18.8,2.2,9.9,157,114.9,0.0,0.0,0.0,0.0,0.0,93,100,32,76.3,24.1,24.1,11.7,23.7,5
HP_DK,Quận Đồ Sơn - Hải Phòng,Hải Phòng,Đồ Sơn,20.7278,106.7733,2026-03-17 14:53:29,openmeteo,high,2026-03-17T14:45,,25.2,26.3,20.3,22.8,72,96,72,87.9,1012.4,1016.6,1008.7,1013.0,17.0,19.1,3.1,10.4,159,120.8,0.0,0.0,0.0,0.0,0.0,55,100,17,71.3,24.1,24.1,11.7,23.7,5
HP_CB,Đảo Cát Bà - Hải Phòng,Hải Phòng,Cát Hải,20.7264,107.0489,2026-03-17 14:54:58,openmeteo,high,2026-03-17T14:45,,24.2,25.5,19.7,22.2,73,95,73,86.6,1012.4,1016.6,1008.8,1013.1,16.2,18.2,2.2,9.3,163,110.9,0.0,0.0,0.0,0.0,0.0,84,100,34,73.4,12.5,24.1,3.6,23.2,0
HG_CL,Huyện Châu Thành - Hậu Giang,Hậu Giang,Châu Thành,9.9333,105.6833,2026-03-17 14:54:24,openmeteo,high,2026-03-17T14:45,,32.3,34.7,22.7,27.6,45,94,38,71.0,1009.0,1014.6,1007.1,1011.1,13.8,18.4,1.8,9.6,97,118.0,0.0,0.0,0.0,0.0,0.0,66,100,0,60.0,24.1,24.1,20.6,24.1,10
HG_CT,Huyện Châu Thành A - Hậu Giang,Hậu Giang,Châu Thành A,9.9333,105.6333,2026-03-17 14:54:24,openmeteo,high,2026-03-17T14:45,,32.3,34.7,22.7,27.6,45,94,38,71.0,1009.0,1014.6,1007.1,1011.1,13.8,18.4,1.8,9.6,97,118.0,0.0,0.0,0.0,0.0,0.0,66,100,0,60.0,24.1,24.1,20.6,24.1,10
HG_LT,Huyện Long Mỹ - Hậu Giang,Hậu Giang,Long Mỹ,9.6833,105.5667,2026-03-17 14:54:25,openmeteo,high,2026-03-17T14:45,,31.9,34.4,23.0,27.5,47,93,41,71.7,1009.3,1014.5,1007.5,1011.2,15.6,19.1,2.3,10.2,97,112.0,0.0,0.0,0.0,0.0,0.0,87,100,0,59.9,24.1,24.1,24.1,24.1,10
HG_PB,Huyện Phụng Hiệp - Hậu Giang,Hậu Giang,Phụng Hiệp,9.7833,105.7167,2026-03-17 14:54:25,openmeteo,high,2026-03-17T14:45,,31.9,34.6,22.8,27.5,46,94,40,71.3,1009.2,1014.5,1007.4,1011.2,14.9,19.0,1.5,10.0,98,114.8,0.0,0.0,0.0,0.0,0.0,93,100,0,60.7,24.1,24.1,24.1,24.1,10
HG_VT2,Huyện Vị Thủy - Hậu Giang,Hậu Giang,Vị Thủy,9.7667,105.4667,2026-03-17 14:54:25,openmeteo,high,2026-03-17T14:45,,32.6,35.0,22.9,27.7,44,93,39,70.5,1009.0,1014.6,1007.2,1011.2,14.5,18.4,2.9,9.9,97,114.4,0.0,0.0,0.0,0.0,0.0,73,100,0,61.1,24.1,24.1,24.1,24.1,10
HG_VT,Thành phố Vị Thanh - Hậu Giang,Hậu Giang,Vị Thanh,9.7833,105.4667,2026-03-17 14:54:24,openmeteo,high,2026-03-17T14:45,,32.6,35.0,22.9,27.7,44,93,39,70.5,1009.0,1014.6,1007.2,1011.2,14.5,18.4,2.9,9.9,97,114.4,0.0,0.0,0.0,0.0,0.0,73,100,0,61.1,24.1,24.1,24.1,24.1,10
HG_NM,Thị xã Ngã Bảy - Hậu Giang,Hậu Giang,Ngã Bảy,9.8167,105.8167,2026-03-17 14:54:23,openmeteo,high,2026-03-17T14:45,,32.4,34.9,22.6,27.7,45,94,39,70.5,1009.2,1014.6,1007.3,1011.2,15.7,19.8,1.3,10.2,99,116.6,0.0,0.0,0.0,0.0,0.0,91,100,0,59.1,24.1,24.1,24.1,24.1,10
KH_TS,Huyện Trường Sa - Khánh Hòa,Khánh Hòa,Trường Sa,8.65,111.9167,2026-03-17 14:54:37,openmeteo,high,2026-03-17T14:45,,26.9,27.5,26.1,26.9,73,86,66,75.1,1009.8,1014.2,1008.3,1011.3,22.9,26.5,12.6,19.9,60,59.8,0.0,0.3,0.1,0.2,5.0,78,100,4,59.4,24.1,24.1,21.7,24.1,5
KH_CT,Thành phố Cam Ranh - Khánh Hòa,Khánh Hòa,Cam Ranh,11.9,109.1333,2026-03-17 14:54:36,openmeteo,high,2026-03-17T14:45,,27.0,30.7,16.6,23.2,58,99,50,77.9,1011.1,1016.8,1009.7,1013.7,13.9,16.6,2.5,7.3,59,29.7,0.0,0.0,0.0,0.0,0.0,39,88,0,48.2,24.1,24.1,20.0,24.0,5
KH_NT,Thành phố Nha Trang - Khánh Hòa,Khánh Hòa,Nha Trang,12.25,109.1833,2026-03-17 14:54:36,openmeteo,high,2026-03-17T14:45,,29.4,32.5,18.7,25.2,55,98,48,77.4,1010.7,1016.7,1009.3,1013.2,12.8,13.4,0.7,5.8,74,291.7,0.0,0.2,0.2,0.0,0.6,37,83,0,38.9,24.1,24.1,22.1,24.0,5
KH_NH,Thị xã Ninh Hòa - Khánh Hòa,Khánh Hòa,Ninh Hòa,12.5,109.15,2026-03-17 14:54:37,openmeteo,high,2026-03-17T14:45,,28.6,33.4,17.5,25.0,59,99,48,80.2,1010.6,1016.7,1008.9,1013.2,15.5,18.5,0.7,6.5,87,21.2,0.0,0.1,0.1,0.0,0.5,51,92,0,49.6,24.1,24.1,5.1,23.3,5
KH_HS,Đảo Hoàng Sa - Khánh Hòa,Khánh Hòa,Hoàng Sa,16.5322,111.6156,2026-03-17 14:54:59,openmeteo,high,2026-03-17T15:45,,24.6,25.8,24.2,25.0,78,82,70,76.5,1012.1,1016.5,1010.4,1013.5,12.5,19.7,4.7,13.2,57,97.2,0.0,0.1,0.1,0.0,0.2,39,92,0,44.3,24.1,24.1,18.8,24.1,0
KH_TS,Đảo Trường Sa - Khánh Hòa,Khánh Hòa,Trường Sa,8.65,111.9167,2026-03-17 14:54:59,openmeteo,high,2026-03-17T14:45,,26.9,27.5,26.1,26.9,73,86,66,75.1,1009.8,1014.2,1008.3,1011.3,22.9,26.5,12.6,19.9,60,59.8,0.0,0.3,0.1,0.2,5.0,78,100,4,59.4,24.1,24.1,21.7,24.1,5
KG_AT,Huyện An Biên - Kiên Giang,Kiên Giang,An Biên,9.8167,105.0667,2026-03-17 14:54:09,openmeteo,high,2026-03-17T14:45,,30.5,31.8,24.7,27.4,55,90,53,75.7,1009.0,1014.6,1007.8,1011.2,7.6,23.2,3.1,12.9,360,128.2,0.0,0.1,0.1,0.0,0.1,46,100,0,58.4,24.1,24.1,19.1,24.0,10
KG_AM,Huyện An Minh - Kiên Giang,Kiên Giang,An Minh,9.6667,104.95,2026-03-17 14:54:10,openmeteo,high,2026-03-17T14:45,,31.4,32.6,24.2,27.2,49,92,47,76.4,1008.8,1014.5,1008.1,1011.3,5.6,22.5,1.5,12.5,333,132.4,0.0,0.1,0.1,0.0,0.7,81,100,0,60.8,24.1,24.1,19.1,24.0,10
KG_CL,Huyện Châu Thành - Kiên Giang,Kiên Giang,Châu Thành,9.9333,105.1667,2026-03-17 14:54:09,openmeteo,high,2026-03-17T14:45,,30.5,31.9,24.8,27.4,55,90,53,75.7,1009.0,1014.6,1007.8,1011.2,7.6,23.2,3.1,12.9,360,128.2,0.0,0.1,0.1,0.0,0.1,46,100,0,58.4,24.1,24.1,21.9,24.1,10
KG_GT,Huyện Giang Thành - Kiên Giang,Kiên Giang,Giang Thành,10.4833,104.6333,2026-03-17 14:54:10,openmeteo,high,2026-03-17T14:45,,33.8,34.1,23.2,28.3,39,90,39,69.8,1008.9,1014.9,1007.8,1011.1,5.0,16.7,3.5,7.7,120,156.5,0.0,0.3,0.1,0.0,0.4,90,100,0,58.1,24.1,24.1,12.2,23.8,10
KG_GD,Huyện Gò Quao - Kiên Giang,Kiên Giang,Gò Quao,9.7333,105.2667,2026-03-17 14:54:10,openmeteo,high,2026-03-17T14:45,,33.4,35.5,23.2,28.2,41,92,37,68.5,1008.7,1014.6,1007.1,1011.1,14.0,19.4,0.4,9.6,89,116.1,0.0,0.1,0.1,0.0,0.1,69,100,0,66.1,24.1,24.1,23.8,24.1,10
KG_HG,Huyện Hòn Đất - Kiên Giang,Kiên Giang,Hòn Đất,10.2333,104.9333,2026-03-17 14:54:10,openmeteo,high,2026-03-17T14:45,,30.0,31.0,25.1,27.6,63,86,60,74.8,1009.2,1014.8,1007.8,1011.2,9.4,17.4,6.8,11.0,173,158.8,0.0,0.1,0.1,0.0,0.4,38,100,0,53.2,24.1,24.1,24.1,24.1,5
KG_KT,Huyện Kiên Hải - Kiên Giang,Kiên Giang,Kiên Hải,9.71,104.33,2026-03-17 14:54:11,openmeteo,high,2026-03-17T14:45,,28.1,28.4,26.1,27.4,71,83,70,76.4,1009.6,1014.6,1008.2,1011.3,1.1,23.3,1.1,14.3,198,146.7,0.0,0.2,0.2,0.0,1.0,0,100,0,43.9,24.1,24.1,15.5,24.0,5
KG_LS,Huyện Kiên Lương - Kiên Giang,Kiên Giang,Kiên Lương,10.25,104.6333,2026-03-17 14:54:11,openmeteo,high,2026-03-17T14:45,,28.3,29.3,26.0,27.8,71,82,68,75.3,1009.5,1014.7,1007.9,1011.2,10.7,18.9,7.3,12.8,222,167.8,0.0,0.3,0.1,0.1,2.0,37,100,0,47.5,24.1,24.1,24.1,24.1,5
KG_PQ,Huyện Phú Quốc - Kiên Giang,Kiên Giang,Phú Quốc,10.227,103.9679,2026-03-17 14:54:09,openmeteo,high,2026-03-17T14:45,,29.7,30.4,25.9,28.2,62,86,60,74.4,1009.6,1014.6,1008.1,1011.2,11.7,19.8,4.1,10.8,137,154.6,0.0,0.4,0.1,0.4,8.6,13,100,0,49.9,24.1,24.1,12.7,23.7,5
KG_TG,Huyện Tân Hiệp - Kiên Giang,Kiên Giang,Tân Hiệp,10.1,105.2833,2026-03-17 14:54:12,openmeteo,high,2026-03-17T14:45,,33.3,35.2,22.9,28.1,41,94,39,69.1,1008.7,1014.7,1007.1,1011.1,11.9,18.1,2.3,8.5,88,127.6,0.0,0.0,0.0,0.0,0.0,69,100,0,68.4,24.1,24.1,21.9,24.1,10
KG_UM,Huyện U Minh Thượng - Kiên Giang,Kiên Giang,U Minh Thượng,9.6,105.1,2026-03-17 14:54:11,openmeteo,high,2026-03-17T14:45,,32.9,34.2,22.6,27.5,43,95,41,72.3,1008.7,1014.5,1007.4,1011.1,12.6,18.3,1.3,8.3,93,121.4,0.0,0.1,0.1,0.0,0.1,67,100,0,65.6,24.1,24.1,21.7,24.1,10
KG_VT,Huyện Vĩnh Thuận - Kiên Giang,Kiên Giang,Vĩnh Thuận,9.5333,105.25,2026-03-17 14:54:12,openmeteo,high,2026-03-17T14:45,,32.8,34.7,22.7,27.5,43,95,39,71.6,1008.9,1014.5,1007.3,1011.1,13.8,18.5,2.5,8.9,99,112.1,0.0,0.0,0.0,0.0,0.0,80,100,1,66.2,24.1,24.1,24.1,24.1,10
KG_HN,Thành phố Hà Tiên - Kiên Giang,Kiên Giang,Hà Tiên,10.3833,104.4833,2026-03-17 14:54:09,openmeteo,high,2026-03-17T14:45,,27.4,29.2,25.8,27.5,78,83,68,76.3,1009.6,1014.8,1007.9,1011.3,12.6,17.6,6.4,11.3,211,174.5,0.0,0.5,0.1,0.2,3.8,54,100,0,47.6,24.1,24.1,20.8,24.1,5
KG_RG,Thành phố Rạch Giá - Kiên Giang,Kiên Giang,Rạch Giá,10.0317,105.0809,2026-03-17 14:54:08,openmeteo,high,2026-03-17T14:45,,31.9,33.8,24.5,27.9,47,89,43,72.3,1008.8,1014.7,1007.4,1011.2,7.6,18.9,0.4,10.1,85,133.9,0.0,0.1,0.1,0.0,0.5,69,100,0,61.9,24.1,24.1,21.9,24.1,10
KG_ND,Đảo Nam Du - Kiên Giang,Kiên Giang,Kiên Hải,9.71,104.33,2026-03-17 14:55:01,openmeteo,high,2026-03-17T14:45,,28.1,28.4,26.1,27.4,71,83,70,76.4,1009.6,1014.6,1008.2,1011.3,1.1,23.3,1.1,14.3,198,146.7,0.0,0.2,0.2,0.0,1.0,0,100,0,43.9,24.1,24.1,15.5,24.0,5
KG_PQ2,Đảo Phú Quốc - Kiên Giang,Kiên Giang,Phú Quốc,10.227,103.9679,2026-03-17 14:55:00,openmeteo,high,2026-03-17T14:45,,29.7,30.4,25.9,28.2,62,86,60,74.4,1009.6,1014.6,1008.1,1011.2,11.7,19.8,4.1,10.8,137,154.6,0.0,0.4,0.1,0.4,8.6,13,100,0,49.9,24.1,24.1,12.7,23.7,5
KG_TC,Đảo Thổ Chu - Kiên Giang,Kiên Giang,Phú Quốc,9.3,103.4833,2026-03-17 14:55:01,openmeteo,high,2026-03-17T14:45,,26.9,27.4,25.9,26.7,73,81,69,75.9,1009.9,1014.3,1008.8,1011.3,13.9,22.4,4.3,13.9,121,128.9,0.0,0.1,0.1,0.0,0.4,56,100,0,42.8,24.1,24.1,24.1,24.1,5
KT_NH,Huyện Ngọc Hồi - Kon Tum,Kon Tum,Ngọc Hồi,14.7,107.8333,2026-03-17 14:54:56,openmeteo,high,2026-03-17T14:45,,30.1,32.7,16.7,25.0,40,93,37,68.3,1009.8,1016.7,1008.3,1012.8,6.5,17.1,0.5,4.7,186,100.3,0.0,1.0,0.3,0.2,5.4,22,100,0,49.2,24.1,24.1,7.2,23.5,10
KT_DG,Huyện Đắk Glei - Kon Tum,Kon Tum,Đắk Glei,15.0167,107.75,2026-03-17 14:54:55,openmeteo,high,2026-03-17T14:45,,29.8,32.0,17.7,24.4,39,97,36,76.3,1010.8,1017.0,1009.8,1014.1,2.2,9.2,0.4,4.4,351,355.1,0.0,2.3,0.1,0.8,19.1,75,100,0,62.3,24.1,24.1,6.4,22.0,5
KT_KT,Thành phố Kon Tum - Kon Tum,Kon Tum,Kon Tum,14.3833,107.9833,2026-03-17 14:54:54,openmeteo,high,2026-03-17T14:45,,31.5,34.6,18.5,26.5,35,97,24,62.3,1009.6,1016.6,1007.5,1012.5,5.6,22.5,0.4,5.1,105,83.4,0.0,0.1,0.1,0.0,0.3,37,100,0,44.2,24.1,24.1,11.3,23.9,10
LC_PT,Huyện Phong Thổ - Lai Châu,Lai Châu,Phong Thổ,22.5333,103.3333,2026-03-17 14:54:41,openmeteo,high,2026-03-17T14:45,,25.9,31.1,16.0,21.9,59,97,33,77.5,1010.0,1015.8,1006.0,1011.6,9.4,12.9,1.5,4.9,140,174.3,0.0,2.0,0.1,0.8,19.8,77,100,0,60.2,24.1,24.1,12.3,24.0,5
LC_TN,Huyện Tam Đường - Lai Châu,Lai Châu,Tam Đường,22.3667,103.6167,2026-03-17 14:54:41,openmeteo,high,2026-03-17T14:45,,19.7,23.6,11.4,16.6,59,95,37,77.3,1011.2,1016.6,1007.5,1012.6,8.9,18.4,1.3,7.2,227,143.9,0.0,2.9,0.1,1.2,29.2,55,100,0,58.4,24.1,24.1,5.4,23.5,0
LC_LC,Thành phố Lai Châu - Lai Châu,Lai Châu,Lai Châu,22.4,103.45,2026-03-17 14:54:40,openmeteo,high,2026-03-17T14:45,,26.0,29.9,17.6,22.8,59,94,35,75.6,1010.8,1016.2,1007.0,1012.1,4.6,16.0,0.7,5.3,219,143.0,0.0,2.8,0.1,1.2,28.9,66,100,0,59.1,24.1,24.1,5.2,22.2,5
LA_DH,Huyện Đức Hòa - Long An,Long An,Đức Hòa,10.8833,106.4167,2026-03-17 14:54:57,openmeteo,high,2026-03-17T14:45,,33.3,35.8,22.6,28.0,44,92,37,69.3,1008.6,1014.7,1006.8,1011.0,3.6,21.1,2.1,10.4,45,135.4,0.0,0.0,0.0,0.0,0.0,58,100,0,56.7,24.1,24.1,19.7,24.1,10
LA_TA,Thành phố Tân An - Long An,Long An,Tân An,10.5333,106.4167,2026-03-17 14:54:57,openmeteo,high,2026-03-17T14:45,,32.7,34.0,23.4,27.6,41,90,40,71.1,1009.0,1014.5,1007.5,1011.2,14.3,20.3,3.8,12.4,129,127.8,0.0,0.0,0.0,0.0,0.0,71,100,0,59.1,24.1,24.1,21.2,24.1,10
LA_KT,Thị xã Kiến Tường - Long An,Long An,Kiến Tường,10.7667,105.9,2026-03-17 14:54:57,openmeteo,high,2026-03-17T14:45,,33.5,35.0,22.5,28.0,43,94,41,69.6,1008.7,1014.7,1007.0,1011.0,7.4,15.3,3.7,8.9,104,135.5,0.0,0.0,0.0,0.0,0.0,82,100,0,61.3,24.1,24.1,21.6,24.1,10
LC_BT,Huyện Bát Xát - Lào Cai,Lào Cai,Bát Xát,22.5333,103.8833,2026-03-17 14:54:55,openmeteo,high,2026-03-17T14:45,,21.6,25.4,15.2,19.4,55,93,41,72.5,1011.9,1017.2,1008.8,1013.5,13.4,23.2,1.0,8.2,246,222.6,0.0,1.8,0.1,0.6,14.0,86,100,0,65.2,24.1,24.1,11.7,22.7,0
LC_SM,Huyện Sa Pa - Lào Cai,Lào Cai,Sa Pa,22.3367,103.84,2026-03-17 14:54:55,openmeteo,high,2026-03-17T14:45,,23.3,27.0,15.3,20.2,58,98,40,78.7,1011.6,1017.0,1008.1,1013.1,12.0,22.4,1.3,7.5,226,148.4,0.0,2.1,0.1,1.0,23.9,63,100,0,57.7,21.2,24.1,2.3,19.7,0
LC_LC2,Thành phố Lào Cai - Lào Cai,Lào Cai,Lào Cai,22.4833,103.95,2026-03-17 14:54:56,openmeteo,high,2026-03-17T14:45,,27.0,30.3,19.1,23.3,66,100,57,84.1,1009.7,1016.1,1006.0,1011.8,10.4,14.9,0.7,5.8,90,65.5,0.0,1.0,0.1,0.5,11.5,61,100,3,76.4,24.1,24.1,11.7,22.7,5
LD_BD,Huyện Bảo Lâm - Lâm Đồng,Lâm Đồng,Bảo Lâm,11.7,107.7167,2026-03-17 14:53:56,openmeteo,high,2026-03-17T14:45,,30.2,32.4,16.1,24.1,35,96,30,70.0,1009.2,1016.1,1007.8,1012.3,3.6,11.6,1.8,4.6,354,80.4,0.0,0.3,0.2,0.1,2.0,53,98,0,54.0,24.1,24.1,17.0,24.0,10
LD_CD,Huyện Cát Tiên - Lâm Đồng,Lâm Đồng,Cát Tiên,11.5833,107.35,2026-03-17 14:53:56,openmeteo,high,2026-03-17T14:45,,32.5,34.4,19.4,26.8,41,99,38,71.7,1008.7,1015.2,1007.3,1011.4,5.0,14.4,0.4,4.1,249,250.3,0.0,0.1,0.1,0.0,0.3,56,100,0,58.9,24.1,24.1,19.2,24.1,10
LD_DD,Huyện Di Linh - Lâm Đồng,Lâm Đồng,Di Linh,11.5833,108.0667,2026-03-17 14:53:57,openmeteo,high,2026-03-17T14:45,,26.8,30.6,13.6,21.2,42,100,28,75.1,1010.2,1016.9,1008.6,1013.6,3.8,12.3,0.8,4.3,319,93.3,0.0,1.0,0.1,0.1,3.6,79,100,0,54.4,24.1,24.1,2.0,23.4,5
LD_LH,Huyện Lâm Hà - Lâm Đồng,Lâm Đồng,Lâm Hà,11.8333,108.2,2026-03-17 14:53:58,openmeteo,high,2026-03-17T14:45,,27.8,32.0,13.8,22.6,44,100,29,70.4,1010.5,1017.0,1008.7,1013.9,7.4,11.9,1.1,5.3,284,94.2,0.0,0.1,0.1,0.0,0.4,81,97,0,48.4,24.1,24.1,20.2,24.0,5
LD_LC,Huyện Lạc Dương - Lâm Đồng,Lâm Đồng,Lạc Dương,12.0,108.4333,2026-03-17 14:53:59,openmeteo,high,2026-03-17T14:45,,22.7,27.1,12.1,18.8,51,97,32,62.8,1011.4,1017.5,1010.0,1014.6,12.1,15.0,1.1,7.3,297,50.8,0.0,0.1,0.1,0.0,0.3,90,93,0,34.4,24.1,24.1,3.2,23.5,0
LD_DT2,Huyện Đam Rông - Lâm Đồng,Lâm Đồng,Đam Rông,12.0833,108.1667,2026-03-17 14:53:57,openmeteo,high,2026-03-17T14:45,,31.1,34.9,15.6,25.4,38,100,26,66.7,1009.6,1016.6,1007.7,1012.6,11.2,13.7,0.0,5.1,354,19.9,0.0,0.0,0.0,0.0,0.0,11,100,0,36.7,24.1,24.1,15.1,24.0,10
LD_DL2,Huyện Đơn Dương - Lâm Đồng,Lâm Đồng,Đơn Dương,11.75,108.55,2026-03-17 14:53:58,openmeteo,high,2026-03-17T14:45,,26.0,30.2,11.7,21.0,47,99,27,70.2,1010.8,1017.1,1009.7,1014.3,10.0,16.3,3.7,7.9,159,96.1,0.0,0.1,0.1,0.0,0.1,90,94,0,45.4,24.1,24.1,0.5,23.1,5
LD_DH,Huyện Đạ Huoai - Lâm Đồng,Lâm Đồng,Đạ Huoai,11.4167,107.6333,2026-03-17 14:53:56,openmeteo,high,2026-03-17T14:45,,32.7,34.9,20.7,27.4,48,98,43,73.9,1008.8,1015.1,1007.1,1011.4,6.3,15.2,0.4,4.2,204,162.5,0.0,0.0,0.0,0.0,0.0,44,87,0,54.1,24.1,24.1,16.8,24.1,10
LD_DT,Huyện Đạ Tẻh - Lâm Đồng,Lâm Đồng,Đạ Tẻh,11.5,107.5167,2026-03-17 14:53:57,openmeteo,high,2026-03-17T14:45,,33.9,36.2,19.6,27.7,36,97,32,70.0,1008.4,1015.0,1006.7,1011.2,5.4,12.3,0.4,3.6,180,240.6,0.0,1.2,0.1,0.2,3.9,30,86,0,54.1,24.1,24.1,18.3,24.1,10
LD_DR,Huyện Đức Trọng - Lâm Đồng,Lâm Đồng,Đức Trọng,11.7333,108.3,2026-03-17 14:53:57,openmeteo,high,2026-03-17T14:45,,27.9,31.3,14.6,22.4,41,100,28,72.4,1010.0,1017.0,1008.3,1013.5,4.5,11.0,0.0,4.4,284,97.0,0.0,0.5,0.5,0.1,1.5,64,100,0,50.2,24.1,24.1,20.2,24.0,5
LD_BA,Thành phố Bảo Lộc - Lâm Đồng,Lâm Đồng,Bảo Lộc,11.55,107.8,2026-03-17 14:53:56,openmeteo,high,2026-03-17T14:45,,29.0,31.5,18.2,24.3,52,93,44,74.1,1009.3,1015.5,1007.9,1012.0,8.4,11.7,0.8,5.7,239,124.9,0.0,0.4,0.1,0.1,1.7,71,90,0,54.2,24.1,24.1,16.8,24.1,5
LD_DL,Thành phố Đà Lạt - Lâm Đồng,Lâm Đồng,Đà Lạt,11.9404,108.4587,2026-03-17 14:53:56,openmeteo,high,2026-03-17T14:45,,23.4,27.7,12.7,19.4,51,97,32,62.8,1011.4,1017.5,1010.0,1014.6,12.1,15.0,1.1,7.3,297,50.8,0.0,0.1,0.1,0.0,0.3,90,93,0,34.4,24.1,24.1,3.2,23.5,0
LS_CL,Huyện Cao Lộc - Lạng Sơn,Lạng Sơn,Cao Lộc,21.9,106.8,2026-03-17 14:54:43,openmeteo,high,2026-03-17T14:45,,23.8,26.4,17.1,21.4,69,97,68,84.1,1012.1,1017.0,1008.5,1013.3,15.3,17.8,1.4,7.8,189,170.5,0.0,0.2,0.2,0.1,1.2,94,100,28,75.0,24.1,24.1,5.3,23.9,0
LS_LL,Huyện Lộc Bình - Lạng Sơn,Lạng Sơn,Lộc Bình,21.75,106.9333,2026-03-17 14:54:42,openmeteo,high,2026-03-17T14:45,,23.1,27.4,16.7,21.4,72,98,62,82.5,1012.4,1017.0,1008.5,1013.3,14.1,16.7,1.0,7.4,184,172.9,0.0,0.1,0.1,0.0,0.3,94,100,24,68.3,24.1,24.1,1.2,22.8,0
LS_LS,Thành phố Lạng Sơn - Lạng Sơn,Lạng Sơn,Lạng Sơn,21.8478,106.7578,2026-03-17 14:54:43,openmeteo,high,2026-03-17T14:45,,23.9,26.5,17.2,21.5,69,97,68,84.1,1012.1,1017.0,1008.5,1013.3,15.3,17.8,1.4,7.8,189,170.5,0.0,0.2,0.2,0.1,1.2,94,100,28,75.0,24.1,24.1,20.4,24.0,0
ND_GL,Huyện Giao Thủy - Nam Định,Nam Định,Giao Thủy,20.2333,106.45,2026-03-17 14:53:41,openmeteo,high,2026-03-17T14:45,,25.5,26.6,20.1,23.0,69,98,67,88.2,1012.2,1016.5,1008.4,1012.8,20.8,21.1,2.3,11.4,162,146.5,0.0,0.0,0.0,0.0,0.0,43,100,0,66.8,24.1,24.1,6.3,23.7,5
ND_HH,Huyện Hải Hậu - Nam Định,Nam Định,Hải Hậu,20.1833,106.3,2026-03-17 14:53:41,openmeteo,high,2026-03-17T14:45,,25.5,27.2,20.5,23.4,71,98,67,86.8,1012.0,1016.4,1008.2,1012.7,18.8,19.2,2.0,9.6,160,154.8,0.0,0.1,0.1,0.0,0.3,72,100,9,71.5,24.1,24.1,11.9,23.9,5
ND_ML,Huyện Mỹ Lộc - Nam Định,Nam Định,Mỹ Lộc,20.4667,106.1167,2026-03-17 14:53:42,openmeteo,high,2026-03-17T14:45,,26.8,29.7,20.1,23.7,62,97,62,83.9,1011.2,1016.2,1007.6,1012.5,17.2,20.0,3.1,10.2,160,154.0,0.0,0.0,0.0,0.0,0.0,74,100,19,77.8,24.1,24.1,9.6,23.8,5
ND_NC,Huyện Nam Trực - Nam Định,Nam Định,Nam Trực,20.3333,106.2,2026-03-17 14:53:42,openmeteo,high,2026-03-17T14:45,,26.0,27.9,19.9,23.3,66,99,63,86.1,1011.7,1016.4,1008.1,1012.7,20.2,22.1,2.6,11.2,164,150.6,0.0,0.0,0.0,0.0,0.0,87,100,7,74.1,24.1,24.1,17.5,24.0,5
ND_TK,Huyện Trực Ninh - Nam Định,Nam Định,Trực Ninh,20.25,106.25,2026-03-17 14:53:42,openmeteo,high,2026-03-17T14:45,,26.0,27.4,20.0,23.3,66,99,63,86.6,1011.9,1016.4,1008.2,1012.7,21.2,22.5,2.5,11.4,162,150.9,0.0,0.0,0.0,0.0,0.0,67,100,4,72.0,24.1,24.1,17.5,24.0,5
ND_VB,Huyện Vụ Bản - Nam Định,Nam Định,Vụ Bản,20.3667,106.1,2026-03-17 14:53:42,openmeteo,high,2026-03-17T14:45,,26.3,28.7,20.0,23.5,65,99,63,85.3,1011.5,1016.3,1007.9,1012.6,18.7,20.8,2.9,10.4,164,152.7,0.0,0.1,0.1,0.0,0.3,88,100,9,76.3,24.1,24.1,17.1,24.0,5
ND_XT,Huyện Xuân Trường - Nam Định,Nam Định,Xuân Trường,20.3,106.35,2026-03-17 14:53:43,openmeteo,high,2026-03-17T14:45,,25.5,26.6,20.1,23.0,69,98,67,88.2,1012.2,1016.5,1008.4,1012.8,20.8,21.1,2.3,11.4,162,146.5,0.0,0.0,0.0,0.0,0.0,43,100,0,66.8,24.1,24.1,17.5,24.0,5
ND_YN,Huyện Ý Yên - Nam Định,Nam Định,Ý Yên,20.3167,106.0167,2026-03-17 14:53:42,openmeteo,high,2026-03-17T14:45,,26.5,29.1,20.0,23.6,65,98,64,84.7,1011.3,1016.4,1007.7,1012.6,19.9,21.9,1.5,10.3,160,154.9,0.0,0.1,0.1,0.0,0.3,63,100,30,80.5,24.1,24.1,17.1,24.0,5
ND_TP,Thành phố Nam Định - Nam Định,Nam Định,Nam Định,20.42,106.1683,2026-03-17 14:53:41,openmeteo,high,2026-03-17T14:45,,26.3,28.7,19.9,23.4,65,99,63,85.3,1011.5,1016.3,1007.9,1012.6,18.7,20.8,2.9,10.4,164,152.7,0.0,0.1,0.1,0.0,0.3,88,100,9,76.3,24.1,24.1,17.5,24.0,5
NA_HH,Huyện Hoàng Mai - Nghệ An,Nghệ An,Hoàng Mai,19.2667,105.7167,2026-03-17 14:54:32,openmeteo,high,2026-03-17T14:45,,25.6,27.9,19.0,23.2,71,100,66,88.2,1012.0,1016.5,1008.4,1012.7,14.0,16.9,0.4,6.3,132,124.5,0.0,0.0,0.0,0.0,0.0,60,100,0,64.2,24.1,24.1,1.1,22.6,5
NA_VH,Thành phố Vinh - Nghệ An,Nghệ An,Vinh,18.6733,105.6811,2026-03-17 14:54:31,openmeteo,high,2026-03-17T14:45,,27.7,31.9,18.6,24.1,63,100,59,84.6,1011.4,1016.3,1007.6,1012.3,11.2,13.3,0.0,4.5,86,56.4,0.0,0.0,0.0,0.0,0.0,79,100,0,62.2,24.1,24.1,16.3,23.8,5
NA_CT,Thị xã Cửa Lò - Nghệ An,Nghệ An,Cửa Lò,18.8167,105.7167,2026-03-17 14:54:32,openmeteo,high,2026-03-17T14:45,,25.5,28.6,18.8,23.4,75,100,65,87.4,1011.9,1016.3,1008.0,1012.4,13.0,13.4,0.5,5.0,90,64.1,0.0,0.0,0.0,0.0,0.0,79,100,0,59.9,24.1,24.1,16.3,23.8,5
NA_TH,Thị xã Thái Hòa - Nghệ An,Nghệ An,Thái Hòa,19.3,105.4667,2026-03-17 14:54:31,openmeteo,high,2026-03-17T14:45,,27.0,31.4,19.0,23.6,63,100,63,86.0,1011.4,1016.6,1007.8,1012.6,12.6,16.4,0.0,5.4,127,96.2,0.0,0.2,0.2,0.0,0.6,64,100,0,69.8,24.1,24.1,18.7,23.9,5
NB_HS,Huyện Hoa Lư - Ninh Bình,Ninh Bình,Hoa Lư,20.2833,105.9167,2026-03-17 14:54:51,openmeteo,high,2026-03-17T14:45,,26.5,29.5,19.8,23.5,64,96,63,83.9,1011.3,1016.3,1007.8,1012.6,18.7,21.7,1.9,9.5,157,163.3,0.0,0.2,0.2,0.0,0.4,75,100,31,78.0,24.1,24.1,17.1,24.0,5
NB_NB,Thành phố Ninh Bình - Ninh Bình,Ninh Bình,Ninh Bình,20.2539,105.975,2026-03-17 14:54:50,openmeteo,high,2026-03-17T14:45,,26.1,28.5,19.8,23.4,67,98,65,85.7,1011.6,1016.4,1008.0,1012.7,19.0,20.8,1.9,9.5,155,155.4,0.0,0.0,0.0,0.0,0.0,80,100,23,76.3,24.1,24.1,17.1,24.0,5
NB_TL,Thành phố Tam Điệp - Ninh Bình,Ninh Bình,Tam Điệp,20.15,105.9167,2026-03-17 14:54:50,openmeteo,high,2026-03-17T14:45,,26.2,29.3,19.8,23.5,67,96,65,85.3,1011.5,1016.4,1008.0,1012.7,17.7,19.8,1.1,8.7,153,153.4,0.0,0.0,0.0,0.0,0.0,63,100,28,76.4,24.1,24.1,17.1,24.0,5
NT_NA,Huyện Ninh Hải - Ninh Thuận,Ninh Thuận,Ninh Hải,11.6,109.0333,2026-03-17 14:54:37,openmeteo,high,2026-03-17T14:45,,30.9,33.8,18.4,25.6,48,95,44,72.4,1009.6,1015.9,1008.7,1012.5,17.3,19.2,0.0,7.1,85,185.6,0.0,0.0,0.0,0.0,0.0,13,93,0,26.9,24.1,24.1,24.1,24.1,10
NT_TA,Huyện Thuận Bắc - Ninh Thuận,Ninh Thuận,Thuận Bắc,11.75,108.9333,2026-03-17 14:54:38,openmeteo,high,2026-03-17T14:45,,30.8,33.6,17.5,24.7,42,95,38,68.1,1009.4,1016.3,1008.6,1012.7,14.2,16.1,0.4,6.4,99,112.0,0.0,0.0,0.0,0.0,0.0,11,91,0,35.4,24.1,24.1,24.1,24.1,10
NT_PH,Thành phố Phan Rang-Tháp Chàm - Ninh Thuận,Ninh Thuận,Phan Rang-Tháp Chàm,11.5667,108.9833,2026-03-17 14:54:37,openmeteo,high,2026-03-17T14:45,,30.9,33.8,18.4,25.6,48,95,44,72.4,1009.6,1015.9,1008.7,1012.5,17.3,19.2,0.0,7.1,85,185.6,0.0,0.0,0.0,0.0,0.0,13,93,0,26.9,24.1,24.1,24.1,24.1,10
PT_HT,Huyện Hạ Hòa - Phú Thọ,Phú Thọ,Hạ Hòa,21.55,105.0,2026-03-17 14:54:47,openmeteo,high,2026-03-17T14:45,,25.8,27.4,19.5,22.9,70,100,69,87.4,1010.8,1016.6,1007.5,1012.3,7.2,12.5,1.0,4.6,87,97.2,0.0,0.8,0.1,0.1,3.6,87,100,47,87.4,24.1,24.1,1.9,22.9,5
PT_VT,Thành phố Việt Trì - Phú Thọ,Phú Thọ,Việt Trì,21.3,105.4333,2026-03-17 14:54:46,openmeteo,high,2026-03-17T14:45,,28.3,29.5,20.0,23.9,60,97,60,84.5,1009.8,1016.2,1006.6,1011.8,13.5,19.3,4.0,10.6,115,105.9,0.0,0.0,0.0,0.0,0.0,75,100,26,77.2,24.1,24.1,19.3,24.0,5
PT_PT,Thị xã Phú Thọ - Phú Thọ,Phú Thọ,Phú Thọ,21.4,105.2333,2026-03-17 14:54:47,openmeteo,high,2026-03-17T14:45,,27.9,29.4,20.1,23.8,62,96,61,84.2,1010.0,1016.2,1006.7,1011.9,12.2,17.1,2.9,8.9,109,111.0,0.0,0.4,0.2,0.1,1.8,87,100,34,82.3,24.1,24.1,6.2,23.7,5
PY_DD,Huyện Đông Hòa - Phú Yên,Phú Yên,Đông Hòa,12.9833,109.3667,2026-03-17 14:54:36,openmeteo,high,2026-03-17T14:45,,26.4,29.8,17.8,23.7,67,99,65,85.2,1011.6,1016.8,1009.3,1013.3,11.2,11.4,0.7,5.6,40,127.5,0.0,0.2,0.1,0.0,0.7,33,87,6,57.7,24.1,24.1,22.5,24.1,5
PY_TH,Thành phố Tuy Hòa - Phú Yên,Phú Yên,Tuy Hòa,13.0833,109.3,2026-03-17 14:54:36,openmeteo,high,2026-03-17T14:45,,28.3,31.5,16.8,24.3,54,99,51,80.6,1011.1,1016.7,1009.1,1013.2,12.4,15.7,0.5,6.5,68,50.8,0.0,0.0,0.0,0.0,0.0,47,96,4,56.2,24.1,24.1,22.5,24.1,5
PY_SH,Thị xã Sông Cầu - Phú Yên,Phú Yên,Sông Cầu,13.45,109.2167,2026-03-17 14:54:36,openmeteo,high,2026-03-17T14:45,,28.4,32.2,16.9,24.3,54,99,49,79.5,1011.2,1016.7,1009.2,1013.3,11.1,14.0,0.4,5.4,61,36.3,0.0,0.1,0.1,0.0,0.3,48,97,0,54.6,24.1,24.1,20.5,24.0,5
QB_BT,Huyện Bố Trạch - Quảng Bình,Quảng Bình,Bố Trạch,17.5,106.25,2026-03-17 14:53:48,openmeteo,high,2026-03-17T14:45,,24.2,31.9,14.1,21.1,62,100,45,84.9,1012.3,1017.0,1008.9,1013.4,8.9,9.5,0.0,3.8,63,73.9,0.0,2.2,0.1,0.5,11.1,83,100,0,61.0,24.1,24.1,0.2,20.4,0
QB_LT,Huyện Lệ Thủy - Quảng Bình,Quảng Bình,Lệ Thủy,17.2167,106.8,2026-03-17 14:53:48,openmeteo,high,2026-03-17T14:45,,26.2,29.3,18.9,23.6,69,99,68,87.6,1012.1,1016.3,1008.2,1012.7,12.2,12.2,0.0,4.2,76,75.5,0.0,0.0,0.0,0.0,0.0,53,100,14,59.1,24.1,24.1,4.6,23.4,5
QB_MC,Huyện Minh Hóa - Quảng Bình,Quảng Bình,Minh Hóa,17.7833,105.9167,2026-03-17 14:53:48,openmeteo,high,2026-03-17T14:45,,25.6,32.0,15.2,22.4,60,100,50,84.6,1012.4,1017.0,1008.8,1013.6,8.8,9.2,0.0,4.3,55,23.6,0.0,1.9,0.1,0.6,14.5,53,100,0,60.0,24.1,24.1,0.4,20.6,5
QB_QN,Huyện Quảng Ninh - Quảng Bình,Quảng Bình,Quảng Ninh,17.4,106.55,2026-03-17 14:53:48,openmeteo,high,2026-03-17T14:45,,25.5,32.3,17.0,23.2,68,100,59,85.1,1012.6,1016.8,1008.6,1013.3,10.8,11.2,0.0,4.4,88,109.6,0.0,3.0,0.2,0.4,8.6,74,100,5,63.7,24.1,24.1,8.5,23.4,5
QB_QH,Huyện Quảng Trạch - Quảng Bình,Quảng Bình,Quảng Trạch,17.8333,106.4167,2026-03-17 14:53:49,openmeteo,high,2026-03-17T14:45,,25.5,28.1,19.1,22.8,69,100,65,88.5,1012.3,1016.3,1008.3,1012.8,14.7,15.5,0.4,6.4,115,125.7,0.0,0.0,0.0,0.0,0.0,32,100,0,63.8,24.1,24.1,0.5,22.1,5
QB_TN,Huyện Tuyên Hóa - Quảng Bình,Quảng Bình,Tuyên Hóa,17.9,106.0,2026-03-17 14:53:49,openmeteo,high,2026-03-17T14:45,,27.4,31.4,18.9,24.1,64,100,64,86.9,1011.6,1016.5,1006.4,1012.7,7.8,9.4,0.0,3.8,77,106.8,0.0,0.9,0.1,0.3,7.5,65,100,0,61.9,24.1,24.1,9.3,23.8,5
QB_DH,Thành phố Đồng Hới - Quảng Bình,Quảng Bình,Đồng Hới,17.4687,106.6227,2026-03-17 14:53:47,openmeteo,high,2026-03-17T14:45,,25.0,29.9,17.6,22.9,71,100,67,86.4,1012.5,1016.7,1008.3,1013.1,12.3,12.6,0.0,4.2,83,89.7,0.0,0.0,0.0,0.0,0.0,64,100,6,64.3,24.1,24.1,8.5,23.4,0
QB_BAD,Thị xã Ba Đồn - Quảng Bình,Quảng Bình,Ba Đồn,17.75,106.4167,2026-03-17 14:53:47,openmeteo,high,2026-03-17T14:45,,25.9,28.1,18.8,23.4,70,100,70,88.5,1012.2,1016.2,1008.4,1012.7,13.7,14.1,0.4,5.6,93,79.4,0.0,0.0,0.0,0.0,0.0,41,100,0,55.4,24.1,24.1,0.5,22.1,5
QN_NT,Huyện Núi Thành - Quảng Nam,Quảng Nam,Núi Thành,15.4333,108.6667,2026-03-17 14:54:33,openmeteo,high,2026-03-17T14:45,,28.1,32.0,18.9,25.3,66,98,53,83.0,1012.0,1016.6,1008.7,1013.1,9.4,13.3,1.1,5.7,50,126.5,0.0,0.0,0.0,0.0,0.0,55,100,0,43.5,24.1,24.1,20.0,24.0,5
QN_DG,Huyện Điện Bàn - Quảng Nam,Quảng Nam,Điện Bàn,15.9,108.25,2026-03-17 14:54:34,openmeteo,high,2026-03-17T14:45,,27.1,29.5,19.5,24.5,66,100,59,84.4,1011.8,1016.5,1008.8,1012.9,13.6,17.8,0.4,5.8,79,100.3,0.0,0.0,0.0,0.0,0.0,57,100,0,54.0,24.1,24.1,24.1,24.1,5
QN_HT,Thành phố Hội An - Quảng Nam,Quảng Nam,Hội An,15.8833,108.3333,2026-03-17 14:54:33,openmeteo,high,2026-03-17T14:45,,26.9,29.3,19.3,24.3,66,100,59,84.4,1011.8,1016.5,1008.8,1012.9,13.6,17.8,0.4,5.8,79,100.3,0.0,0.0,0.0,0.0,0.0,57,100,0,54.0,24.1,24.1,24.1,24.1,5
QN_TC,Thành phố Tam Kỳ - Quảng Nam,Quảng Nam,Tam Kỳ,15.5667,108.4833,2026-03-17 14:54:32,openmeteo,high,2026-03-17T14:45,,26.6,30.2,18.0,24.1,67,100,58,84.9,1011.9,1016.6,1008.6,1012.9,11.5,15.9,0.4,5.2,70,113.5,0.0,0.0,0.0,0.0,0.0,57,100,0,49.2,24.1,24.1,20.0,24.0,5
QN_BT,Huyện Bình Sơn - Quảng Ngãi,Quảng Ngãi,Bình Sơn,15.3167,108.7667,2026-03-17 14:54:34,openmeteo,high,2026-03-17T14:45,,25.4,29.0,18.2,23.1,69,99,59,83.3,1012.1,1016.8,1009.2,1013.3,9.2,13.3,1.3,6.7,59,146.1,0.0,0.0,0.0,0.0,0.0,83,100,13,53.4,24.1,24.1,24.1,24.1,5
QN_LS,Huyện Lý Sơn - Quảng Ngãi,Quảng Ngãi,Lý Sơn,15.3833,109.1167,2026-03-17 14:54:35,openmeteo,high,2026-03-17T14:45,,24.5,25.2,22.8,24.3,77,91,71,83.7,1012.0,1016.4,1009.1,1013.0,8.1,16.3,1.3,9.6,58,145.1,0.0,0.2,0.1,0.0,0.9,0,100,0,31.3,24.1,24.1,24.1,24.1,0
QN_QN,Thành phố Quảng Ngãi - Quảng Ngãi,Quảng Ngãi,Quảng Ngãi,15.1167,108.8,2026-03-17 14:54:34,openmeteo,high,2026-03-17T14:45,,27.1,30.3,17.9,24.2,63,100,58,83.2,1011.7,1016.6,1009.0,1013.1,10.8,14.7,0.0,5.0,75,143.5,0.0,0.0,0.0,0.0,0.0,80,100,0,51.0,24.1,24.1,24.1,24.1,5
QN_LS2,Đảo Lý Sơn - Quảng Ngãi,Quảng Ngãi,Lý Sơn,15.3833,109.1167,2026-03-17 14:55:01,openmeteo,high,2026-03-17T14:45,,24.5,25.2,22.8,24.3,77,91,71,83.7,1012.0,1016.4,1009.1,1013.0,8.1,16.3,1.3,9.6,58,145.1,0.0,0.2,0.1,0.0,0.9,0,100,0,31.3,24.1,24.1,24.1,24.1,0
QN_BG,Huyện Ba Chẽ - Quảng Ninh,Quảng Ninh,Ba Chẽ,21.2833,107.1833,2026-03-17 14:53:38,openmeteo,high,2026-03-17T14:45,,25.7,27.4,16.8,22.3,62,100,60,84.0,1012.4,1017.0,1009.0,1013.5,14.1,14.8,0.4,6.1,186,157.8,0.0,0.0,0.0,0.0,0.0,76,100,28,71.1,24.1,24.1,11.1,23.8,5
QN_BQ,Huyện Bình Liêu - Quảng Ninh,Quảng Ninh,Bình Liêu,21.5333,107.4333,2026-03-17 14:53:37,openmeteo,high,2026-03-17T14:45,,23.8,26.7,17.2,21.3,67,99,65,85.4,1012.7,1017.4,1009.2,1013.9,12.3,16.6,1.1,7.0,175,138.3,0.0,0.0,0.0,0.0,0.0,96,100,32,73.3,24.1,24.1,2.6,23.3,0
QN_CT,Huyện Cô Tô - Quảng Ninh,Quảng Ninh,Cô Tô,20.9681,107.7639,2026-03-17 14:53:38,openmeteo,high,2026-03-17T14:45,,22.6,23.4,20.5,21.8,85,97,83,91.4,1012.8,1017.0,1009.4,1013.4,8.4,10.4,0.4,4.1,173,83.6,0.0,0.1,0.1,0.0,0.1,5,100,0,53.8,24.1,24.1,18.8,24.0,0
QN_HD,Huyện Hải Hà - Quảng Ninh,Quảng Ninh,Hải Hà,21.4333,107.7167,2026-03-17 14:53:38,openmeteo,high,2026-03-17T14:45,,21.0,24.9,16.5,19.8,80,100,72,88.6,1013.3,1017.7,1009.6,1014.2,7.6,10.0,0.5,5.5,183,194.2,0.0,0.2,0.1,0.0,0.6,99,100,3,69.5,24.1,24.1,13.0,22.8,0
QN_TY,Huyện Tiên Yên - Quảng Ninh,Quảng Ninh,Tiên Yên,21.3833,107.3833,2026-03-17 14:53:38,openmeteo,high,2026-03-17T14:45,,25.9,27.5,18.0,22.1,58,98,58,83.4,1012.4,1017.1,1009.0,1013.6,11.6,15.0,1.0,5.8,173,98.6,0.0,0.0,0.0,0.0,0.0,91,100,21,70.5,24.1,24.1,2.6,23.3,5
QN_VD,Huyện Vân Đồn - Quảng Ninh,Quảng Ninh,Vân Đồn,20.9551,107.4764,2026-03-17 14:53:39,openmeteo,high,2026-03-17T14:45,,25.7,27.5,18.1,22.3,62,100,60,85.6,1012.6,1017.1,1009.3,1013.5,16.3,17.2,0.4,6.4,194,182.1,0.0,0.1,0.1,0.0,0.1,63,100,19,69.4,24.1,24.1,13.1,23.9,5
QN_DH,Huyện Đầm Hà - Quảng Ninh,Quảng Ninh,Đầm Hà,21.3667,107.6,2026-03-17 14:53:38,openmeteo,high,2026-03-17T14:45,,25.7,27.3,18.4,22.6,66,99,65,86.4,1012.8,1017.2,1009.3,1013.7,10.0,11.7,0.4,5.3,167,88.7,0.0,0.1,0.1,0.0,0.2,86,100,26,72.2,24.1,24.1,0.7,23.1,5
QN_CP,Thành phố Cẩm Phả - Quảng Ninh,Quảng Ninh,Cẩm Phả,21.0167,107.3167,2026-03-17 14:53:36,openmeteo,high,2026-03-17T14:45,,24.7,26.2,18.2,22.0,65,95,64,84.2,1012.9,1017.1,1009.6,1013.6,14.9,15.6,0.5,5.7,188,102.2,0.0,0.1,0.1,0.0,0.4,74,100,30,67.1,24.1,24.1,13.1,23.9,0
QN_HL,Thành phố Hạ Long - Quảng Ninh,Quảng Ninh,Hạ Long,20.9582,107.0758,2026-03-17 14:53:36,openmeteo,high,2026-03-17T14:45,,25.9,26.7,20.5,23.5,67,95,66,85.3,1012.6,1016.9,1009.3,1013.4,15.8,15.9,2.1,6.8,180,92.8,0.0,0.1,0.1,0.0,0.3,65,100,26,65.6,18.5,24.1,13.5,23.6,5
QN_MC,Thành phố Móng Cái - Quảng Ninh,Quảng Ninh,Móng Cái,21.5247,107.9664,2026-03-17 14:53:37,openmeteo,high,2026-03-17T14:45,,24.1,26.1,17.8,22.2,74,96,67,85.8,1012.8,1017.2,1009.3,1013.6,11.2,15.9,0.4,5.5,176,188.2,0.0,0.5,0.1,0.1,2.0,95,100,0,62.6,24.1,24.1,13.0,22.8,0
QN_UB,Thành phố Uông Bí - Quảng Ninh,Quảng Ninh,Uông Bí,21.0361,106.7633,2026-03-17 14:53:36,openmeteo,high,2026-03-17T14:45,,25.5,27.1,19.9,23.4,70,95,69,84.8,1012.1,1016.5,1008.6,1013.0,16.3,19.3,2.7,10.0,155,112.1,0.0,0.0,0.0,0.0,0.0,92,100,34,75.5,24.1,24.1,13.3,24.0,5
QN_QY,Thị xã Quảng Yên - Quảng Ninh,Quảng Ninh,Quảng Yên,20.9333,106.8167,2026-03-17 14:53:37,openmeteo,high,2026-03-17T14:45,,24.8,26.1,20.3,22.8,73,95,73,86.6,1012.4,1016.6,1008.8,1013.1,16.2,18.2,2.2,9.3,163,110.9,0.0,0.0,0.0,0.0,0.0,84,100,34,73.4,24.1,24.1,13.3,24.0,0
QN_DK,Thị xã Đông Triều - Quảng Ninh,Quảng Ninh,Đông Triều,21.0833,106.5,2026-03-17 14:53:37,openmeteo,high,2026-03-17T14:45,,26.8,28.4,20.4,23.9,64,95,62,83.5,1011.5,1016.4,1008.0,1012.7,14.6,20.1,2.4,10.1,160,139.2,0.0,0.4,0.1,0.1,1.5,97,100,18,77.0,24.1,24.1,13.1,24.0,5
QN_CT,Đảo Cô Tô - Quảng Ninh,Quảng Ninh,Cô Tô,20.9681,107.7639,2026-03-17 14:55:00,openmeteo,high,2026-03-17T14:45,,22.6,23.4,20.5,21.8,85,97,83,91.4,1012.8,1017.0,1009.4,1013.4,8.4,10.4,0.4,4.1,173,83.6,0.0,0.1,0.1,0.0,0.1,5,100,0,53.8,24.1,24.1,18.8,24.0,0
QN_VD,Đảo Vân Đồn - Quảng Ninh,Quảng Ninh,Vân Đồn,20.9551,107.4764,2026-03-17 14:54:59,openmeteo,high,2026-03-17T14:45,,25.7,27.5,18.1,22.3,62,100,60,85.6,1012.6,1017.1,1009.3,1013.5,16.3,17.2,0.4,6.4,194,182.1,0.0,0.1,0.1,0.0,0.1,63,100,19,69.4,24.1,24.1,13.1,23.9,5
QT_CL,Huyện Cam Lộ - Quảng Trị,Quảng Trị,Cam Lộ,16.8,106.9833,2026-03-17 14:53:45,openmeteo,high,2026-03-17T14:45,,27.3,32.4,17.4,23.6,58,100,55,83.0,1011.7,1016.5,1007.9,1012.8,12.6,13.1,0.7,5.1,59,12.0,0.0,0.0,0.0,0.0,0.0,87,100,0,51.5,24.1,24.1,13.2,23.8,5
QT_CC,Huyện Cồn Cỏ - Quảng Trị,Quảng Trị,Cồn Cỏ,17.1597,107.3408,2026-03-17 14:53:45,openmeteo,high,2026-03-17T14:45,,23.6,24.2,23.0,23.6,82,94,79,87.8,1012.0,1016.0,1007.9,1012.5,14.0,23.0,5.2,14.3,90,116.6,0.0,0.0,0.0,0.0,0.0,6,100,0,35.5,24.1,24.1,12.8,24.0,0
QT_GL,Huyện Gio Linh - Quảng Trị,Quảng Trị,Gio Linh,16.9167,107.05,2026-03-17 14:53:46,openmeteo,high,2026-03-17T14:45,,27.5,32.4,18.2,24.2,63,100,56,84.5,1011.7,1016.3,1007.8,1012.6,12.4,12.9,0.0,5.1,68,5.6,0.0,0.0,0.0,0.0,0.0,82,100,0,55.4,24.1,24.1,8.5,23.9,5
QT_HL,Huyện Hướng Hóa - Quảng Trị,Quảng Trị,Hướng Hóa,16.7,106.6667,2026-03-17 14:53:46,openmeteo,high,2026-03-17T14:45,,29.5,35.5,17.9,25.3,48,95,33,71.0,1010.8,1016.0,1006.5,1012.2,10.1,11.3,0.4,5.0,55,58.9,0.0,0.4,0.1,0.1,2.5,70,96,0,31.7,24.1,24.1,0.2,22.2,5
QT_HH,Huyện Hải Lăng - Quảng Trị,Quảng Trị,Hải Lăng,16.7,107.25,2026-03-17 14:53:46,openmeteo,high,2026-03-17T14:45,,25.8,28.4,19.7,23.9,75,98,69,88.0,1011.9,1016.2,1007.8,1012.4,13.7,14.1,0.4,5.4,72,78.4,0.0,0.0,0.0,0.0,0.0,38,100,0,49.8,24.1,24.1,10.5,24.0,5
QT_TL,Huyện Triệu Phong - Quảng Trị,Quảng Trị,Triệu Phong,16.7833,107.1667,2026-03-17 14:53:47,openmeteo,high,2026-03-17T14:45,,27.0,31.6,18.2,24.0,65,100,57,84.9,1011.6,1016.2,1007.7,1012.4,12.9,13.1,0.4,4.9,67,5.7,0.0,0.0,0.0,0.0,0.0,48,100,5,56.6,24.1,24.1,10.5,24.0,5
QT_VL,Huyện Vĩnh Linh - Quảng Trị,Quảng Trị,Vĩnh Linh,17.0,106.9333,2026-03-17 14:53:47,openmeteo,high,2026-03-17T14:45,,25.4,30.7,17.5,22.8,66,100,63,86.2,1012.2,1016.8,1008.4,1013.2,11.3,11.3,0.4,4.1,68,75.5,0.0,0.4,0.4,0.1,1.2,77,100,0,54.4,24.1,24.1,8.5,23.9,5
QT_DK,Huyện Đa Krông - Quảng Trị,Quảng Trị,Đa Krông,16.5556,106.9722,2026-03-17 14:53:45,openmeteo,high,2026-03-17T14:45,,27.0,33.1,17.4,23.6,60,100,50,84.4,1011.7,1016.8,1008.0,1013.0,13.3,14.1,0.5,5.3,49,61.9,0.0,3.3,0.1,0.4,10.6,32,100,0,60.1,24.1,24.1,0.4,20.8,5
QT_DH,Thành phố Đông Hà - Quảng Trị,Quảng Trị,Đông Hà,16.816,107.1,2026-03-17 14:53:45,openmeteo,high,2026-03-17T14:45,,26.9,31.8,17.6,23.6,63,100,56,84.5,1011.7,1016.3,1007.8,1012.6,12.4,12.9,0.0,5.1,68,5.6,0.0,0.0,0.0,0.0,0.0,82,100,0,55.4,24.1,24.1,13.2,23.8,5
QT_QH,Thị xã Quảng Trị - Quảng Trị,Quảng Trị,Quảng Trị,16.75,107.1833,2026-03-17 14:53:45,openmeteo,high,2026-03-17T14:45,,27.0,31.7,18.2,24.0,65,100,57,84.9,1011.6,1016.2,1007.7,1012.4,12.9,13.1,0.4,4.9,67,5.7,0.0,0.0,0.0,0.0,0.0,48,100,5,56.6,24.1,24.1,10.5,24.0,5
QT_CC2,Đảo Cồn Cỏ - Quảng Trị,Quảng Trị,Cồn Cỏ,17.1597,107.3408,2026-03-17 14:55:01,openmeteo,high,2026-03-17T14:45,,23.6,24.2,23.0,23.6,82,94,79,87.8,1012.0,1016.0,1007.9,1012.5,14.0,23.0,5.2,14.3,90,116.6,0.0,0.0,0.0,0.0,0.0,6,100,0,35.5,24.1,24.1,12.8,24.0,0
ST_CL,Huyện Châu Thành - Sóc Trăng,Sóc Trăng,Châu Thành,9.7,105.9,2026-03-17 14:54:26,openmeteo,high,2026-03-17T14:45,,31.6,34.2,22.9,27.4,48,94,41,71.7,1009.4,1014.5,1007.7,1011.3,16.8,20.4,1.0,10.6,100,112.7,0.0,0.0,0.0,0.0,0.0,100,100,0,58.5,24.1,24.1,24.1,24.1,10
ST_CT,Huyện Cù Lao Dung - Sóc Trăng,Sóc Trăng,Cù Lao Dung,9.6667,106.1667,2026-03-17 14:54:26,openmeteo,high,2026-03-17T14:45,,30.9,33.1,23.5,27.2,52,92,45,73.0,1009.8,1014.4,1008.2,1011.4,20.3,21.6,1.3,12.0,102,106.2,0.0,0.0,0.0,0.0,0.0,93,97,4,57.3,24.1,24.1,24.1,24.1,10
ST_KS,Huyện Kế Sách - Sóc Trăng,Sóc Trăng,Kế Sách,9.8167,105.9833,2026-03-17 14:54:27,openmeteo,high,2026-03-17T14:45,,31.6,34.0,23.1,27.5,48,94,43,71.5,1009.4,1014.5,1007.6,1011.2,17.5,20.1,1.4,11.1,104,112.4,0.0,0.0,0.0,0.0,0.0,93,99,0,57.7,24.1,24.1,24.1,24.1,10
ST_LT,Huyện Long Phú - Sóc Trăng,Sóc Trăng,Long Phú,9.6167,106.1167,2026-03-17 14:54:27,openmeteo,high,2026-03-17T14:45,,30.9,33.1,23.5,27.2,52,92,45,73.0,1009.8,1014.4,1008.2,1011.4,20.3,21.6,1.3,12.0,102,106.2,0.0,0.0,0.0,0.0,0.0,93,97,4,57.3,24.1,24.1,24.1,24.1,10
ST_MD,Huyện Mỹ Tú - Sóc Trăng,Sóc Trăng,Mỹ Tú,9.6333,105.8167,2026-03-17 14:54:27,openmeteo,high,2026-03-17T14:45,,30.9,33.5,23.3,27.2,52,94,43,73.0,1009.5,1014.5,1007.9,1011.3,17.2,19.9,1.1,10.8,101,110.6,0.0,0.0,0.0,0.0,0.0,99,99,0,58.0,24.1,24.1,24.1,24.1,10
ST_MX,Huyện Mỹ Xuyên - Sóc Trăng,Sóc Trăng,Mỹ Xuyên,9.5333,105.9833,2026-03-17 14:54:27,openmeteo,high,2026-03-17T14:45,,30.3,32.4,23.6,27.1,55,92,48,73.8,1009.9,1014.4,1008.4,1011.4,21.3,22.8,1.5,12.4,102,105.7,0.0,0.0,0.0,0.0,0.0,94,98,9,55.7,24.1,24.1,24.1,24.1,10
ST_TN,Huyện Thạnh Trị - Sóc Trăng,Sóc Trăng,Thạnh Trị,9.4667,105.7167,2026-03-17 14:54:27,openmeteo,high,2026-03-17T14:45,,30.9,33.8,23.3,27.3,53,93,44,72.6,1009.6,1014.4,1008.1,1011.3,17.8,20.9,2.3,11.2,97,107.8,0.0,0.0,0.0,0.0,0.0,95,100,0,58.6,24.1,24.1,24.1,24.1,10
ST_TP,Huyện Trần Đề - Sóc Trăng,Sóc Trăng,Trần Đề,9.5,106.0833,2026-03-17 14:54:28,openmeteo,high,2026-03-17T14:45,,29.5,31.2,23.7,26.8,59,92,53,75.1,1010.2,1014.5,1008.6,1011.5,22.1,23.4,3.7,13.5,97,104.4,0.0,0.0,0.0,0.0,0.0,83,100,11,55.2,24.1,24.1,24.1,24.1,5
ST_ST,Thành phố Sóc Trăng - Sóc Trăng,Sóc Trăng,Sóc Trăng,9.6025,105.9739,2026-03-17 14:54:25,openmeteo,high,2026-03-17T14:45,,30.8,32.9,23.5,27.2,53,92,45,73.0,1009.7,1014.4,1008.2,1011.4,19.6,21.4,1.6,11.7,103,107.4,0.0,0.0,0.0,0.0,0.0,96,97,4,57.2,24.1,24.1,24.1,24.1,10
ST_NG,Thị xã Ngã Năm - Sóc Trăng,Sóc Trăng,Ngã Năm,9.5667,105.85,2026-03-17 14:54:26,openmeteo,high,2026-03-17T14:45,,30.9,33.5,23.3,27.2,52,94,43,73.0,1009.5,1014.5,1007.9,1011.3,17.2,19.9,1.1,10.8,101,110.6,0.0,0.0,0.0,0.0,0.0,99,99,0,58.0,24.1,24.1,24.1,24.1,10
ST_VC,Thị xã Vĩnh Châu - Sóc Trăng,Sóc Trăng,Vĩnh Châu,9.3333,105.9833,2026-03-17 14:54:26,openmeteo,high,2026-03-17T14:45,,30.1,31.8,23.9,27.1,57,91,49,73.5,1010.0,1014.4,1008.6,1011.4,21.5,22.8,2.9,13.3,100,104.5,0.0,0.0,0.0,0.0,0.0,94,100,0,56.1,24.1,24.1,24.1,24.1,10
SL_ML,Huyện Mộc Châu - Sơn La,Sơn La,Mộc Châu,20.85,104.6333,2026-03-17 14:54:40,openmeteo,high,2026-03-17T14:45,,27.2,30.2,16.2,21.9,50,99,40,80.4,1010.4,1016.7,1007.2,1013.0,10.1,18.8,1.6,6.0,264,161.7,0.0,4.2,0.1,1.1,26.8,68,100,0,58.7,22.5,24.1,0.2,17.4,5
SL_YB,Huyện Yên Châu - Sơn La,Sơn La,Yên Châu,21.05,104.3,2026-03-17 14:54:41,openmeteo,high,2026-03-17T14:45,,30.4,33.9,19.0,25.6,53,97,36,76.9,1010.0,1016.3,1006.3,1012.2,8.6,14.5,1.3,5.4,272,121.1,0.0,3.5,0.1,1.3,30.1,19,100,0,51.9,24.1,24.1,9.6,23.4,10
SL_SL,Thành phố Sơn La - Sơn La,Sơn La,Sơn La,21.3256,103.9189,2026-03-17 14:54:40,openmeteo,high,2026-03-17T14:45,,28.3,33.2,18.4,23.9,57,97,33,76.6,1010.0,1015.8,1006.0,1011.7,7.9,13.9,0.8,5.4,317,163.2,0.0,2.9,0.1,0.9,22.1,88,100,0,51.5,24.1,24.1,7.4,23.7,5
HCM_BC,Huyện Bình Chánh - TP Hồ Chí Minh,TP Hồ Chí Minh,Bình Chánh,10.7269,106.5672,2026-03-17 14:53:27,openmeteo,high,2026-03-17T14:45,,33.8,35.6,23.3,28.0,39,88,34,68.5,1008.6,1014.6,1007.1,1011.1,4.8,22.2,3.6,12.2,48,131.9,0.0,0.0,0.0,0.0,0.0,60,98,0,59.9,24.1,24.1,8.4,24.0,10
HCM_CG,Huyện Cần Giờ - TP Hồ Chí Minh,TP Hồ Chí Minh,Cần Giờ,10.4111,106.9547,2026-03-17 14:53:28,openmeteo,high,2026-03-17T14:45,,30.2,32.5,25.1,27.5,53,84,46,71.3,1009.6,1014.4,1008.1,1011.4,17.1,18.5,9.7,13.6,136,117.7,0.0,0.0,0.0,0.0,0.0,12,94,0,55.3,24.1,24.1,24.1,24.1,10
HCM_CC,Huyện Củ Chi - TP Hồ Chí Minh,TP Hồ Chí Minh,Củ Chi,10.9733,106.4939,2026-03-17 14:53:27,openmeteo,high,2026-03-17T14:45,,33.6,36.0,22.6,28.1,41,91,36,68.1,1008.6,1014.7,1006.7,1011.0,2.1,21.1,1.1,9.5,31,135.0,0.0,0.0,0.0,0.0,0.0,71,100,0,58.4,24.1,24.1,19.7,24.1,10
HCM_HM,Huyện Hóc Môn - TP Hồ Chí Minh,TP Hồ Chí Minh,Hóc Môn,10.8894,106.5953,2026-03-17 14:53:26,openmeteo,high,2026-03-17T14:45,,33.7,36.7,23.0,28.3,41,90,33,66.9,1008.6,1014.7,1006.7,1011.0,2.9,21.2,2.3,10.6,30,132.2,0.0,0.0,0.0,0.0,0.0,57,99,2,59.5,24.1,24.1,19.7,24.1,10
HCM_NB,Huyện Nhà Bè - TP Hồ Chí Minh,TP Hồ Chí Minh,Nhà Bè,10.6956,106.735,2026-03-17 14:53:28,openmeteo,high,2026-03-17T14:45,,33.6,35.7,23.5,28.2,39,87,34,67.3,1008.6,1014.6,1007.6,1011.1,3.4,22.0,2.9,12.4,72,129.3,0.0,0.0,0.0,0.0,0.0,67,98,0,59.0,24.1,24.1,15.9,24.0,10
HCM_1,Quận 1 - TP Hồ Chí Minh,TP Hồ Chí Minh,Quận 1,10.7757,106.7004,2026-03-17 14:53:21,openmeteo,high,2026-03-17T14:45,,33.6,35.7,23.5,28.1,39,87,34,67.3,1008.6,1014.6,1007.6,1011.1,3.4,22.0,2.9,12.4,72,129.3,0.0,0.0,0.0,0.0,0.0,67,98,0,59.0,24.1,24.1,15.9,24.0,10
HCM_10,Quận 10 - TP Hồ Chí Minh,TP Hồ Chí Minh,Quận 10,10.7679,106.6668,2026-03-17 14:53:24,openmeteo,high,2026-03-17T14:45,,33.8,35.5,23.3,28.0,39,88,34,68.5,1008.6,1014.6,1007.1,1011.1,4.8,22.2,3.6,12.2,48,131.9,0.0,0.0,0.0,0.0,0.0,60,98,0,59.9,24.1,24.1,15.9,24.0,10
HCM_11,Quận 11 - TP Hồ Chí Minh,TP Hồ Chí Minh,Quận 11,10.7639,106.6474,2026-03-17 14:53:24,openmeteo,high,2026-03-17T14:45,,33.8,35.5,23.3,28.0,39,88,34,68.5,1008.6,1014.6,1007.1,1011.1,4.8,22.2,3.6,12.2,48,131.9,0.0,0.0,0.0,0.0,0.0,60,98,0,59.9,24.1,24.1,15.9,24.0,10
HCM_12,Quận 12 - TP Hồ Chí Minh,TP Hồ Chí Minh,Quận 12,10.8642,106.6543,2026-03-17 14:53:25,openmeteo,high,2026-03-17T14:45,,33.7,36.7,23.0,28.3,41,90,33,66.9,1008.6,1014.7,1006.7,1011.0,2.9,21.2,2.3,10.6,30,132.2,0.0,0.0,0.0,0.0,0.0,57,99,2,59.5,24.1,24.1,15.9,24.0,10
HCM_2,Quận 2 - TP Hồ Chí Minh,TP Hồ Chí Minh,Quận 2,10.7872,106.7498,2026-03-17 14:53:22,openmeteo,high,2026-03-17T14:45,,33.6,35.7,23.5,28.2,39,87,34,67.3,1008.6,1014.6,1007.6,1011.1,3.4,22.0,2.9,12.4,72,129.3,0.0,0.0,0.0,0.0,0.0,67,98,0,59.0,24.1,24.1,15.9,24.0,10
HCM_3,Quận 3 - TP Hồ Chí Minh,TP Hồ Chí Minh,Quận 3,10.7823,106.6848,2026-03-17 14:53:22,openmeteo,high,2026-03-17T14:45,,33.8,35.5,23.3,28.0,39,88,34,68.5,1008.6,1014.6,1007.1,1011.1,4.8,22.2,3.6,12.2,48,131.9,0.0,0.0,0.0,0.0,0.0,60,98,0,59.9,24.1,24.1,15.9,24.0,10
HCM_4,Quận 4 - TP Hồ Chí Minh,TP Hồ Chí Minh,Quận 4,10.7642,106.7053,2026-03-17 14:53:23,openmeteo,high,2026-03-17T14:45,,33.6,35.7,23.5,28.1,39,87,34,67.3,1008.6,1014.6,1007.6,1011.1,3.4,22.0,2.9,12.4,72,129.3,0.0,0.0,0.0,0.0,0.0,67,98,0,59.0,24.1,24.1,15.9,24.0,10
HCM_5,Quận 5 - TP Hồ Chí Minh,TP Hồ Chí Minh,Quận 5,10.754,106.669,2026-03-17 14:53:23,openmeteo,high,2026-03-17T14:45,,33.7,35.5,23.2,27.9,39,88,34,68.5,1008.6,1014.6,1007.1,1011.1,4.8,22.2,3.6,12.2,48,131.9,0.0,0.0,0.0,0.0,0.0,60,98,0,59.9,24.1,24.1,15.9,24.0,10
HCM_6,Quận 6 - TP Hồ Chí Minh,TP Hồ Chí Minh,Quận 6,10.7464,106.6492,2026-03-17 14:53:23,openmeteo,high,2026-03-17T14:45,,33.8,35.5,23.3,28.0,39,88,34,68.5,1008.6,1014.6,1007.1,1011.1,4.8,22.2,3.6,12.2,48,131.9,0.0,0.0,0.0,0.0,0.0,60,98,0,59.9,24.1,24.1,15.9,24.0,10
HCM_7,Quận 7 - TP Hồ Chí Minh,TP Hồ Chí Minh,Quận 7,10.7329,106.7269,2026-03-17 14:53:23,openmeteo,high,2026-03-17T14:45,,33.6,35.7,23.5,28.2,39,87,34,67.3,1008.6,1014.6,1007.6,1011.1,3.4,22.0,2.9,12.4,72,129.3,0.0,0.0,0.0,0.0,0.0,67,98,0,59.0,24.1,24.1,15.9,24.0,10
HCM_8,Quận 8 - TP Hồ Chí Minh,TP Hồ Chí Minh,Quận 8,10.7241,106.6286,2026-03-17 14:53:23,openmeteo,high,2026-03-17T14:45,,33.8,35.5,23.3,28.0,39,88,34,68.5,1008.6,1014.6,1007.1,1011.1,4.8,22.2,3.6,12.2,48,131.9,0.0,0.0,0.0,0.0,0.0,60,98,0,59.9,24.1,24.1,15.9,24.0,10
HCM_9,Quận 9 - TP Hồ Chí Minh,TP Hồ Chí Minh,Quận 9,10.8428,106.8287,2026-03-17 14:53:24,openmeteo,high,2026-03-17T14:45,,33.7,37.1,23.2,28.4,41,89,31,66.8,1008.5,1014.6,1006.8,1011.0,2.6,20.4,0.4,10.2,16,130.7,0.0,0.0,0.0,0.0,0.0,59,100,0,58.6,24.1,24.1,15.9,24.0,10
HCM_BT2,Quận Bình Thạnh - TP Hồ Chí Minh,TP Hồ Chí Minh,Bình Thạnh,10.801,106.6959,2026-03-17 14:53:25,openmeteo,high,2026-03-17T14:45,,33.6,35.7,23.5,28.1,39,87,34,67.3,1008.6,1014.6,1007.6,1011.1,3.4,22.0,2.9,12.4,72,129.3,0.0,0.0,0.0,0.0,0.0,67,98,0,59.0,24.1,24.1,15.9,24.0,10
HCM_BT,Quận Bình Tân - TP Hồ Chí Minh,TP Hồ Chí Minh,Bình Tân,10.7654,106.6032,2026-03-17 14:53:25,openmeteo,high,2026-03-17T14:45,,33.8,35.5,23.3,28.0,39,88,34,68.5,1008.6,1014.6,1007.1,1011.1,4.8,22.2,3.6,12.2,48,131.9,0.0,0.0,0.0,0.0,0.0,60,98,0,59.9,24.1,24.1,8.4,24.0,10
HCM_GB,Quận Gò Vấp - TP Hồ Chí Minh,TP Hồ Chí Minh,Gò Vấp,10.8383,106.6653,2026-03-17 14:53:25,openmeteo,high,2026-03-17T14:45,,33.7,36.6,23.0,28.3,41,90,33,66.9,1008.6,1014.7,1006.7,1011.0,2.9,21.2,2.3,10.6,30,132.2,0.0,0.0,0.0,0.0,0.0,57,99,2,59.5,24.1,24.1,15.9,24.0,10
HCM_PN,Quận Phú Nhuận - TP Hồ Chí Minh,TP Hồ Chí Minh,Phú Nhuận,10.7992,106.6753,2026-03-17 14:53:26,openmeteo,high,2026-03-17T14:45,,33.7,35.5,23.2,27.9,39,88,34,68.5,1008.6,1014.6,1007.1,1011.1,4.8,22.2,3.6,12.2,48,131.9,0.0,0.0,0.0,0.0,0.0,60,98,0,59.9,24.1,24.1,15.9,24.0,10
HCM_TB,Quận Tân Bình - TP Hồ Chí Minh,TP Hồ Chí Minh,Tân Bình,10.8014,106.6526,2026-03-17 14:53:25,openmeteo,high,2026-03-17T14:45,,33.8,35.5,23.3,28.0,39,88,34,68.5,1008.6,1014.6,1007.1,1011.1,4.8,22.2,3.6,12.2,48,131.9,0.0,0.0,0.0,0.0,0.0,60,98,0,59.9,24.1,24.1,15.9,24.0,10
HCM_TP,Quận Tân Phú - TP Hồ Chí Minh,TP Hồ Chí Minh,Tân Phú,10.7902,106.6289,2026-03-17 14:53:26,openmeteo,high,2026-03-17T14:45,,33.8,35.5,23.3,28.0,39,88,34,68.5,1008.6,1014.6,1007.1,1011.1,4.8,22.2,3.6,12.2,48,131.9,0.0,0.0,0.0,0.0,0.0,60,98,0,59.9,24.1,24.1,15.9,24.0,10
HCM_TD,Thành phố Thủ Đức - TP Hồ Chí Minh,TP Hồ Chí Minh,Thủ Đức,10.8494,106.7717,2026-03-17 14:53:26,openmeteo,high,2026-03-17T14:45,,33.6,36.6,22.9,28.2,41,90,33,66.9,1008.6,1014.7,1006.7,1011.0,2.9,21.2,2.3,10.6,30,132.2,0.0,0.0,0.0,0.0,0.0,57,99,2,59.5,24.1,24.1,15.9,24.0,10
TH_NC,Huyện Nghi Sơn - Thanh Hóa,Thanh Hóa,Nghi Sơn,19.45,105.7833,2026-03-17 14:54:31,openmeteo,high,2026-03-17T14:45,,26.5,31.1,18.8,23.5,64,100,61,85.8,1011.5,1016.5,1008.0,1012.7,14.1,15.5,0.5,6.3,142,157.4,0.0,0.0,0.0,0.0,0.0,74,100,0,69.7,24.1,24.1,6.7,23.8,5
TH_TH,Thành phố Thanh Hóa - Thanh Hóa,Thanh Hóa,Thanh Hóa,19.8,105.7667,2026-03-17 14:54:30,openmeteo,high,2026-03-17T14:45,,27.0,30.2,19.2,23.4,62,98,61,85.5,1011.2,1016.5,1007.9,1012.6,15.7,16.6,0.5,7.0,143,151.9,0.0,0.1,0.1,0.0,0.1,77,100,29,72.2,15.1,24.1,7.3,22.4,5
TH_BT,Thị xã Bỉm Sơn - Thanh Hóa,Thanh Hóa,Bỉm Sơn,20.0781,105.8603,2026-03-17 14:54:31,openmeteo,high,2026-03-17T14:45,,26.4,29.4,20.0,23.6,67,96,65,85.3,1011.5,1016.4,1008.0,1012.7,17.7,19.8,1.1,8.7,153,153.4,0.0,0.0,0.0,0.0,0.0,63,100,28,76.4,24.1,24.1,14.8,24.0,5
TH_SL,Thị xã Sầm Sơn - Thanh Hóa,Thanh Hóa,Sầm Sơn,19.7333,105.9,2026-03-17 14:54:30,openmeteo,high,2026-03-17T14:45,,26.6,29.3,20.1,23.6,67,97,63,85.4,1011.4,1016.4,1007.9,1012.5,15.3,16.0,1.1,7.0,139,139.5,0.0,0.0,0.0,0.0,0.0,69,100,29,71.7,15.1,24.1,7.3,22.4,5
TB_HH,Huyện Hưng Hà - Thái Bình,Thái Bình,Hưng Hà,20.6,106.2167,2026-03-17 14:53:39,openmeteo,high,2026-03-17T14:45,,26.1,28.2,19.9,23.3,65,98,63,85.5,1011.4,1016.3,1007.8,1012.6,18.2,20.8,3.8,11.1,166,145.9,0.0,0.0,0.0,0.0,0.0,89,100,6,77.6,24.1,24.1,17.5,24.0,5
TB_KL,Huyện Kiến Xương - Thái Bình,Thái Bình,Kiến Xương,20.4,106.4167,2026-03-17 14:53:40,openmeteo,high,2026-03-17T14:45,,25.9,27.5,19.9,23.2,66,98,65,86.5,1011.8,1016.4,1008.1,1012.7,19.5,21.5,2.3,11.1,164,146.0,0.0,0.0,0.0,0.0,0.0,88,100,8,72.6,24.1,24.1,6.3,23.7,5
TB_QH,Huyện Quỳnh Phụ - Thái Bình,Thái Bình,Quỳnh Phụ,20.65,106.3333,2026-03-17 14:53:40,openmeteo,high,2026-03-17T14:45,,26.1,28.0,19.5,23.1,64,99,62,85.9,1011.6,1016.4,1007.9,1012.7,19.1,22.6,3.8,11.7,168,141.3,0.0,0.0,0.0,0.0,0.0,92,100,6,75.6,24.1,24.1,11.0,23.8,5
TB_TT,Huyện Thái Thụy - Thái Bình,Thái Bình,Thái Thụy,20.5333,106.5333,2026-03-17 14:53:40,openmeteo,high,2026-03-17T14:45,,26.1,27.6,19.6,23.0,62,99,62,86.3,1011.9,1016.4,1008.1,1012.8,20.4,23.3,2.5,11.6,166,138.9,0.0,0.0,0.0,0.0,0.0,94,100,14,72.2,24.1,24.1,6.3,23.7,5
TB_VT,Huyện Vũ Thư - Thái Bình,Thái Bình,Vũ Thư,20.4333,106.2833,2026-03-17 14:53:40,openmeteo,high,2026-03-17T14:45,,26.0,27.9,19.9,23.3,66,99,63,86.1,1011.7,1016.4,1008.1,1012.7,20.2,22.1,2.6,11.2,164,150.6,0.0,0.0,0.0,0.0,0.0,87,100,7,74.1,24.1,24.1,17.5,24.0,5
TB_DH,Huyện Đông Hưng - Thái Bình,Thái Bình,Đông Hưng,20.55,106.35,2026-03-17 14:53:39,openmeteo,high,2026-03-17T14:45,,25.9,27.6,19.9,23.1,66,99,64,86.4,1011.8,1016.4,1008.0,1012.7,18.7,21.5,2.6,10.9,164,144.4,0.0,0.0,0.0,0.0,0.0,93,100,11,72.8,24.1,24.1,17.5,24.0,5
TB_TP,Thành phố Thái Bình - Thái Bình,Thái Bình,Thái Bình,20.4461,106.3366,2026-03-17 14:53:39,openmeteo,high,2026-03-17T14:45,,25.8,27.6,19.8,23.1,66,99,64,86.4,1011.8,1016.4,1008.0,1012.7,18.7,21.5,2.6,10.9,164,144.4,0.0,0.0,0.0,0.0,0.0,93,100,11,72.8,24.1,24.1,17.5,24.0,5
TN_DD,Huyện Định Hóa - Thái Nguyên,Thái Nguyên,Định Hóa,21.9,105.6333,2026-03-17 14:54:45,openmeteo,high,2026-03-17T14:45,,25.2,26.1,19.4,22.2,68,94,65,86.0,1011.1,1016.7,1007.9,1012.7,7.8,12.5,3.2,6.5,124,112.8,0.0,0.5,0.1,0.2,3.9,90,100,52,89.3,24.1,24.1,12.9,23.6,5
TN_SC,Thành phố Sông Công - Thái Nguyên,Thái Nguyên,Sông Công,21.4833,105.85,2026-03-17 14:54:44,openmeteo,high,2026-03-17T14:45,,26.9,28.9,19.8,23.2,62,97,60,83.3,1010.7,1016.4,1007.3,1012.6,15.8,16.2,2.3,8.8,156,144.3,0.0,0.2,0.1,0.0,0.9,89,100,60,88.9,24.1,24.1,7.6,23.1,5
TN_TN,Thành phố Thái Nguyên - Thái Nguyên,Thái Nguyên,Thái Nguyên,21.5928,105.8442,2026-03-17 14:54:44,openmeteo,high,2026-03-17T14:45,,27.8,28.6,19.9,23.6,57,95,57,82.6,1010.6,1016.4,1007.3,1012.4,13.8,17.5,3.9,10.2,152,126.4,0.0,0.5,0.1,0.1,2.4,87,100,50,87.1,24.1,24.1,7.6,23.1,5
TTH_AD,Huyện A Lưới - Thừa Thiên Huế,Thừa Thiên Huế,A Lưới,16.2333,107.3,2026-03-17 14:53:44,openmeteo,high,2026-03-17T14:45,,25.4,31.0,16.1,22.6,62,100,49,83.5,1012.2,1017.1,1009.3,1013.7,9.0,11.2,0.8,4.2,67,110.0,0.0,1.9,0.1,0.4,9.3,42,100,0,53.6,24.1,24.1,0.6,20.7,5
TTH_NL,Huyện Nam Đông - Thừa Thiên Huế,Thừa Thiên Huế,Nam Đông,16.1667,107.7,2026-03-17 14:53:43,openmeteo,high,2026-03-17T14:45,,28.1,31.9,17.0,24.0,62,100,53,84.8,1011.3,1016.5,1008.0,1012.6,8.5,10.0,0.4,4.2,28,149.5,0.0,0.1,0.1,0.0,0.3,29,100,0,52.5,24.1,24.1,7.0,23.8,5
TTH_PD,Huyện Phong Điền - Thừa Thiên Huế,Thừa Thiên Huế,Phong Điền,16.5833,107.35,2026-03-17 14:53:44,openmeteo,high,2026-03-17T14:45,,26.5,29.6,19.0,24.0,71,100,65,86.7,1011.7,1016.2,1007.7,1012.3,14.3,14.3,0.4,5.2,72,79.9,0.0,0.0,0.0,0.0,0.0,32,100,0,46.3,24.1,24.1,7.4,23.3,5
TTH_PL,Huyện Phú Lộc - Thừa Thiên Huế,Thừa Thiên Huế,Phú Lộc,16.2667,107.9,2026-03-17 14:53:44,openmeteo,high,2026-03-17T14:45,,28.3,32.1,17.5,24.8,68,100,52,83.0,1011.5,1016.3,1008.0,1012.5,9.8,10.6,0.4,4.6,24,115.7,0.0,0.0,0.0,0.0,0.0,45,100,0,41.6,24.1,24.1,5.6,23.1,5
TTH_QD,Huyện Quảng Điền - Thừa Thiên Huế,Thừa Thiên Huế,Quảng Điền,16.5833,107.5,2026-03-17 14:53:44,openmeteo,high,2026-03-17T14:45,,26.4,29.6,18.4,23.7,71,100,63,86.4,1011.6,1016.2,1007.8,1012.4,11.8,12.1,0.4,4.2,63,51.7,0.0,0.0,0.0,0.0,0.0,36,100,0,47.5,24.1,24.1,16.3,24.0,5
TTH_H,Thành phố Huế - Thừa Thiên Huế,Thừa Thiên Huế,Huế,16.4637,107.5909,2026-03-17 14:53:43,openmeteo,high,2026-03-17T14:45,,25.9,28.3,18.9,23.7,74,100,67,87.3,1011.6,1016.2,1007.8,1012.3,14.9,15.2,0.4,5.8,75,107.2,0.0,0.0,0.0,0.0,0.0,18,100,0,40.2,24.1,24.1,16.3,24.0,5
TTH_HL,Thị xã Hương Thủy - Thừa Thiên Huế,Thừa Thiên Huế,Hương Thủy,16.4167,107.7167,2026-03-17 14:53:42,openmeteo,high,2026-03-17T14:45,,27.3,31.2,18.2,24.4,66,100,58,82.6,1011.5,1016.2,1007.8,1012.3,12.9,13.5,0.0,4.3,63,38.8,0.0,0.0,0.0,0.0,0.0,42,100,0,41.2,24.1,24.1,18.6,24.0,5
TTH_HT,Thị xã Hương Trà - Thừa Thiên Huế,Thừa Thiên Huế,Hương Trà,16.5,107.4833,2026-03-17 14:53:43,openmeteo,high,2026-03-17T14:45,,26.4,29.6,18.4,23.8,71,100,63,86.4,1011.6,1016.2,1007.8,1012.4,11.8,12.1,0.4,4.2,63,51.7,0.0,0.0,0.0,0.0,0.0,36,100,0,47.5,24.1,24.1,16.3,24.0,5
TG_CB,Huyện Cai Lậy - Tiền Giang,Tiền Giang,Cai Lậy,10.4,106.1167,2026-03-17 14:54:16,openmeteo,high,2026-03-17T14:45,,32.5,34.4,23.5,28.0,43,91,42,69.3,1009.1,1014.6,1007.3,1011.2,13.3,20.3,2.8,12.1,109,123.2,0.0,0.0,0.0,0.0,0.0,74,100,0,56.6,24.1,24.1,23.1,24.1,10
TG_CL,Huyện Châu Thành - Tiền Giang,Tiền Giang,Châu Thành,10.45,106.25,2026-03-17 14:54:15,openmeteo,high,2026-03-17T14:45,,33.4,34.3,23.2,27.7,39,91,39,70.6,1008.8,1014.6,1007.3,1011.1,9.5,19.7,3.1,11.8,115,129.9,0.0,0.0,0.0,0.0,0.0,66,100,0,59.5,24.1,24.1,24.1,24.1,10
TG_CL2,Huyện Chợ Gạo - Tiền Giang,Tiền Giang,Chợ Gạo,10.35,106.4667,2026-03-17 14:54:16,openmeteo,high,2026-03-17T14:45,,31.8,33.1,24.0,27.5,44,89,44,71.6,1009.5,1014.5,1007.9,1011.3,17.7,22.2,4.0,13.8,117,120.3,0.0,0.0,0.0,0.0,0.0,50,100,3,56.3,24.1,24.1,24.1,24.1,10
TG_CT,Huyện Cái Bè - Tiền Giang,Tiền Giang,Cái Bè,10.3333,105.95,2026-03-17 14:54:15,openmeteo,high,2026-03-17T14:45,,33.0,35.1,22.8,28.0,41,93,39,68.9,1009.0,1014.6,1007.2,1011.1,12.4,18.6,2.5,11.0,112,126.9,0.0,0.0,0.0,0.0,0.0,70,100,0,57.4,24.1,24.1,24.1,24.1,10
TG_GC,Huyện Gò Công Tây - Tiền Giang,Tiền Giang,Gò Công Tây,10.35,106.6,2026-03-17 14:54:15,openmeteo,high,2026-03-17T14:45,,31.5,32.8,24.3,27.5,44,88,44,71.9,1009.5,1014.5,1008.0,1011.4,19.5,22.8,3.6,14.5,124,122.2,0.0,0.0,0.0,0.0,0.0,32,99,0,55.5,24.1,24.1,24.1,24.1,10
TG_GD,Huyện Gò Công Đông - Tiền Giang,Tiền Giang,Gò Công Đông,10.3667,106.7167,2026-03-17 14:54:16,openmeteo,high,2026-03-17T14:45,,29.9,31.6,24.7,27.1,52,87,51,73.6,1009.9,1014.6,1008.4,1011.5,22.2,24.0,7.6,16.4,119,117.4,0.0,0.0,0.0,0.0,0.0,4,95,0,55.8,24.1,24.1,24.1,24.1,5
TG_TP,Huyện Tân Phú Đông - Tiền Giang,Tiền Giang,Tân Phú Đông,10.25,106.6,2026-03-17 14:54:16,openmeteo,high,2026-03-17T14:45,,30.6,31.9,24.5,27.2,50,90,48,74.0,1009.9,1014.6,1008.3,1011.5,22.3,23.7,5.1,15.0,111,114.4,0.0,0.0,0.0,0.0,0.0,7,92,7,58.1,24.1,24.1,24.1,24.1,10
TG_TL,Huyện Tân Phước - Tiền Giang,Tiền Giang,Tân Phước,10.5,106.15,2026-03-17 14:54:16,openmeteo,high,2026-03-17T14:45,,33.4,34.7,22.8,27.8,39,92,39,70.0,1008.7,1014.6,1007.1,1011.1,8.1,18.3,2.6,10.8,103,130.3,0.0,0.0,0.0,0.0,0.0,63,100,0,56.8,24.1,24.1,24.1,24.1,10
TG_MT,Thành phố Mỹ Tho - Tiền Giang,Tiền Giang,Mỹ Tho,10.35,106.35,2026-03-17 14:54:15,openmeteo,high,2026-03-17T14:45,,31.9,33.7,23.6,27.6,44,90,43,71.2,1009.2,1014.5,1007.6,1011.3,16.1,21.4,3.6,13.0,124,123.8,0.0,0.0,0.0,0.0,0.0,75,100,0,58.9,24.1,24.1,24.1,24.1,10
TG_GL,Thị xã Gò Công - Tiền Giang,Tiền Giang,Gò Công,10.3667,106.6667,2026-03-17 14:54:14,openmeteo,high,2026-03-17T14:45,,31.5,32.8,24.3,27.5,44,88,44,71.9,1009.5,1014.5,1008.0,1011.4,19.5,22.8,3.6,14.5,124,122.2,0.0,0.0,0.0,0.0,0.0,32,99,0,55.5,24.1,24.1,24.1,24.1,10
TV_CL,Huyện Càng Long - Trà Vinh,Trà Vinh,Càng Long,9.9667,106.2,2026-03-17 14:54:59,openmeteo,high,2026-03-17T14:45,,31.4,33.1,23.3,27.4,47,92,46,72.0,1009.6,1014.5,1008.0,1011.3,19.8,22.3,2.3,12.5,106,113.3,0.0,0.0,0.0,0.0,0.0,86,96,0,55.6,24.1,24.1,24.1,24.1,10
TV_CN,Huyện Cầu Ngang - Trà Vinh,Trà Vinh,Cầu Ngang,9.8,106.4333,2026-03-17 14:54:59,openmeteo,high,2026-03-17T14:45,,30.2,32.0,23.6,27.0,53,91,47,74.2,1010.0,1014.5,1008.4,1011.5,21.5,22.7,4.1,12.5,100,106.6,0.0,0.0,0.0,0.0,0.0,57,100,4,56.9,24.1,24.1,24.1,24.1,10
TV_TV,Thành phố Trà Vinh - Trà Vinh,Trà Vinh,Trà Vinh,9.9347,106.3453,2026-03-17 14:54:58,openmeteo,high,2026-03-17T14:45,,30.6,32.3,23.7,27.1,51,90,46,73.3,1009.9,1014.5,1008.3,1011.4,21.7,22.8,3.9,12.7,102,109.0,0.0,0.0,0.0,0.0,0.0,65,100,15,58.1,24.1,24.1,24.1,24.1,10
TQ_LB,Huyện Lâm Bình - Tuyên Quang,Tuyên Quang,Lâm Bình,22.4667,105.2167,2026-03-17 14:54:45,openmeteo,high,2026-03-17T14:45,,24.8,27.6,19.4,22.5,70,98,65,87.2,1010.9,1016.6,1007.4,1012.5,7.6,9.1,0.7,4.0,180,157.8,0.0,2.0,0.1,1.3,30.9,87,100,55,89.2,24.1,24.1,8.9,23.3,0
TQ_NH,Huyện Na Hang - Tuyên Quang,Tuyên Quang,Na Hang,22.35,105.3833,2026-03-17 14:54:45,openmeteo,high,2026-03-17T14:45,,25.2,28.2,20.3,23.4,74,97,67,86.3,1011.3,1016.6,1007.5,1012.6,7.3,9.0,1.8,4.3,171,168.5,0.0,2.2,0.1,0.9,22.3,83,100,49,89.4,24.1,24.1,9.8,22.6,5
TQ_TQ,Thành phố Tuyên Quang - Tuyên Quang,Tuyên Quang,Tuyên Quang,21.8181,105.2144,2026-03-17 14:54:45,openmeteo,high,2026-03-17T14:45,,27.3,29.5,20.8,24.5,65,95,63,82.4,1010.4,1016.3,1006.8,1011.9,8.7,14.7,0.7,5.9,128,139.8,0.0,1.1,0.1,0.7,15.9,88,100,64,90.6,24.1,24.1,5.3,23.3,5
TN_TB,Huyện Tân Biên - Tây Ninh,Tây Ninh,Tân Biên,11.55,105.9667,2026-03-17 14:54:57,openmeteo,high,2026-03-17T14:45,,32.9,34.7,21.8,27.8,45,94,40,71.6,1008.6,1015.0,1007.0,1011.0,2.3,13.9,0.7,6.3,342,181.4,0.0,0.0,0.0,0.0,0.0,70,100,0,50.6,24.1,24.1,21.2,24.1,10
TN_TC,Huyện Tân Châu - Tây Ninh,Tây Ninh,Tân Châu,11.3333,106.1667,2026-03-17 14:54:58,openmeteo,high,2026-03-17T14:45,,33.7,35.4,21.9,28.1,44,94,40,70.7,1008.6,1014.9,1006.9,1011.0,1.0,16.3,0.4,7.0,45,165.5,0.0,0.0,0.0,0.0,0.0,60,100,0,56.4,24.1,24.1,20.4,24.1,10
TN_TN2,Thành phố Tây Ninh - Tây Ninh,Tây Ninh,Tây Ninh,11.3131,106.0963,2026-03-17 14:54:57,openmeteo,high,2026-03-17T14:45,,33.7,35.5,21.9,28.2,44,94,40,70.7,1008.6,1014.9,1006.9,1011.0,1.0,16.3,0.4,7.0,45,165.5,0.0,0.0,0.0,0.0,0.0,60,100,0,56.4,24.1,24.1,18.9,24.0,10
VL_BT,Huyện Bình Tân - Vĩnh Long,Vĩnh Long,Bình Tân,10.0833,105.7667,2026-03-17 14:54:19,openmeteo,high,2026-03-17T14:45,,32.9,34.9,22.9,28.1,42,93,39,68.6,1009.0,1014.6,1007.2,1011.1,13.3,18.6,1.8,10.1,103,122.8,0.0,0.0,0.0,0.0,0.0,74,100,0,60.1,24.1,24.1,20.6,24.1,10
VL_LH,Huyện Long Hồ - Vĩnh Long,Vĩnh Long,Long Hồ,10.2,106.0167,2026-03-17 14:54:20,openmeteo,high,2026-03-17T14:45,,32.8,34.8,22.6,27.9,42,94,39,69.3,1009.0,1014.6,1007.2,1011.1,12.9,19.1,2.2,10.4,103,123.8,0.0,0.0,0.0,0.0,0.0,76,100,0,58.9,24.1,24.1,24.1,24.1,10
VL_MT,Huyện Mang Thít - Vĩnh Long,Vĩnh Long,Mang Thít,10.1833,106.1,2026-03-17 14:54:19,openmeteo,high,2026-03-17T14:45,,32.3,33.9,23.1,27.8,43,91,42,69.9,1009.3,1014.5,1007.7,1011.2,16.6,21.7,1.6,12.1,112,119.0,0.0,0.0,0.0,0.0,0.0,67,100,0,55.7,24.1,24.1,24.1,24.1,10
VL_TL,Huyện Tam Bình - Vĩnh Long,Vĩnh Long,Tam Bình,10.0667,105.9833,2026-03-17 14:54:20,openmeteo,high,2026-03-17T14:45,,32.7,34.6,22.9,27.9,42,92,40,69.2,1009.1,1014.6,1007.3,1011.2,15.1,20.4,1.8,11.1,108,121.8,0.0,0.0,0.0,0.0,0.0,78,100,0,57.4,24.1,24.1,17.5,24.1,10
VL_TR,Huyện Trà Ôn - Vĩnh Long,Vĩnh Long,Trà Ôn,9.9667,105.8833,2026-03-17 14:54:20,openmeteo,high,2026-03-17T14:45,,32.2,34.4,23.1,27.8,45,92,41,70.8,1009.2,1014.6,1007.3,1011.2,15.2,19.5,1.8,10.5,104,118.6,0.0,0.0,0.0,0.0,0.0,71,100,0,57.9,24.1,24.1,17.5,24.1,10
