station_id,station_name,province,district,latitude,longitude,timestamp,data_source,data_quality,data_time,error_reason,temperature_current,temperature_max,temperature_min,temperature_avg,humidity_current,humidity_max,humidity_min,humidity_avg,pressure_current,pressure_max,pressure_min,pressure_avg,wind_speed_current,wind_speed_max,wind_speed_min,wind_speed_avg,wind_direction_current,wind_direction_avg,rain_current,rain_max,rain_min,rain_avg,rain_total,cloud_cover_current,cloud_cover_max,cloud_cover_min,cloud_cover_avg,visibility_current,visibility_max,visibility_min,visibility_avg,thunder_probability
AG_AT,Huyện An Phú - An Giang,An Giang,An Phú,10.8333,105.0833,2026-03-11 14:01:54,openmeteo,high,2026-03-11T21:00,,27.9,34.7,22.1,27.7,65,94,39,69.8,1010.3,1015.4,1007.5,1011.4,3.0,13.3,0.4,6.7,284,74.6,0.0,0.0,0.0,0.0,0.0,29,100,0,46.1,24.1,24.1,3.7,23.7,5
AG_CL,Huyện Châu Phú - An Giang,An Giang,Châu Phú,10.5667,105.1667,2026-03-11 14:01:54,openmeteo,high,2026-03-11T21:00,,26.4,34.6,22.5,27.6,72,96,39,69.7,1010.7,1015.4,1007.5,1011.4,8.4,14.2,0.4,6.7,160,95.0,0.0,0.0,0.0,0.0,0.0,47,85,0,51.7,24.1,24.1,8.4,23.9,5
AG_CP,Huyện Châu Thành - An Giang,An Giang,Châu Thành,10.45,105.25,2026-03-11 14:01:55,openmeteo,high,2026-03-11T21:00,,25.9,34.4,22.3,27.2,85,95,39,72.7,1011.1,1015.4,1007.5,1011.4,10.7,15.9,1.0,7.2,168,99.4,0.0,0.1,0.1,0.0,0.1,45,95,0,57.9,24.1,24.1,8.4,23.9,5
AG_CT,Huyện Chợ Mới - An Giang,An Giang,Chợ Mới,10.5333,105.3833,2026-03-11 14:01:55,openmeteo,high,2026-03-11T21:00,,26.1,34.4,22.1,27.5,85,95,39,71.7,1011.0,1015.4,1007.5,1011.4,11.2,15.6,0.4,7.1,174,104.0,0.0,0.1,0.1,0.0,0.1,46,93,0,56.9,24.1,24.1,11.5,23.9,5
AG_PT,Huyện Phú Tân - An Giang,An Giang,Phú Tân,10.65,105.2833,2026-03-11 14:01:55,openmeteo,high,2026-03-11T21:00,,26.5,34.7,22.0,27.6,71,96,38,70.6,1010.7,1015.4,1007.5,1011.4,9.8,13.5,0.0,6.3,152,94.5,0.0,0.0,0.0,0.0,0.0,45,91,0,50.4,24.1,24.1,7.2,23.6,5
AG_TV,Huyện Thoại Sơn - An Giang,An Giang,Thoại Sơn,10.2667,105.2667,2026-03-11 14:01:55,openmeteo,high,2026-03-11T21:00,,25.7,34.2,22.7,27.3,85,92,39,72.2,1011.2,1015.2,1007.7,1011.4,7.2,17.6,2.2,8.4,177,96.6,0.0,1.5,0.2,0.2,4.4,29,88,0,56.9,24.1,24.1,6.1,24.0,5
AG_TX,Huyện Tri Tôn - An Giang,An Giang,Tri Tôn,10.4167,105.0,2026-03-11 14:01:56,openmeteo,high,2026-03-11T21:00,,26.7,34.3,23.2,27.7,83,93,40,70.6,1011.1,1015.3,1007.6,1011.5,9.8,15.7,1.1,7.2,163,94.1,0.0,0.1,0.1,0.0,0.1,38,83,0,58.5,24.1,24.1,13.1,24.0,5
AG_TN,Huyện Tịnh Biên - An Giang,An Giang,Tịnh Biên,10.55,105.0,2026-03-11 14:01:55,openmeteo,high,2026-03-11T21:00,,26.9,34.9,22.9,28.1,77,95,38,68.7,1011.1,1015.4,1007.6,1011.5,9.0,15.5,0.5,7.4,164,91.7,0.0,0.1,0.1,0.0,0.1,53,93,4,57.6,24.1,24.1,13.1,24.0,5
AG_CD,Thành phố Châu Đốc - An Giang,An Giang,Châu Đốc,10.7,105.1167,2026-03-11 14:01:53,openmeteo,high,2026-03-11T21:00,,28.0,34.5,22.3,27.7,65,96,40,69.8,1010.4,1015.4,1007.5,1011.4,3.1,14.6,0.4,6.8,249,80.3,0.0,0.0,0.0,0.0,0.0,32,100,0,47.8,24.1,24.1,3.7,23.7,5
AG_LX,Thành phố Long Xuyên - An Giang,An Giang,Long Xuyên,10.3865,105.4351,2026-03-11 14:01:53,openmeteo,high,2026-03-11T21:00,,25.8,34.3,22.6,27.4,83,94,39,71.3,1011.2,1015.4,1007.5,1011.4,8.3,18.3,0.5,7.9,182,101.0,0.0,0.1,0.1,0.0,0.2,54,89,0,57.2,24.1,24.1,11.5,23.9,5
AG_AP,Thị xã Tân Châu - An Giang,An Giang,Tân Châu,10.8,105.2167,2026-03-11 14:01:54,openmeteo,high,2026-03-11T21:00,,27.8,34.7,21.4,27.6,62,96,39,70.2,1010.5,1015.4,1007.5,1011.4,6.7,13.8,0.8,6.6,164,84.5,0.0,0.0,0.0,0.0,0.0,48,97,0,48.3,24.1,24.1,7.2,23.6,5
BR_CH,Huyện Châu Đức - Bà Rịa - Vũng Tàu,Bà Rịa - Vũng Tàu,Châu Đức,10.65,107.25,2026-03-11 14:01:53,openmeteo,high,2026-03-11T21:00,,24.9,33.6,21.9,26.9,77,93,38,68.0,1011.1,1015.4,1008.3,1011.6,14.8,24.7,0.8,11.9,108,97.8,0.0,0.7,0.1,0.1,2.4,4,100,0,51.4,24.1,24.1,11.8,24.0,0
BR_CD,Huyện Côn Đảo - Bà Rịa - Vũng Tàu,Bà Rịa - Vũng Tàu,Côn Đảo,8.6822,106.6089,2026-03-11 14:01:51,openmeteo,high,2026-03-11T21:00,,25.9,26.7,25.5,26.0,80,85,75,79.7,1011.7,1014.8,1008.9,1011.7,28.5,36.9,23.2,28.8,77,72.1,0.0,0.0,0.0,0.0,0.0,49,100,7,50.7,24.1,24.1,24.1,24.1,5
BR_LD,Huyện Long Điền - Bà Rịa - Vũng Tàu,Bà Rịa - Vũng Tàu,Long Điền,10.4667,107.2333,2026-03-11 14:01:53,openmeteo,high,2026-03-11T21:00,,25.8,32.9,23.3,27.4,76,86,46,68.2,1011.1,1015.3,1008.6,1011.6,17.4,27.2,1.8,15.0,103,94.0,0.0,0.4,0.1,0.0,0.9,0,100,0,49.2,24.1,24.1,21.3,24.1,5
BR_XM,Huyện Xuyên Mộc - Bà Rịa - Vũng Tàu,Bà Rịa - Vũng Tàu,Xuyên Mộc,10.6333,107.4333,2026-03-11 14:01:52,openmeteo,high,2026-03-11T21:00,,24.3,33.7,22.1,26.5,82,90,39,70.1,1011.2,1015.5,1008.5,1011.7,11.0,22.6,0.5,10.3,109,92.8,0.0,0.5,0.1,0.1,1.7,11,100,0,50.7,24.1,24.1,16.7,24.1,0
BR_DD,Huyện Đất Đỏ - Bà Rịa - Vũng Tàu,Bà Rịa - Vũng Tàu,Đất Đỏ,10.5,107.2833,2026-03-11 14:01:52,openmeteo,high,2026-03-11T21:00,,25.7,32.8,23.2,27.4,76,86,46,68.2,1011.1,1015.3,1008.6,1011.6,17.4,27.2,1.8,15.0,103,94.0,0.0,0.4,0.1,0.0,0.9,0,100,0,49.2,24.1,24.1,21.3,24.1,5
BR_BR,Thành phố Bà Rịa - Bà Rịa - Vũng Tàu,Bà Rịa - Vũng Tàu,Bà Rịa,10.5,107.1833,2026-03-11 14:01:51,openmeteo,high,2026-03-11T21:00,,26.2,32.4,24.6,27.6,75,82,47,68.8,1010.9,1015.3,1008.4,1011.5,11.9,19.8,0.8,10.3,115,101.0,0.0,0.2,0.1,0.0,0.5,0,100,0,51.5,24.1,24.1,21.3,24.1,5
BR_VT,Thành phố Vũng Tàu - Bà Rịa - Vũng Tàu,Bà Rịa - Vũng Tàu,Vũng Tàu,10.346,107.0843,2026-03-11 14:01:50,openmeteo,high,2026-03-11T21:00,,26.2,32.4,24.6,27.6,75,82,47,68.8,1010.9,1015.3,1008.4,1011.5,11.9,19.8,0.8,10.3,115,101.0,0.0,0.2,0.1,0.0,0.5,0,100,0,51.5,24.1,24.1,21.3,24.1,5
BR_PT,Thị xã Phú Mỹ - Bà Rịa - Vũng Tàu,Bà Rịa - Vũng Tàu,Phú Mỹ,10.6,107.05,2026-03-11 14:01:51,openmeteo,high,2026-03-11T21:00,,25.8,35.0,23.8,27.6,76,93,37,68.6,1010.8,1015.3,1008.1,1011.4,9.7,20.8,0.4,8.5,141,108.5,0.0,0.5,0.1,0.1,1.3,0,100,0,51.3,24.1,24.1,19.3,24.1,5
BR_CD2,Đảo Côn Sơn - Bà Rịa - Vũng Tàu,Bà Rịa - Vũng Tàu,Côn Đảo,8.6822,106.6089,2026-03-11 14:02:50,openmeteo,high,2026-03-11T21:00,,25.9,26.7,25.5,26.0,80,85,75,79.7,1011.7,1014.8,1008.9,1011.7,28.5,36.9,23.2,28.8,77,72.1,0.0,0.0,0.0,0.0,0.0,49,100,7,50.7,24.1,24.1,24.1,24.1,5
BD_BA,Huyện Bàu Bàng - Bình Dương,Bình Dương,Bàu Bàng,11.25,106.8,2026-03-11 14:01:46,openmeteo,high,2026-03-11T21:00,,26.2,35.7,21.7,27.7,74,92,32,65.0,1010.7,1015.3,1007.3,1011.3,7.4,17.9,0.0,5.5,157,73.3,0.0,0.7,0.1,0.1,2.4,24,100,0,42.2,24.1,24.1,13.0,23.9,5
BD_BC,Huyện Bắc Tân Uyên - Bình Dương,Bình Dương,Bắc Tân Uyên,11.1667,106.8667,2026-03-11 14:01:47,openmeteo,high,2026-03-11T21:00,,26.1,35.6,22.1,27.8,75,91,32,64.6,1010.7,1015.2,1007.4,1011.3,9.6,20.8,0.0,5.8,160,132.7,0.0,0.6,0.1,0.1,1.6,30,100,0,45.9,24.1,24.1,13.0,23.9,5
BD_DH,Huyện Dầu Tiếng - Bình Dương,Bình Dương,Dầu Tiếng,11.2667,106.3667,2026-03-11 14:01:48,openmeteo,high,2026-03-11T21:00,,26.4,35.5,22.6,28.0,75,95,35,66.5,1010.5,1015.2,1007.2,1011.3,13.3,19.8,0.4,6.3,177,53.9,0.0,0.2,0.2,0.0,0.2,55,100,0,37.6,24.1,24.1,16.0,24.0,5
BD_PG,Huyện Phú Giáo - Bình Dương,Bình Dương,Phú Giáo,11.3333,106.7667,2026-03-11 14:01:47,openmeteo,high,2026-03-11T21:00,,26.1,35.7,21.5,27.6,77,92,31,65.4,1010.8,1015.3,1007.3,1011.3,6.7,19.6,0.4,5.3,144,59.4,0.0,1.5,0.1,0.2,5.0,29,100,0,39.2,24.1,24.1,13.0,23.9,5
BD_TDM,Thành phố Thủ Dầu Một - Bình Dương,Bình Dương,Thủ Dầu Một,10.9804,106.6519,2026-03-11 14:01:45,openmeteo,high,2026-03-11T21:00,,26.1,35.7,22.8,27.9,78,93,34,67.2,1010.5,1015.3,1007.3,1011.3,12.3,18.6,0.0,6.2,177,86.7,0.0,0.0,0.0,0.0,0.0,6,100,0,41.7,24.1,24.1,17.9,24.1,5
BD_BG,Thị xã Bến Cát - Bình Dương,Bình Dương,Bến Cát,11.15,106.6,2026-03-11 14:01:46,openmeteo,high,2026-03-11T21:00,,26.0,35.9,22.3,27.8,77,94,33,66.7,1010.5,1015.3,1007.3,1011.3,10.5,17.7,0.4,5.7,174,102.3,0.0,0.5,0.2,0.0,0.7,8,100,0,42.2,24.1,24.1,9.1,24.0,5
BD_DT,Thị xã Dĩ An - Bình Dương,Bình Dương,Dĩ An,10.9,106.7667,2026-03-11 14:01:47,openmeteo,high,2026-03-11T21:00,,25.8,36.0,22.8,27.7,77,93,31,66.9,1010.6,1015.3,1007.3,1011.3,11.4,19.3,0.4,6.6,169,111.1,0.0,0.0,0.0,0.0,0.0,0,100,0,44.8,24.1,24.1,17.9,24.1,5
BD_TN,Thị xã Thuận An - Bình Dương,Bình Dương,Thuận An,10.9333,106.7,2026-03-11 14:01:46,openmeteo,high,2026-03-11T21:00,,26.0,36.2,23.0,27.9,77,93,31,66.9,1010.6,1015.3,1007.3,1011.3,11.4,19.3,0.4,6.6,169,111.1,0.0,0.0,0.0,0.0,0.0,0,100,0,44.8,24.1,24.1,17.9,24.1,5
BD_TU,Thị xã Tân Uyên - Bình Dương,Bình Dương,Tân Uyên,11.0667,106.8,2026-03-11 14:01:47,openmeteo,high,2026-03-11T21:00,,26.2,36.1,22.5,28.0,77,94,33,66.7,1010.5,1015.3,1007.3,1011.3,10.5,17.7,0.4,5.7,174,102.3,0.0,0.5,0.2,0.0,0.7,8,100,0,42.2,24.1,24.1,17.9,24.1,5
BP_DX,Thành phố Đồng Xoài - Bình Phước,Bình Phước,Đồng Xoài,11.5349,106.8823,2026-03-11 14:02:40,openmeteo,high,2026-03-11T21:00,,27.3,35.8,21.6,27.9,71,92,31,63.0,1011.0,1015.3,1007.3,1011.3,7.3,20.5,0.5,5.1,147,44.8,0.0,2.7,0.1,0.4,10.1,84,100,0,39.1,24.1,24.1,12.9,24.0,5
BP_BL,Thị xã Bình Long - Bình Phước,Bình Phước,Bình Long,11.65,106.6,2026-03-11 14:02:41,openmeteo,high,2026-03-11T21:00,,28.5,35.6,21.0,28.0,59,92,33,62.2,1010.4,1015.3,1007.1,1011.3,4.0,11.7,0.7,4.9,95,32.3,0.0,1.9,0.4,0.3,8.1,82,100,0,43.1,24.1,24.1,20.5,24.1,5
BP_PL,Thị xã Phước Long - Bình Phước,Bình Phước,Phước Long,11.8333,106.9667,2026-03-11 14:02:41,openmeteo,high,2026-03-11T21:00,,26.5,35.8,20.1,27.7,58,90,29,59.2,1010.9,1015.5,1007.1,1011.4,8.3,12.4,0.4,4.6,72,48.0,0.0,0.5,0.1,0.1,1.6,12,95,0,34.9,24.1,24.1,10.7,23.9,5
BT_HD,Huyện Hàm Thuận Bắc - Bình Thuận,Bình Thuận,Hàm Thuận Bắc,11.0833,108.1167,2026-03-11 14:02:27,openmeteo,high,2026-03-11T21:00,,24.5,31.7,19.5,25.0,76,93,38,70.9,1012.4,1016.4,1008.5,1012.8,2.5,18.2,1.0,6.5,45,73.8,0.0,0.8,0.1,0.1,2.6,59,100,0,50.7,24.1,24.1,24.1,24.1,0
BT_PH,Huyện Phú Quý - Bình Thuận,Bình Thuận,Phú Quý,10.5,108.9333,2026-03-11 14:02:26,openmeteo,high,2026-03-11T21:00,,25.1,25.8,24.5,25.1,83,86,77,82.6,1012.2,1015.8,1009.5,1012.4,40.5,45.8,24.1,36.7,42,45.3,0.0,0.0,0.0,0.0,0.0,94,100,9,54.8,24.1,24.1,24.1,24.1,5
BT_PT,Thành phố Phan Thiết - Bình Thuận,Bình Thuận,Phan Thiết,10.9333,108.1,2026-03-11 14:02:25,openmeteo,high,2026-03-11T21:00,,25.4,34.0,20.7,26.6,72,93,34,65.8,1011.6,1015.6,1008.2,1012.0,4.8,27.2,1.3,10.5,77,67.0,0.0,0.2,0.1,0.0,0.7,68,100,0,52.9,24.1,24.1,24.1,24.1,5
BT_LC,Thị xã La Gi - Bình Thuận,Bình Thuận,La Gi,10.6667,107.7667,2026-03-11 14:02:26,openmeteo,high,2026-03-11T21:00,,24.8,32.4,21.1,26.3,77,93,45,69.4,1011.6,1015.6,1008.9,1012.0,10.4,25.5,2.8,13.3,88,82.5,0.0,0.2,0.2,0.0,0.2,41,100,0,51.5,24.1,24.1,24.1,24.1,0
BT_PQ2,Đảo Phú Quý - Bình Thuận,Bình Thuận,Phú Quý,10.5,108.9333,2026-03-11 14:02:50,openmeteo,high,2026-03-11T21:00,,25.1,25.8,24.5,25.1,83,86,77,82.6,1012.2,1015.8,1009.5,1012.4,40.5,45.8,24.1,36.7,42,45.3,0.0,0.0,0.0,0.0,0.0,94,100,9,54.8,24.1,24.1,24.1,24.1,5
BD_AL,Huyện An Lão - Bình Định,Bình Định,An Lão,14.5667,108.9,2026-03-11 14:02:22,openmeteo,high,2026-03-11T21:00,,20.5,28.1,18.6,21.6,95,99,57,86.8,1017.2,1020.4,1012.3,1017.2,4.6,14.6,0.5,6.2,18,9.7,0.1,0.3,0.1,0.1,2.7,89,100,44,80.7,23.8,24.1,9.2,21.7,10
BD_HV,Huyện Hoài Ân - Bình Định,Bình Định,Hoài Ân,14.35,108.9,2026-03-11 14:02:22,openmeteo,high,2026-03-11T21:00,,19.2,26.7,17.1,20.7,88,96,53,79.4,1016.7,1019.8,1012.3,1016.6,5.8,21.0,1.8,9.2,30,24.8,0.0,0.5,0.1,0.1,1.6,82,100,39,73.3,24.1,24.1,9.0,22.7,10
BD_QN,Thành phố Quy Nhơn - Bình Định,Bình Định,Quy Nhơn,13.7667,109.2333,2026-03-11 14:02:22,openmeteo,high,2026-03-11T21:00,,22.8,28.7,21.5,24.2,87,93,58,79.3,1015.5,1018.5,1011.7,1015.4,7.6,21.7,0.4,10.0,360,2.4,0.0,1.1,0.1,0.4,9.2,71,100,31,73.7,24.0,24.1,5.1,22.2,10
BL_HH,Huyện Hòa Bình - Bạc Liêu,Bạc Liêu,Hòa Bình,9.2833,105.6333,2026-03-11 14:02:17,openmeteo,high,2026-03-11T21:00,,25.1,33.1,24.2,27.4,81,87,44,69.9,1011.6,1014.9,1008.3,1011.5,10.5,27.6,9.0,17.7,94,91.9,0.0,0.4,0.2,0.0,0.9,6,100,0,54.7,24.1,24.1,19.6,24.0,5
BL_HB,Huyện Hồng Dân - Bạc Liêu,Bạc Liêu,Hồng Dân,9.55,105.4167,2026-03-11 14:02:16,openmeteo,high,2026-03-11T21:00,,25.1,33.0,23.2,27.3,81,92,43,71.6,1011.5,1014.9,1007.9,1011.4,8.6,23.8,2.2,12.7,123,94.7,0.0,1.0,0.1,0.1,3.2,29,100,6,59.4,24.1,24.1,18.2,24.0,5
BL_PT,Huyện Phước Long - Bạc Liêu,Bạc Liêu,Phước Long,9.4333,105.4667,2026-03-11 14:02:16,openmeteo,high,2026-03-11T21:00,,25.0,33.0,23.8,27.4,81,90,43,70.3,1011.6,1014.8,1007.9,1011.5,8.4,25.5,7.0,15.3,100,92.3,0.0,0.9,0.1,0.1,1.6,17,100,0,57.9,24.1,24.1,18.2,24.0,0
BL_VL,Huyện Vĩnh Lợi - Bạc Liêu,Bạc Liêu,Vĩnh Lợi,9.35,105.5667,2026-03-11 14:02:17,openmeteo,high,2026-03-11T21:00,,25.1,33.1,24.2,27.4,81,87,44,69.9,1011.6,1014.9,1008.3,1011.5,10.5,27.6,9.0,17.7,94,91.9,0.0,0.4,0.2,0.0,0.9,6,100,0,54.7,24.1,24.1,19.6,24.0,5
BL_DD,Huyện Đông Hải - Bạc Liêu,Bạc Liêu,Đông Hải,9.1667,105.4333,2026-03-11 14:02:17,openmeteo,high,2026-03-11T21:00,,24.9,32.2,24.4,27.1,84,89,47,73.3,1011.6,1014.9,1008.3,1011.5,9.7,29.5,9.7,18.3,92,92.8,0.0,1.4,0.1,0.2,5.2,5,100,5,56.9,24.1,24.1,19.6,24.0,0
BL_BL,Thành phố Bạc Liêu - Bạc Liêu,Bạc Liêu,Bạc Liêu,9.2833,105.7167,2026-03-11 14:02:16,openmeteo,high,2026-03-11T21:00,,25.6,32.9,25.0,27.6,78,84,45,69.5,1011.6,1015.0,1008.6,1011.6,14.8,30.9,12.6,21.1,91,88.8,0.0,0.0,0.0,0.0,0.0,20,100,0,52.4,24.1,24.1,19.6,24.0,5
BL_GD,Thị xã Giá Rai - Bạc Liêu,Bạc Liêu,Giá Rai,9.2333,105.4667,2026-03-11 14:02:15,openmeteo,high,2026-03-11T21:00,,24.5,33.0,23.6,27.1,84,91,43,72.2,1011.6,1014.8,1008.0,1011.4,7.6,24.2,7.2,14.4,98,93.0,0.0,2.6,0.1,0.2,5.9,12,100,0,59.8,24.1,24.1,19.6,24.0,0
BG_LN,Huyện Lạng Giang - Bắc Giang,Bắc Giang,Lạng Giang,21.35,106.25,2026-03-11 14:02:40,openmeteo,high,2026-03-11T21:00,,20.5,26.5,16.3,21.3,76,94,45,77.1,1018.3,1022.5,1011.4,1018.0,5.2,13.5,0.4,4.5,155,145.4,0.0,0.3,0.1,0.1,1.5,100,100,39,87.3,24.1,24.1,21.9,24.1,0
BG_YL,Huyện Yên Thế - Bắc Giang,Bắc Giang,Yên Thế,21.5167,106.1167,2026-03-11 14:02:40,openmeteo,high,2026-03-11T21:00,,20.9,26.2,16.0,21.1,76,94,45,77.9,1018.3,1022.6,1011.4,1018.1,1.8,13.0,0.0,4.6,143,131.1,0.0,0.2,0.1,0.1,2.4,100,100,51,89.2,24.1,24.1,18.3,24.0,0
BG_BG,Thành phố Bắc Giang - Bắc Giang,Bắc Giang,Bắc Giang,21.2667,106.2,2026-03-11 14:02:40,openmeteo,high,2026-03-11T21:00,,20.4,27.0,16.3,21.4,76,95,46,78.4,1018.3,1022.5,1011.2,1018.0,9.3,14.2,0.4,5.5,144,131.3,0.0,0.2,0.1,0.1,1.2,100,100,31,86.4,24.1,24.1,21.9,24.1,0
BK_BB,Huyện Ba Bể - Bắc Kạn,Bắc Kạn,Ba Bể,22.4167,105.75,2026-03-11 14:02:31,openmeteo,high,2026-03-11T21:00,,18.8,23.9,14.8,19.4,83,92,56,80.0,1019.0,1023.1,1011.7,1018.5,3.6,10.7,0.7,5.0,127,159.1,0.0,0.1,0.1,0.0,0.1,100,100,66,91.2,24.1,24.1,11.2,23.1,0
BK_PT,Huyện Pác Nặm - Bắc Kạn,Bắc Kạn,Pác Nặm,22.6333,105.6667,2026-03-11 14:02:31,openmeteo,high,2026-03-11T21:00,,18.0,23.7,13.7,18.7,88,94,56,81.9,1019.1,1023.2,1011.3,1018.5,2.7,13.0,0.0,4.4,157,164.9,0.0,0.1,0.1,0.0,0.1,100,100,64,92.6,24.1,24.1,0.1,21.3,10
BK_BK,Thành phố Bắc Kạn - Bắc Kạn,Bắc Kạn,Bắc Kạn,22.15,105.8333,2026-03-11 14:02:31,openmeteo,high,2026-03-11T21:00,,19.2,23.1,14.8,19.3,82,94,57,81.3,1018.9,1022.9,1012.0,1018.7,1.4,11.7,0.5,4.7,90,144.3,0.0,0.1,0.1,0.0,0.3,100,100,61,92.6,24.1,24.1,10.6,23.5,0
BN_YL,Huyện Yên Phong - Bắc Ninh,Bắc Ninh,Yên Phong,21.2,105.95,2026-03-11 14:02:37,openmeteo,high,2026-03-11T21:00,,20.8,27.0,15.9,21.1,76,95,47,78.5,1018.2,1022.5,1011.0,1018.0,5.0,15.3,0.4,6.0,120,118.1,0.0,0.1,0.1,0.0,0.6,100,100,37,85.6,24.1,24.1,22.6,24.1,0
BN_BN,Thành phố Bắc Ninh - Bắc Ninh,Bắc Ninh,Bắc Ninh,21.1861,106.0764,2026-03-11 14:02:36,openmeteo,high,2026-03-11T21:00,,19.8,27.1,15.8,21.1,75,96,46,78.4,1018.3,1022.5,1011.1,1018.0,11.0,15.5,0.5,6.5,131,124.8,0.0,0.2,0.1,0.1,1.3,100,100,16,84.4,24.1,24.1,22.6,24.1,0
BN_TS,Thành phố Từ Sơn - Bắc Ninh,Bắc Ninh,Từ Sơn,21.1167,105.9667,2026-03-11 14:02:37,openmeteo,high,2026-03-11T21:00,,19.8,27.1,15.8,21.1,75,96,46,78.4,1018.3,1022.5,1011.1,1018.0,11.0,15.5,0.5,6.5,131,124.8,0.0,0.2,0.1,0.1,1.3,100,100,16,84.4,24.1,24.1,19.2,24.0,0
BT_BL,Huyện Ba Tri - Bến Tre,Bến Tre,Ba Tri,10.0667,106.6,2026-03-11 14:02:05,openmeteo,high,2026-03-11T21:00,,25.3,33.2,23.8,27.3,78,90,45,70.4,1011.4,1015.2,1008.7,1011.7,11.7,26.2,4.5,14.6,108,94.2,0.0,0.4,0.1,0.0,0.6,43,100,0,53.8,24.1,24.1,23.8,24.1,5
BT_BH,Huyện Bình Đại - Bến Tre,Bến Tre,Bình Đại,10.1833,106.7,2026-03-11 14:02:05,openmeteo,high,2026-03-11T21:00,,25.3,33.2,23.8,27.3,78,90,45,70.4,1011.4,1015.2,1008.7,1011.7,11.7,26.2,4.5,14.6,108,94.2,0.0,0.4,0.1,0.0,0.6,43,100,0,53.8,24.1,24.1,24.1,24.1,5
BT_CL,Huyện Châu Thành - Bến Tre,Bến Tre,Châu Thành,10.3,106.2667,2026-03-11 14:02:05,openmeteo,high,2026-03-11T21:00,,25.8,33.4,24.0,27.6,77,89,42,69.3,1011.4,1015.2,1008.1,1011.5,11.8,23.2,2.3,12.6,121,96.3,0.0,0.3,0.1,0.0,0.9,49,100,2,55.4,24.1,24.1,11.7,24.0,5
BT_CT,Huyện Chợ Lách - Bến Tre,Bến Tre,Chợ Lách,10.2667,106.15,2026-03-11 14:02:05,openmeteo,high,2026-03-11T21:00,,25.3,33.4,23.5,27.5,80,92,43,70.1,1011.3,1015.1,1007.9,1011.5,10.2,23.3,0.5,11.3,129,98.0,0.0,1.6,0.1,0.2,4.6,42,100,5,56.5,24.1,24.1,11.7,24.0,5
BT_GD,Huyện Giồng Trôm - Bến Tre,Bến Tre,Giồng Trôm,10.1667,106.4667,2026-03-11 14:02:06,openmeteo,high,2026-03-11T21:00,,25.5,33.3,23.9,27.4,78,88,43,70.1,1011.4,1015.2,1008.4,1011.6,10.9,25.4,2.8,13.0,117,95.3,0.0,0.2,0.1,0.0,0.3,39,100,0,54.0,24.1,24.1,24.1,24.1,5
BT_MB,Huyện Mỏ Cày Bắc - Bến Tre,Bến Tre,Mỏ Cày Bắc,10.1333,106.3,2026-03-11 14:02:06,openmeteo,high,2026-03-11T21:00,,25.2,33.6,23.3,27.5,79,91,42,69.5,1011.4,1015.2,1008.1,1011.5,9.8,23.6,2.9,12.2,118,96.3,0.0,0.9,0.1,0.1,3.0,55,100,0,56.3,24.1,24.1,11.7,24.0,5
BT_MN,Huyện Mỏ Cày Nam - Bến Tre,Bến Tre,Mỏ Cày Nam,10.0667,106.3333,2026-03-11 14:02:06,openmeteo,high,2026-03-11T21:00,,25.4,33.8,23.7,27.5,78,89,41,69.2,1011.5,1015.2,1008.3,1011.6,11.0,24.9,3.9,13.3,113,96.0,0.0,0.1,0.1,0.0,0.3,45,100,3,54.2,24.1,24.1,22.2,24.1,5
BT_TP,Huyện Thạnh Phú - Bến Tre,Bến Tre,Thạnh Phú,9.9333,106.5333,2026-03-11 14:02:06,openmeteo,high,2026-03-11T21:00,,25.9,32.5,25.2,27.4,76,84,46,69.8,1011.6,1015.2,1008.8,1011.7,14.5,27.9,9.0,18.3,96,90.4,0.0,0.0,0.0,0.0,0.0,44,100,0,54.2,24.1,24.1,23.8,24.1,5
BT_BT,Thành phố Bến Tre - Bến Tre,Bến Tre,Bến Tre,10.2333,106.3833,2026-03-11 14:02:05,openmeteo,high,2026-03-11T21:00,,25.8,33.4,24.0,27.6,77,89,42,69.3,1011.4,1015.2,1008.1,1011.5,11.8,23.2,2.3,12.6,121,96.3,0.0,0.3,0.1,0.0,0.9,49,100,2,55.4,24.1,24.1,24.1,24.1,5
CB_BL,Huyện Bảo Lâm - Cao Bằng,Cao Bằng,Bảo Lâm,22.8667,105.5,2026-03-11 14:02:31,openmeteo,high,2026-03-11T21:00,,18.1,24.4,14.6,19.0,87,96,53,80.7,1019.0,1023.6,1010.7,1018.2,2.3,11.6,0.0,5.1,18,172.5,0.0,0.2,0.1,0.1,1.7,100,100,64,94.8,24.1,24.1,0.7,22.8,10
CB_BC,Huyện Bảo Lạc - Cao Bằng,Cao Bằng,Bảo Lạc,22.95,105.7333,2026-03-11 14:02:31,openmeteo,high,2026-03-11T21:00,,18.5,25.7,14.8,19.5,81,93,49,76.7,1019.2,1023.4,1010.3,1018.1,4.3,16.1,0.4,5.3,90,162.4,0.0,0.2,0.1,0.1,1.7,99,100,40,88.8,24.1,24.1,13.5,23.8,0
CB_CB,Thành phố Cao Bằng - Cao Bằng,Cao Bằng,Cao Bằng,22.6667,106.25,2026-03-11 14:02:30,openmeteo,high,2026-03-11T21:00,,18.8,25.3,14.3,19.2,77,94,49,78.2,1019.3,1023.2,1010.9,1018.5,0.4,14.8,0.4,4.7,90,145.2,0.0,0.0,0.0,0.0,0.0,99,100,18,86.7,24.1,24.1,24.1,24.1,0
CM_CM,Huyện Cái Nước - Cà Mau,Cà Mau,Cái Nước,9.0,105.0333,2026-03-11 14:02:00,openmeteo,high,2026-03-11T21:00,,24.1,32.0,23.8,26.9,88,92,48,75.2,1011.7,1014.8,1008.3,1011.5,6.4,24.9,5.7,14.5,106,93.7,0.0,1.2,0.1,0.2,5.0,24,95,10,57.3,24.1,24.1,24.1,24.1,10
CM_NG,Huyện Ngọc Hiển - Cà Mau,Cà Mau,Ngọc Hiển,8.6667,105.05,2026-03-11 14:02:01,openmeteo,high,2026-03-11T21:00,,25.8,30.4,25.3,27.1,78,85,56,73.9,1011.7,1014.9,1008.8,1011.6,14.2,31.9,12.6,21.1,83,86.4,0.0,0.0,0.0,0.0,0.0,34,99,0,46.2,24.1,24.1,24.1,24.1,5
CM_NC,Huyện Năm Căn - Cà Mau,Cà Mau,Năm Căn,8.75,105.0,2026-03-11 14:02:00,openmeteo,high,2026-03-11T21:00,,25.5,31.6,24.8,27.3,81,90,50,73.4,1011.7,1014.7,1008.4,1011.5,10.5,30.6,10.4,19.2,86,89.1,0.0,0.0,0.0,0.0,0.0,31,96,0,49.1,24.1,24.1,24.1,24.1,5
CM_PT,Huyện Phú Tân - Cà Mau,Cà Mau,Phú Tân,8.8833,104.8833,2026-03-11 14:02:00,openmeteo,high,2026-03-11T21:00,,26.4,30.4,25.5,27.2,78,89,57,76.0,1011.8,1014.6,1008.3,1011.5,16.9,35.9,2.3,23.8,101,90.0,0.0,2.5,0.1,0.4,10.6,35,96,3,54.3,24.1,24.1,24.1,24.1,5
CM_TV,Huyện Thới Bình - Cà Mau,Cà Mau,Thới Bình,9.35,105.1,2026-03-11 14:02:01,openmeteo,high,2026-03-11T21:00,,24.3,32.7,22.8,26.7,88,94,44,75.3,1011.5,1014.8,1007.9,1011.4,8.0,22.7,0.5,11.1,144,97.1,0.0,6.5,0.3,0.7,15.7,30,100,0,58.6,24.1,24.1,3.7,23.8,10
CM_TR,Huyện Trần Văn Thời - Cà Mau,Cà Mau,Trần Văn Thời,9.0833,104.9667,2026-03-11 14:02:01,openmeteo,high,2026-03-11T21:00,,24.9,32.4,23.7,26.8,87,93,44,76.7,1011.6,1014.7,1008.3,1011.4,10.9,26.9,1.9,15.1,124,93.8,0.0,2.6,0.1,0.6,14.6,22,99,0,56.5,24.1,24.1,24.1,24.1,10
CM_UM,Huyện U Minh - Cà Mau,Cà Mau,U Minh,9.4,104.9833,2026-03-11 14:02:01,openmeteo,high,2026-03-11T21:00,,25.5,32.4,23.9,27.0,84,93,48,76.0,1011.5,1014.8,1008.2,1011.4,13.1,26.1,0.4,13.7,143,96.1,0.0,5.1,0.1,0.8,20.0,29,100,0,55.2,24.1,24.1,11.5,23.9,5
CM_DH,Huyện Đầm Dơi - Cà Mau,Cà Mau,Đầm Dơi,8.9833,105.2,2026-03-11 14:02:00,openmeteo,high,2026-03-11T21:00,,25.0,31.7,24.5,27.1,82,88,53,73.5,1011.7,1014.9,1008.5,1011.6,9.0,30.6,8.8,19.0,88,90.1,0.0,0.4,0.1,0.0,0.8,32,99,0,53.8,24.1,24.1,24.1,24.1,0
CM_TP,Thành phố Cà Mau - Cà Mau,Cà Mau,Cà Mau,9.1769,105.1521,2026-03-11 14:01:59,openmeteo,high,2026-03-11T21:00,,24.4,32.2,23.7,26.7,87,92,45,75.5,1011.6,1014.8,1008.2,1011.5,7.3,24.3,5.5,13.6,110,95.6,0.0,2.5,0.1,0.5,11.5,22,98,0,58.0,24.1,24.1,15.1,23.9,10
CT_CC,Huyện Cờ Đỏ - Cần Thơ,Cần Thơ,Cờ Đỏ,10.1,105.4333,2026-03-11 14:01:22,openmeteo,high,2026-03-11T21:00,,25.5,33.7,22.6,27.1,86,93,41,73.3,1011.2,1015.2,1007.7,1011.5,7.0,20.1,1.0,9.1,168,98.2,0.0,2.6,0.1,0.3,8.1,28,93,0,56.9,24.1,24.1,16.4,24.1,15
CT_PT,Huyện Phong Điền - Cần Thơ,Cần Thơ,Phong Điền,10.25,105.6667,2026-03-11 14:01:23,openmeteo,high,2026-03-11T21:00,,25.7,34.1,22.8,27.4,84,93,40,70.9,1011.2,1015.2,1007.7,1011.5,8.1,20.8,1.6,9.6,148,98.9,0.0,1.8,0.1,0.2,4.9,32,97,2,58.2,24.1,24.1,24.1,24.1,5
CT_TN,Huyện Thới Lai - Cần Thơ,Cần Thơ,Thới Lai,10.0667,105.55,2026-03-11 14:01:23,openmeteo,high,2026-03-11T21:00,,25.4,33.7,22.6,27.0,86,93,41,73.3,1011.2,1015.2,1007.7,1011.5,7.0,20.1,1.0,9.1,168,98.2,0.0,2.6,0.1,0.3,8.1,28,93,0,56.9,24.1,24.1,16.4,24.1,15
CT_VT,Huyện Vĩnh Thạnh - Cần Thơ,Cần Thơ,Vĩnh Thạnh,10.2167,105.4,2026-03-11 14:01:22,openmeteo,high,2026-03-11T21:00,,25.8,34.1,22.7,27.3,83,93,40,71.9,1011.2,1015.3,1007.7,1011.4,7.6,17.6,1.4,8.1,180,97.6,0.0,1.7,0.1,0.2,4.5,41,94,2,58.8,24.1,24.1,24.1,24.1,5
CT_BT,Quận Bình Thủy - Cần Thơ,Cần Thơ,Bình Thủy,10.0816,105.7378,2026-03-11 14:01:21,openmeteo,high,2026-03-11T21:00,,26.1,33.7,23.1,27.5,77,93,42,70.1,1011.3,1015.1,1007.8,1011.5,10.7,21.1,0.5,10.3,130,98.8,0.0,1.2,0.1,0.1,2.8,30,100,5,57.8,24.1,24.1,20.0,24.1,5
CT_CR,Quận Cái Răng - Cần Thơ,Cần Thơ,Cái Răng,10.0,105.7667,2026-03-11 14:01:21,openmeteo,high,2026-03-11T21:00,,25.6,33.4,23.0,27.3,83,93,43,71.3,1011.3,1015.1,1007.9,1011.5,9.2,21.7,2.1,10.7,132,97.2,0.0,1.6,0.1,0.3,6.1,31,100,0,58.6,24.1,24.1,20.0,24.1,5
CT_NK,Quận Ninh Kiều - Cần Thơ,Cần Thơ,Ninh Kiều,10.0452,105.7469,2026-03-11 14:01:21,openmeteo,high,2026-03-11T21:00,,25.6,33.4,23.0,27.3,83,93,43,71.3,1011.3,1015.1,1007.9,1011.5,9.2,21.7,2.1,10.7,132,97.2,0.0,1.6,0.1,0.3,6.1,31,100,0,58.6,24.1,24.1,20.0,24.1,5
CT_TL,Quận Thốt Nốt - Cần Thơ,Cần Thơ,Thốt Nốt,10.2667,105.5333,2026-03-11 14:01:22,openmeteo,high,2026-03-11T21:00,,25.7,34.1,22.5,27.3,84,93,40,71.7,1011.2,1015.3,1007.7,1011.4,7.4,20.2,1.5,8.8,166,100.2,0.0,2.2,0.1,0.3,6.2,29,95,7,58.0,24.1,24.1,24.1,24.1,5
CT_OT,Quận Ô Môn - Cần Thơ,Cần Thơ,Ô Môn,10.1167,105.6333,2026-03-11 14:01:21,openmeteo,high,2026-03-11T21:00,,25.5,33.9,22.8,27.3,86,93,40,71.7,1011.2,1015.1,1007.8,1011.5,8.3,21.5,1.1,9.9,146,99.5,0.0,2.3,0.1,0.3,6.7,29,100,0,59.1,24.1,24.1,20.0,24.1,15
GL_CP,Huyện Chư Prông - Gia Lai,Gia Lai,Chư Prông,13.5833,107.8333,2026-03-11 14:01:39,openmeteo,high,2026-03-11T21:00,,23.0,33.9,19.5,25.4,70,84,32,60.7,1013.3,1017.4,1008.7,1013.6,19.1,26.9,4.0,15.9,87,84.2,0.0,0.0,0.0,0.0,0.0,27,92,0,25.1,24.1,24.1,24.1,24.1,0
GL_CH,Huyện Chư Păh - Gia Lai,Gia Lai,Chư Păh,14.1667,107.9333,2026-03-11 14:01:39,openmeteo,high,2026-03-11T21:00,,19.9,29.8,17.6,22.0,71,84,33,63.0,1014.8,1018.6,1009.6,1014.7,9.9,20.7,4.1,11.0,46,48.2,0.0,0.0,0.0,0.0,0.0,41,88,0,45.6,24.1,24.1,24.1,24.1,0
GL_CS,Huyện Chư Sê - Gia Lai,Gia Lai,Chư Sê,13.75,108.0833,2026-03-11 14:01:40,openmeteo,high,2026-03-11T21:00,,19.6,29.6,17.5,21.8,78,85,39,67.4,1014.7,1018.4,1010.3,1014.8,15.6,28.6,6.8,17.0,75,73.2,0.0,0.0,0.0,0.0,0.0,33,91,0,30.1,24.1,24.1,24.1,24.1,0
GL_IA,Huyện Ia Grai - Gia Lai,Gia Lai,Ia Grai,13.9833,107.75,2026-03-11 14:01:40,openmeteo,high,2026-03-11T21:00,,24.3,34.7,19.2,26.0,64,84,30,58.0,1013.0,1017.5,1008.3,1013.3,8.0,18.0,2.2,7.6,85,87.8,0.0,0.0,0.0,0.0,0.0,23,86,0,34.5,24.1,24.1,24.1,24.1,0
GL_KB,Huyện KBang - Gia Lai,Gia Lai,KBang,14.35,108.5,2026-03-11 14:01:41,openmeteo,high,2026-03-11T21:00,,17.2,25.7,14.9,18.7,88,97,51,80.7,1017.3,1020.5,1012.5,1017.2,9.3,23.5,3.5,12.0,54,55.6,0.0,0.0,0.0,0.0,0.0,86,100,37,69.1,21.3,24.1,0.1,18.8,10
GL_KR,Huyện Krông Pa - Gia Lai,Gia Lai,Krông Pa,13.2167,108.6667,2026-03-11 14:01:42,openmeteo,high,2026-03-11T21:00,,20.0,29.5,18.6,22.1,84,91,45,75.3,1015.5,1019.0,1011.0,1015.5,7.7,23.4,4.7,10.7,101,86.1,0.0,0.1,0.1,0.0,0.1,50,100,13,69.6,24.1,24.1,22.8,24.1,0
GL_KN,Huyện Kông Chro - Gia Lai,Gia Lai,Kông Chro,13.7167,108.5167,2026-03-11 14:01:42,openmeteo,high,2026-03-11T21:00,,20.5,30.4,19.2,22.8,77,82,39,67.8,1014.8,1018.3,1010.4,1014.9,15.5,27.7,8.4,16.7,68,68.7,0.0,0.0,0.0,0.0,0.0,42,91,7,43.5,24.1,24.1,9.1,24.0,0
GL_MY,Huyện Mang Yang - Gia Lai,Gia Lai,Mang Yang,13.9833,108.25,2026-03-11 14:01:42,openmeteo,high,2026-03-11T21:00,,20.3,30.4,17.4,22.4,77,86,39,67.3,1015.1,1018.6,1010.6,1015.1,9.2,24.4,3.6,12.1,64,62.9,0.0,0.0,0.0,0.0,0.0,51,91,0,34.2,24.1,24.1,7.8,23.6,0
GL_PG,Huyện Phú Thiện - Gia Lai,Gia Lai,Phú Thiện,13.5333,108.3,2026-03-11 14:01:42,openmeteo,high,2026-03-11T21:00,,22.1,33.3,20.5,24.5,76,84,33,64.9,1014.2,1017.7,1009.1,1014.2,22.6,31.8,14.6,22.4,73,73.1,0.0,0.0,0.0,0.0,0.0,6,85,0,37.6,24.1,24.1,19.5,24.0,0
GL_DP,Huyện Đăk Pơ - Gia Lai,Gia Lai,Đăk Pơ,14.0,108.5,2026-03-11 14:01:41,openmeteo,high,2026-03-11T21:00,,18.8,27.5,17.7,20.7,83,88,46,74.2,1015.9,1019.1,1011.5,1015.9,14.7,27.3,9.3,16.8,54,58.2,0.0,0.0,0.0,0.0,0.0,65,90,31,60.0,24.1,24.1,6.3,23.5,0
GL_DC,Huyện Đăk Đoa - Gia Lai,Gia Lai,Đăk Đoa,14.1167,108.1167,2026-03-11 14:01:40,openmeteo,high,2026-03-11T21:00,,20.4,30.2,17.7,22.4,72,81,35,64.3,1015.1,1018.7,1010.2,1015.1,10.1,22.7,3.5,11.8,55,55.1,0.0,0.0,0.0,0.0,0.0,56,97,0,42.6,24.1,24.1,24.1,24.1,0
GL_DA,Huyện Đức Cơ - Gia Lai,Gia Lai,Đức Cơ,13.7833,107.6667,2026-03-11 14:01:41,openmeteo,high,2026-03-11T21:00,,24.0,35.0,18.0,25.9,66,91,29,58.7,1012.8,1017.2,1008.0,1013.1,11.6,19.4,2.6,8.9,106,106.4,0.0,0.1,0.1,0.0,0.1,24,86,0,29.8,24.1,24.1,24.1,24.1,0
GL_PC,Thành phố Pleiku - Gia Lai,Gia Lai,Pleiku,13.9833,108.0,2026-03-11 14:01:39,openmeteo,high,2026-03-11T21:00,,20.6,30.7,18.4,22.9,72,79,34,61.4,1014.4,1018.2,1009.7,1014.5,15.6,25.1,7.0,15.4,64,65.1,0.0,0.0,0.0,0.0,0.0,35,90,0,27.9,24.1,24.1,24.1,24.1,0
GL_AD,Thị xã An Khê - Gia Lai,Gia Lai,An Khê,14.0,108.6833,2026-03-11 14:01:39,openmeteo,high,2026-03-11T21:00,,19.6,28.6,17.8,21.6,83,88,42,73.1,1016.1,1019.3,1011.6,1016.0,11.2,27.3,5.4,14.9,48,50.6,0.0,0.0,0.0,0.0,0.0,73,91,25,59.3,24.1,24.1,0.5,23.6,0
GL_AY,Thị xã Ayun Pa - Gia Lai,Gia Lai,Ayun Pa,13.3833,108.4333,2026-03-11 14:01:39,openmeteo,high,2026-03-11T21:00,,22.9,33.7,21.0,25.1,74,87,33,66.3,1014.5,1018.1,1009.3,1014.6,12.6,24.0,5.0,14.1,63,68.2,0.0,0.0,0.0,0.0,0.0,43,98,0,54.8,24.1,24.1,24.1,24.1,0
HG_MK,Huyện Mèo Vạc - Hà Giang,Hà Giang,Mèo Vạc,23.1528,105.4069,2026-03-11 14:02:43,openmeteo,high,2026-03-11T21:00,,12.4,19.2,10.0,13.2,90,100,67,85.2,1019.6,1023.7,1011.1,1018.6,2.2,10.7,0.5,4.7,90,133.4,0.0,0.1,0.1,0.1,2.1,98,100,63,92.9,24.1,24.1,0.1,19.8,10
HG_DV,Huyện Đồng Văn - Hà Giang,Hà Giang,Đồng Văn,23.2547,105.25,2026-03-11 14:02:42,openmeteo,high,2026-03-11T21:00,,11.3,16.9,9.0,11.7,93,100,75,89.5,1019.9,1023.9,1012.1,1019.1,4.6,19.5,2.5,8.7,135,175.3,0.0,0.5,0.1,0.1,1.8,96,100,58,92.8,24.1,24.1,0.0,16.9,10
HG_HG,Thành phố Hà Giang - Hà Giang,Hà Giang,Hà Giang,22.8233,104.9836,2026-03-11 14:02:42,openmeteo,high,2026-03-11T21:00,,16.1,21.8,15.0,17.1,93,99,68,89.8,1019.8,1023.4,1011.5,1018.7,1.1,11.7,0.0,6.0,180,145.6,0.0,0.3,0.1,0.1,2.1,100,100,67,94.2,24.1,24.1,0.5,23.0,10
HNA_DT,Huyện Duy Tiên - Hà Nam,Hà Nam,Duy Tiên,20.6333,105.9667,2026-03-11 14:02:44,openmeteo,high,2026-03-11T21:00,,19.3,27.5,16.2,21.0,82,99,50,81.2,1018.3,1022.3,1010.9,1018.0,8.0,18.6,0.4,6.4,126,129.2,0.0,0.2,0.1,0.1,1.6,100,100,7,84.4,24.1,24.1,17.1,24.0,0
HNA_KB,Huyện Kim Bảng - Hà Nam,Hà Nam,Kim Bảng,20.5667,105.85,2026-03-11 14:02:43,openmeteo,high,2026-03-11T21:00,,19.5,27.8,16.3,21.0,82,97,49,79.8,1018.3,1022.3,1010.8,1018.0,5.9,17.4,0.4,5.5,133,133.7,0.0,0.2,0.1,0.1,1.3,100,100,10,85.3,24.1,24.1,19.2,24.0,0
HNA_PL,Thành phố Phủ Lý - Hà Nam,Hà Nam,Phủ Lý,20.5411,105.9139,2026-03-11 14:02:43,openmeteo,high,2026-03-11T21:00,,19.8,28.0,16.3,21.5,81,97,49,78.7,1018.4,1022.3,1011.0,1018.0,4.5,15.6,0.4,4.6,151,142.3,0.0,0.1,0.1,0.0,0.8,100,100,19,84.3,24.1,24.1,21.2,24.0,0
HN_BG,Huyện Ba Vì - Hà Nội,Hà Nội,Ba Vì,21.1992,105.4239,2026-03-11 14:00:58,openmeteo,high,2026-03-11T21:00,,21.0,28.0,16.7,21.3,79,97,55,79.9,1018.2,1022.6,1010.1,1017.7,0.8,15.5,0.0,7.8,207,115.9,0.0,0.3,0.1,0.1,1.5,100,100,43,87.3,24.1,24.1,21.4,24.0,0
HN_CM,Huyện Chương Mỹ - Hà Nội,Hà Nội,Chương Mỹ,20.8964,105.7039,2026-03-11 14:01:02,statistical,medium,2026-03-11T14:01:02.811951,,33.0,34.0,24.0,29.2,86,90,73,81.5,1008.0,1020.0,1006.0,1011.4,4.3,5.9,1.8,3.6,283,85.2,0.0,6.7,0.4,0.8,20.2,76,77,51,65.2,12.1,14.5,9.3,11.9,20
HN_GL,Huyện Gia Lâm - Hà Nội,Hà Nội,Gia Lâm,21.0408,105.95,2026-03-11 14:00:56,openmeteo,high,2026-03-11T21:00,,20.5,27.7,16.2,21.3,78,96,46,78.5,1018.3,1022.4,1010.8,1017.9,11.5,16.6,0.0,7.4,122,126.3,0.0,0.1,0.1,0.0,0.7,100,100,6,83.8,24.1,24.1,19.2,24.0,0
HN_HĐ,Huyện Hoài Đức - Hà Nội,Hà Nội,Hoài Đức,21.0392,105.7108,2026-03-11 14:00:58,statistical,medium,2026-03-11T14:00:58.615257,,29.0,31.3,21.7,25.9,85,90,75,82.4,1020.0,1020.0,1005.0,1012.9,2.6,6.0,1.1,3.7,343,133.1,4.2,7.7,0.4,1.1,27.3,68,81,53,66.8,10.3,13.7,9.6,12.0,10
HN_MT,Huyện Mê Linh - Hà Nội,Hà Nội,Mê Linh,21.1753,105.7219,2026-03-11 14:00:56,openmeteo,high,2026-03-11T21:00,,21.0,28.2,16.1,21.2,79,98,51,79.9,1018.1,1022.5,1010.3,1017.8,0.7,18.3,0.7,9.0,90,123.3,0.0,0.2,0.1,0.0,1.1,100,100,33,85.0,24.1,24.1,19.7,24.0,0
HN_MD,Huyện Mỹ Đức - Hà Nội,Hà Nội,Mỹ Đức,20.6472,105.7194,2026-03-11 14:00:52,openmeteo,high,2026-03-11T21:00,,19.0,26.8,14.5,19.9,81,98,53,80.5,1018.5,1022.6,1011.0,1018.2,3.3,15.9,0.4,5.4,139,137.7,0.0,0.2,0.1,0.1,1.7,100,100,44,88.0,24.1,24.1,22.6,24.1,0
HN_ML,Huyện Mỹ Đức - Hà Nội,Hà Nội,Mỹ Đức,20.6472,105.7194,2026-03-11 14:00:59,openmeteo,high,2026-03-11T21:00,,19.0,26.8,14.5,19.9,81,98,53,80.5,1018.5,1022.6,1011.0,1018.2,3.3,15.9,0.4,5.4,139,137.7,0.0,0.2,0.1,0.1,1.7,100,100,44,88.0,24.1,24.1,22.6,24.1,0
HN_PX,Huyện Phú Xuyên - Hà Nội,Hà Nội,Phú Xuyên,20.7392,105.9139,2026-03-11 14:00:54,openmeteo,high,2026-03-11T21:00,,19.8,27.8,15.8,21.0,83,98,50,80.8,1018.2,1022.4,1010.6,1017.9,8.4,18.7,0.4,7.0,121,140.5,0.0,0.2,0.1,0.1,1.3,100,100,34,84.8,24.1,24.1,17.1,24.0,0
HN_PH,Huyện Phú Xuyên - Hà Nội,Hà Nội,Phú Xuyên,20.7392,105.9139,2026-03-11 14:01:00,openmeteo,high,2026-03-11T21:00,,19.8,27.8,15.8,21.0,83,98,50,80.8,1018.2,1022.4,1010.6,1017.9,8.4,18.7,0.4,7.0,121,140.5,0.0,0.2,0.1,0.1,1.3,100,100,34,84.8,24.1,24.1,17.1,24.0,0
HN_PT,Huyện Phúc Thọ - Hà Nội,Hà Nội,Phúc Thọ,21.1031,105.5514,2026-03-11 14:01:00,openmeteo,high,2026-03-11T21:00,,20.0,27.9,16.3,20.9,84,96,55,79.9,1018.2,1022.6,1010.2,1017.8,1.5,18.1,0.4,7.6,194,119.7,0.0,0.3,0.1,0.1,2.2,100,100,45,87.9,24.1,24.1,15.0,24.0,0
HN_QO,Huyện Quốc Oai - Hà Nội,Hà Nội,Quốc Oai,20.9956,105.6119,2026-03-11 14:00:41,openmeteo,high,2026-03-11T21:00,,19.6,27.9,15.3,20.5,82,98,53,80.1,1018.3,1022.6,1010.4,1017.9,1.4,18.1,0.8,7.4,180,121.9,0.0,0.5,0.1,0.1,3.0,100,100,41,88.1,24.1,24.1,15.0,24.0,0
HN_SL,Huyện Sóc Sơn - Hà Nội,Hà Nội,Sóc Sơn,21.2578,105.8489,2026-03-11 14:00:53,openmeteo,high,2026-03-11T21:00,,20.8,27.7,16.0,21.2,77,95,47,78.4,1018.1,1022.5,1010.7,1017.9,4.1,16.1,0.4,7.4,105,120.0,0.0,0.1,0.1,0.0,0.9,100,100,44,85.4,24.1,24.1,19.7,24.0,0
HN_TO,Huyện Thanh Oai - Hà Nội,Hà Nội,Thanh Oai,20.8556,105.7722,2026-03-11 14:00:43,openmeteo,high,2026-03-11T21:00,,20.5,28.5,15.9,21.1,79,97,50,78.9,1018.2,1022.5,1010.4,1017.9,2.4,17.9,1.1,7.0,153,130.3,0.0,0.3,0.1,0.1,1.5,100,100,34,85.6,24.1,24.1,22.6,24.1,0
HN_TT2,Huyện Thường Tín - Hà Nội,Hà Nội,Thường Tín,20.87,105.8583,2026-03-11 14:00:51,openmeteo,high,2026-03-11T21:00,,20.3,28.2,15.9,21.3,81,98,47,79.4,1018.2,1022.4,1010.6,1017.9,8.9,18.3,0.0,7.4,122,135.3,0.0,0.2,0.1,0.1,1.3,100,100,30,85.0,24.1,24.1,22.6,24.1,0
HN_TT,Huyện Thạch Thất - Hà Nội,Hà Nội,Thạch Thất,21.0278,105.5564,2026-03-11 14:00:44,openmeteo,high,2026-03-11T21:00,,20.8,29.3,16.3,21.6,80,95,54,78.9,1018.3,1022.6,1010.3,1017.9,1.0,15.2,0.4,6.0,225,117.0,0.0,0.3,0.1,0.0,0.4,100,100,0,86.1,24.1,24.1,15.0,24.0,0
HN_DP,Huyện Đan Phượng - Hà Nội,Hà Nội,Đan Phượng,21.1394,105.6736,2026-03-11 14:00:38,openmeteo,high,2026-03-11T21:00,,21.0,28.3,16.1,21.3,79,98,51,79.9,1018.1,1022.5,1010.3,1017.8,0.7,18.3,0.7,9.0,90,123.3,0.0,0.2,0.1,0.0,1.1,100,100,33,85.0,24.1,24.1,19.7,24.0,0
HN_DH,Huyện Đông Anh - Hà Nội,Hà Nội,Đông Anh,21.1467,105.8464,2026-03-11 14:00:54,openmeteo,high,2026-03-11T21:00,,20.8,27.8,16.3,21.3,81,95,49,78.9,1018.1,1022.4,1010.6,1017.9,7.1,16.9,0.8,8.0,114,123.0,0.0,0.2,0.1,0.0,0.9,100,100,44,84.6,24.1,24.1,19.7,24.0,0
HN_UH,Huyện Ứng Hòa - Hà Nội,Hà Nội,Ứng Hòa,20.7292,105.8236,2026-03-11 14:00:59,statistical,medium,2026-03-11T14:00:59.765417,,31.3,33.0,23.4,28.2,89,90,71,81.2,1018.0,1020.0,1005.0,1012.8,3.6,5.9,1.3,4.0,228,182.2,0.0,7.9,1.4,1.6,38.4,63,80,55,65.9,10.4,14.7,9.1,12.2,20
HN_BD,Quận Ba Đình - Hà Nội,Hà Nội,Ba Đình,21.0338,105.8142,2026-03-11 14:00:28,statistical,medium,2026-03-11T14:00:28.148979,,26.0,27.6,17.7,22.4,90,88,75,81.8,1016.0,1020.0,1005.0,1011.7,3.2,5.5,1.1,2.9,57,101.2,0.0,6.0,1.1,1.1,25.6,80,75,54,63.8,9.8,13.9,9.7,11.9,15
HN_BTL,Quận Bắc Từ Liêm - Hà Nội,Hà Nội,Bắc Từ Liêm,21.0772,105.773,2026-03-11 14:00:34,openmeteo,high,2026-03-11T21:00,,20.9,28.2,16.0,21.2,79,98,51,79.9,1018.1,1022.5,1010.3,1017.8,0.7,18.3,0.7,9.0,90,123.3,0.0,0.2,0.1,0.0,1.1,100,100,33,85.0,24.1,24.1,21.6,24.1,0
HN_CG,Quận Cầu Giấy - Hà Nội,Hà Nội,Cầu Giấy,21.0301,105.8022,2026-03-11 14:00:34,statistical,medium,2026-03-11T14:00:34.648140,,28.6,29.8,19.9,25.0,81,90,76,83.8,1016.0,1020.0,1005.0,1012.5,2.4,5.4,1.8,3.2,353,205.3,0.0,5.4,0.8,0.7,16.7,62,80,52,66.0,10.8,13.7,8.8,11.8,5
HN_HBT,Quận Hai Bà Trưng - Hà Nội,Hà Nội,Hai Bà Trưng,21.0091,105.8606,2026-03-11 14:00:28,statistical,medium,2026-03-11T14:00:28.227327,,26.9,29.0,19.8,23.8,79,90,75,83.1,1017.0,1020.0,1006.0,1012.4,1.4,5.8,1.2,3.2,222,232.3,0.0,6.6,0.3,0.8,19.1,65,75,55,66.2,13.5,13.5,9.3,11.4,5
HN_HK,Quận Hoàn Kiếm - Hà Nội,Hà Nội,Hoàn Kiếm,21.0285,105.8542,2026-03-11 14:00:28,statistical,medium,2026-03-11T14:00:28.415929,,28.3,29.7,19.6,24.5,87,90,75,82.8,1011.0,1020.0,1005.0,1012.3,5.4,5.2,1.1,2.9,107,340.8,3.1,5.9,2.3,1.2,28.5,65,75,51,65.7,12.0,14.4,9.3,11.7,20
HN_HM,Quận Hoàng Mai - Hà Nội,Hà Nội,Hoàng Mai,20.9837,105.8636,2026-03-11 14:00:40,statistical,medium,2026-03-11T14:00:40.141984,,28.2,28.0,20.7,25.6,75,89,70,79.6,1010.0,1019.0,1005.0,1011.0,5.2,5.9,1.2,3.7,206,173.3,0.0,7.9,1.7,1.7,40.6,63,79,48,64.3,12.3,15.2,9.2,11.9,5
HN_HD,Quận Hà Đông - Hà Nội,Hà Nội,Hà Đông,20.9714,105.7788,2026-03-11 14:00:36,openmeteo,high,2026-03-11T21:00,,20.7,28.2,16.0,21.3,78,98,49,79.2,1018.1,1022.5,1010.4,1017.8,4.6,17.7,0.7,7.7,129,130.7,0.0,0.2,0.1,0.1,1.6,100,100,31,85.5,24.1,24.1,21.6,24.1,0
HN_LB,Quận Long Biên - Hà Nội,Hà Nội,Long Biên,21.054,105.8959,2026-03-11 14:00:32,openmeteo,high,2026-03-11T21:00,,20.7,28.3,16.1,21.3,78,98,49,79.2,1018.1,1022.5,1010.4,1017.8,4.6,17.7,0.7,7.7,129,130.7,0.0,0.2,0.1,0.1,1.6,100,100,31,85.5,24.1,24.1,19.2,24.0,0
HN_NTL,Quận Nam Từ Liêm - Hà Nội,Hà Nội,Nam Từ Liêm,21.0113,105.7547,2026-03-11 14:00:40,statistical,medium,2026-03-11T14:00:40.173214,,30.0,31.6,22.1,25.9,88,89,75,80.6,1010.0,1018.0,1006.0,1012.5,4.2,5.8,1.3,3.5,179,111.3,0.0,7.1,1.2,2.0,49.0,68,76,52,64.9,12.7,14.5,9.9,12.3,15
HN_TX,Quận Thanh Xuân - Hà Nội,Hà Nội,Thanh Xuân,21.001,105.8093,2026-03-11 14:00:40,statistical,medium,2026-03-11T14:00:40.126031,,28.5,29.6,19.7,24.1,79,90,76,83.0,1013.0,1020.0,1005.0,1012.8,3.1,5.6,1.5,3.8,344,183.0,0.0,6.5,1.3,1.3,32.0,61,78,54,65.7,13.5,14.4,9.0,11.8,5
HN_DD,Quận Đống Đa - Hà Nội,Hà Nội,Đống Đa,21.019,105.8315,2026-03-11 14:00:27,statistical,medium,2026-03-11T14:00:27.797420,,29.0,30.2,21.5,25.7,79,89,75,83.2,1009.0,1019.0,1005.0,1012.7,4.5,5.8,1.1,3.4,57,214.9,1.7,6.2,1.7,0.7,16.5,59,77,55,65.5,14.0,14.0,9.7,12.1,10
HN_ST,Thị xã Sơn Tây - Hà Nội,Hà Nội,Sơn Tây,21.1376,105.507,2026-03-11 14:00:46,statistical,medium,2026-03-11T14:00:46.745535,,27.9,30.2,20.2,24.7,76,90,76,83.3,1007.0,1020.0,1005.0,1012.3,3.9,5.9,1.1,3.8,197,77.2,0.0,6.9,0.2,1.7,41.1,61,79,52,65.9,12.1,14.3,9.2,11.6,5
HT_HT,Thành phố Hà Tĩnh - Hà Tĩnh,Hà Tĩnh,Hà Tĩnh,18.3333,105.9,2026-03-11 14:02:19,openmeteo,high,2026-03-11T21:00,,19.8,27.6,17.9,21.1,90,100,65,85.9,1018.2,1021.4,1011.6,1017.6,2.6,13.5,0.5,5.4,304,345.8,0.0,0.3,0.1,0.1,2.6,97,100,8,80.2,23.4,24.1,10.9,23.2,10
HT_HK,Thị xã Hồng Lĩnh - Hà Tĩnh,Hà Tĩnh,Hồng Lĩnh,18.5333,105.7167,2026-03-11 14:02:20,openmeteo,high,2026-03-11T21:00,,19.7,27.8,17.8,20.9,84,99,61,84.1,1018.3,1021.4,1011.5,1017.7,1.8,12.6,0.4,4.8,307,7.6,0.0,0.1,0.1,0.0,0.4,93,100,0,78.1,23.7,24.1,13.2,23.8,0
HT_KL,Thị xã Kỳ Anh - Hà Tĩnh,Hà Tĩnh,Kỳ Anh,18.0833,106.3,2026-03-11 14:02:20,openmeteo,high,2026-03-11T21:00,,20.2,27.5,17.6,21.1,89,100,65,85.5,1018.0,1021.1,1011.6,1017.5,2.9,12.8,0.7,5.5,353,336.7,0.0,0.3,0.1,0.1,3.2,100,100,16,83.5,22.8,24.1,7.2,22.3,10
HB_KB,Huyện Kim Bôi - Hòa Bình,Hòa Bình,Kim Bôi,20.6667,105.5333,2026-03-11 14:02:29,openmeteo,high,2026-03-11T21:00,,18.7,26.8,15.5,19.7,88,100,50,82.9,1018.7,1022.7,1011.1,1018.3,2.6,13.4,0.8,5.5,124,139.9,0.0,0.1,0.1,0.1,1.3,100,100,48,90.3,24.1,24.1,22.8,24.1,10
HB_ML,Huyện Mai Châu - Hòa Bình,Hòa Bình,Mai Châu,20.6667,105.0833,2026-03-11 14:02:29,openmeteo,high,2026-03-11T21:00,,21.1,30.2,17.2,22.5,86,97,45,80.6,1018.6,1022.8,1010.6,1018.2,3.3,11.2,0.0,4.4,84,119.2,0.0,0.1,0.1,0.0,0.2,99,100,53,86.7,24.1,24.1,21.1,24.1,10
HB_HB,Thành phố Hòa Bình - Hòa Bình,Hòa Bình,Hòa Bình,20.8133,105.3383,2026-03-11 14:02:30,openmeteo,high,2026-03-11T21:00,,18.5,26.8,16.2,19.8,90,99,59,84.1,1018.8,1022.9,1010.8,1018.2,2.3,12.0,0.4,4.6,51,129.6,0.0,0.3,0.1,0.1,2.1,100,100,43,90.6,24.1,24.1,23.3,24.1,10
HY_ML,Huyện Mỹ Hào - Hưng Yên,Hưng Yên,Mỹ Hào,20.9333,106.0667,2026-03-11 14:02:38,openmeteo,high,2026-03-11T21:00,,19.3,27.6,15.6,21.0,76,97,47,79.5,1018.3,1022.4,1010.9,1018.0,10.4,17.2,0.4,6.9,124,127.2,0.0,0.3,0.1,0.1,1.9,100,100,6,84.1,24.1,24.1,19.2,24.0,0
HY_VD,Huyện Văn Lâm - Hưng Yên,Hưng Yên,Văn Lâm,20.9833,106.0333,2026-03-11 14:02:39,openmeteo,high,2026-03-11T21:00,,20.5,27.7,16.2,21.3,78,96,46,78.5,1018.3,1022.4,1010.8,1017.9,11.5,16.6,0.0,7.4,122,126.3,0.0,0.1,0.1,0.0,0.7,100,100,6,83.8,24.1,24.1,19.2,24.0,0
HY_HY,Thành phố Hưng Yên - Hưng Yên,Hưng Yên,Hưng Yên,20.6461,106.0511,2026-03-11 14:02:38,openmeteo,high,2026-03-11T21:00,,19.2,27.4,16.1,20.9,82,99,50,81.2,1018.3,1022.3,1010.9,1018.0,8.0,18.6,0.4,6.4,126,129.2,0.0,0.2,0.1,0.1,1.6,100,100,7,84.4,24.1,24.1,17.1,24.0,0
HD_CM,Huyện Cẩm Giàng - Hải Dương,Hải Dương,Cẩm Giàng,20.95,106.2167,2026-03-11 14:02:38,openmeteo,high,2026-03-11T21:00,,19.4,27.1,15.5,21.1,75,96,45,79.5,1018.4,1022.5,1011.2,1018.0,10.4,16.3,0.5,6.7,134,125.1,0.0,0.2,0.1,0.1,1.3,100,100,3,83.9,24.1,24.1,19.3,24.0,0
HD_HD,Thành phố Hải Dương - Hải Dương,Hải Dương,Hải Dương,20.9397,106.3308,2026-03-11 14:02:37,openmeteo,high,2026-03-11T21:00,,19.0,26.7,15.3,21.0,80,97,44,79.2,1018.5,1022.4,1011.5,1018.0,8.1,18.9,0.7,7.1,135,119.2,0.0,0.2,0.1,0.0,1.2,100,100,4,80.5,24.1,24.1,19.3,24.0,0
HD_CL,Thị xã Kinh Môn - Hải Dương,Hải Dương,Kinh Môn,21.0167,106.5,2026-03-11 14:02:37,openmeteo,high,2026-03-11T21:00,,18.9,26.1,15.1,20.9,77,95,44,77.0,1018.6,1022.4,1011.9,1018.1,6.5,16.4,0.4,6.8,124,105.3,0.0,0.1,0.1,0.0,0.7,100,100,0,78.0,24.1,24.1,17.8,24.0,0
HP_AC,Huyện An Dương - Hải Phòng,Hải Phòng,An Dương,20.8667,106.6167,2026-03-11 14:01:17,openmeteo,high,2026-03-11T21:00,,18.5,25.7,15.9,20.9,79,97,51,77.3,1018.7,1022.2,1012.2,1018.1,5.7,19.6,0.5,8.0,108,94.2,0.0,0.2,0.1,0.1,1.5,100,100,0,72.1,24.1,24.1,18.5,24.0,0
HP_AL,Huyện An Lão - Hải Phòng,Hải Phòng,An Lão,20.8167,106.55,2026-03-11 14:01:17,openmeteo,high,2026-03-11T21:00,,18.5,26.0,15.4,20.7,81,98,47,79.8,1018.5,1022.3,1011.8,1018.0,8.2,19.7,0.4,8.3,119,102.4,0.0,0.2,0.1,0.1,1.6,100,100,0,77.2,24.1,24.1,18.5,24.0,0
HP_BH,Huyện Bạch Long Vĩ - Hải Phòng,Hải Phòng,Bạch Long Vĩ,20.1333,107.7333,2026-03-11 14:01:18,openmeteo,high,2026-03-11T21:00,,20.4,22.6,19.1,21.3,76,93,72,82.7,1018.4,1021.4,1012.9,1017.9,16.5,38.5,1.8,20.1,54,66.0,0.0,0.1,0.1,0.0,0.6,58,100,0,58.0,24.1,24.1,18.2,23.9,0
HP_CH,Huyện Cát Hải - Hải Phòng,Hải Phòng,Cát Hải,20.7264,107.0489,2026-03-11 14:01:18,openmeteo,high,2026-03-11T21:00,,18.6,24.6,15.8,20.5,74,93,54,76.9,1018.8,1022.1,1012.5,1018.2,4.3,17.3,1.5,8.4,85,85.2,0.0,0.2,0.1,0.0,0.9,99,100,0,69.3,24.1,24.1,23.3,24.1,0
HP_KL,Huyện Kiến Thụy - Hải Phòng,Hải Phòng,Kiến Thụy,20.75,106.6667,2026-03-11 14:01:17,openmeteo,high,2026-03-11T21:00,,18.7,25.4,16.1,21.0,79,96,53,78.2,1018.7,1022.1,1012.3,1018.1,5.9,19.1,0.4,8.1,101,91.6,0.0,0.3,0.1,0.1,1.5,100,100,0,73.2,24.1,24.1,24.1,24.1,0
HP_TL,Huyện Thủy Nguyên - Hải Phòng,Hải Phòng,Thủy Nguyên,20.9583,106.6667,2026-03-11 14:01:17,openmeteo,high,2026-03-11T21:00,,19.1,26.3,15.3,21.1,77,95,44,77.0,1018.6,1022.4,1011.9,1018.1,6.5,16.4,0.4,6.8,124,105.3,0.0,0.1,0.1,0.0,0.7,100,100,0,78.0,24.1,24.1,20.4,24.1,0
HP_TH,Huyện Tiên Lãng - Hải Phòng,Hải Phòng,Tiên Lãng,20.7333,106.55,2026-03-11 14:01:18,openmeteo,high,2026-03-11T21:00,,18.5,25.9,15.5,20.7,82,98,50,80.5,1018.5,1022.3,1011.9,1018.0,7.7,20.3,0.4,8.6,118,98.2,0.0,0.2,0.1,0.1,1.5,100,100,0,77.6,24.1,24.1,18.5,24.0,0
HP_VB,Huyện Vĩnh Bảo - Hải Phòng,Hải Phòng,Vĩnh Bảo,20.7,106.4667,2026-03-11 14:01:18,openmeteo,high,2026-03-11T21:00,,18.5,25.9,15.5,20.7,82,98,50,80.5,1018.5,1022.3,1011.9,1018.0,7.7,20.3,0.4,8.6,118,98.2,0.0,0.2,0.1,0.1,1.5,100,100,0,77.6,24.1,24.1,18.5,24.0,0
HP_DS,Quận Dương Kinh - Hải Phòng,Hải Phòng,Dương Kinh,20.8025,106.6669,2026-03-11 14:01:16,openmeteo,high,2026-03-11T21:00,,18.7,25.4,16.1,21.0,79,96,53,78.2,1018.7,1022.1,1012.3,1018.1,5.9,19.1,0.4,8.1,101,91.6,0.0,0.3,0.1,0.1,1.5,100,100,0,73.2,24.1,24.1,24.1,24.1,0
HP_HA,Quận Hải An - Hải Phòng,Hải Phòng,Hải An,20.8378,106.7377,2026-03-11 14:01:15,openmeteo,high,2026-03-11T21:00,,18.8,25.6,15.7,20.9,75,95,51,77.0,1018.7,1022.2,1012.3,1018.1,4.0,18.1,0.4,7.5,100,92.9,0.0,0.2,0.1,0.1,1.5,100,100,0,71.6,24.1,24.1,24.1,24.1,0
HP_KS,Quận Kiến An - Hải Phòng,Hải Phòng,Kiến An,20.8075,106.6264,2026-03-11 14:01:16,openmeteo,high,2026-03-11T21:00,,18.6,25.3,16.1,20.9,79,96,53,78.2,1018.7,1022.1,1012.3,1018.1,5.9,19.1,0.4,8.1,101,91.6,0.0,0.3,0.1,0.1,1.5,100,100,0,73.2,24.1,24.1,24.1,24.1,0
HP_LC,Quận Lê Chân - Hải Phòng,Hải Phòng,Lê Chân,20.8516,106.6822,2026-03-11 14:01:15,openmeteo,high,2026-03-11T21:00,,18.5,25.7,15.9,20.9,79,97,51,77.3,1018.7,1022.2,1012.2,1018.1,5.7,19.6,0.5,8.0,108,94.2,0.0,0.2,0.1,0.1,1.5,100,100,0,72.1,24.1,24.1,24.1,24.1,0
HP_NQ,Quận Ngô Quyền - Hải Phòng,Hải Phòng,Ngô Quyền,20.858,106.7053,2026-03-11 14:01:15,openmeteo,high,2026-03-11T21:00,,18.8,25.6,15.7,20.9,75,95,51,77.0,1018.7,1022.2,1012.3,1018.1,4.0,18.1,0.4,7.5,100,92.9,0.0,0.2,0.1,0.1,1.5,100,100,0,71.6,24.1,24.1,24.1,24.1,0
HP_DK,Quận Đồ Sơn - Hải Phòng,Hải Phòng,Đồ Sơn,20.7278,106.7733,2026-03-11 14:01:16,openmeteo,high,2026-03-11T21:00,,18.9,25.1,16.2,21.0,76,94,55,78.3,1018.7,1022.1,1012.5,1018.2,5.8,18.8,2.3,9.2,90,88.1,0.0,0.3,0.1,0.1,1.2,100,100,0,71.8,24.1,24.1,24.1,24.1,0
HP_CB,Đảo Cát Bà - Hải Phòng,Hải Phòng,Cát Hải,20.7264,107.0489,2026-03-11 14:02:47,openmeteo,high,2026-03-11T21:00,,18.6,24.6,15.8,20.5,74,93,54,76.9,1018.8,1022.1,1012.5,1018.2,4.3,17.3,1.5,8.4,85,85.2,0.0,0.2,0.1,0.0,0.9,99,100,0,69.3,24.1,24.1,23.3,24.1,0
HG_CL,Huyện Châu Thành - Hậu Giang,Hậu Giang,Châu Thành,9.9333,105.6833,2026-03-11 14:02:12,openmeteo,high,2026-03-11T21:00,,25.7,33.1,22.9,27.1,82,92,44,72.2,1011.4,1015.1,1008.0,1011.5,9.2,22.4,2.6,11.0,141,97.3,0.0,1.2,0.1,0.2,5.0,36,100,0,57.9,24.1,24.1,20.0,24.1,5
HG_CT,Huyện Châu Thành A - Hậu Giang,Hậu Giang,Châu Thành A,9.9333,105.6333,2026-03-11 14:02:11,openmeteo,high,2026-03-11T21:00,,25.7,33.1,22.9,27.1,82,92,44,72.2,1011.4,1015.1,1008.0,1011.5,9.2,22.4,2.6,11.0,141,97.3,0.0,1.2,0.1,0.2,5.0,36,100,0,57.9,24.1,24.1,20.0,24.1,5
HG_LT,Huyện Long Mỹ - Hậu Giang,Hậu Giang,Long Mỹ,9.6833,105.5667,2026-03-11 14:02:12,openmeteo,high,2026-03-11T21:00,,25.2,32.5,23.2,27.2,80,90,43,71.2,1011.6,1014.9,1007.9,1011.5,9.2,24.5,6.2,13.6,116,94.4,0.0,1.1,0.1,0.1,2.0,25,100,0,56.6,24.1,24.1,5.9,23.8,5
HG_PB,Huyện Phụng Hiệp - Hậu Giang,Hậu Giang,Phụng Hiệp,9.7833,105.7167,2026-03-11 14:02:12,openmeteo,high,2026-03-11T21:00,,25.3,32.7,23.1,27.2,78,91,45,71.2,1011.5,1014.9,1008.0,1011.5,9.0,24.2,4.5,12.7,119,95.6,0.0,0.9,0.1,0.1,2.1,31,100,5,56.6,24.1,24.1,14.8,24.0,5
HG_VT2,Huyện Vị Thủy - Hậu Giang,Hậu Giang,Vị Thủy,9.7667,105.4667,2026-03-11 14:02:12,openmeteo,high,2026-03-11T21:00,,25.8,33.2,23.0,27.2,81,92,44,71.5,1011.4,1015.0,1008.1,1011.5,9.2,23.1,3.6,11.9,138,96.1,0.0,1.3,0.1,0.2,4.3,40,100,0,58.4,24.1,24.1,5.9,23.8,5
HG_VT,Thành phố Vị Thanh - Hậu Giang,Hậu Giang,Vị Thanh,9.7833,105.4667,2026-03-11 14:02:11,openmeteo,high,2026-03-11T21:00,,25.8,33.2,23.0,27.2,81,92,44,71.5,1011.4,1015.0,1008.1,1011.5,9.2,23.1,3.6,11.9,138,96.1,0.0,1.3,0.1,0.2,4.3,40,100,0,58.4,24.1,24.1,5.9,23.8,5
HG_NM,Thị xã Ngã Bảy - Hậu Giang,Hậu Giang,Ngã Bảy,9.8167,105.8167,2026-03-11 14:02:11,openmeteo,high,2026-03-11T21:00,,25.1,32.8,23.0,27.2,80,92,44,70.8,1011.5,1015.0,1008.0,1011.5,8.7,23.8,2.6,12.1,120,96.3,0.0,0.8,0.1,0.1,2.7,35,100,0,57.5,24.1,24.1,14.8,24.0,5
KH_TS,Huyện Trường Sa - Khánh Hòa,Khánh Hòa,Trường Sa,8.65,111.9167,2026-03-11 14:02:24,openmeteo,high,2026-03-11T21:00,,26.5,27.8,25.9,26.8,83,87,67,77.6,1011.7,1014.7,1008.7,1011.5,33.2,37.5,23.8,31.2,34,48.3,0.0,0.6,0.1,0.4,10.0,62,100,1,53.1,24.1,24.1,5.3,23.0,5
KH_CT,Thành phố Cam Ranh - Khánh Hòa,Khánh Hòa,Cam Ranh,11.9,109.1333,2026-03-11 14:02:24,openmeteo,high,2026-03-11T21:00,,22.1,28.9,20.5,23.5,71,90,47,69.3,1014.8,1018.0,1011.4,1014.7,11.1,27.8,4.9,14.2,25,28.7,0.0,0.1,0.1,0.0,0.2,85,100,21,66.3,24.1,24.1,9.9,23.6,0
KH_NT,Thành phố Nha Trang - Khánh Hòa,Khánh Hòa,Nha Trang,12.25,109.1833,2026-03-11 14:02:23,openmeteo,high,2026-03-11T21:00,,22.8,31.2,20.8,24.7,82,92,47,74.6,1014.6,1018.0,1011.1,1014.7,2.1,17.4,1.1,6.9,329,343.7,0.0,0.5,0.1,0.0,0.9,58,98,0,60.7,24.1,24.1,7.8,23.1,0
KH_NH,Thị xã Ninh Hòa - Khánh Hòa,Khánh Hòa,Ninh Hòa,12.5,109.15,2026-03-11 14:02:24,openmeteo,high,2026-03-11T21:00,,23.3,30.1,20.4,24.2,82,95,46,79.2,1014.7,1018.0,1011.1,1014.7,1.9,17.9,0.4,6.2,292,169.6,0.0,1.7,0.1,0.4,9.6,45,100,15,72.9,24.1,24.1,9.0,23.1,0
KH_HS,Đảo Hoàng Sa - Khánh Hòa,Khánh Hòa,Hoàng Sa,16.5322,111.6156,2026-03-11 14:02:49,openmeteo,high,2026-03-11T22:00,,24.4,26.0,23.4,24.7,71,84,62,72.0,1015.8,1018.9,1012.5,1015.8,36.1,45.1,8.4,30.7,39,55.8,0.0,0.5,0.1,0.3,6.5,49,94,4,58.0,24.1,24.1,8.5,23.4,0
KH_TS,Đảo Trường Sa - Khánh Hòa,Khánh Hòa,Trường Sa,8.65,111.9167,2026-03-11 14:02:48,openmeteo,high,2026-03-11T21:00,,26.5,27.8,25.9,26.8,83,87,67,77.6,1011.7,1014.7,1008.7,1011.5,33.2,37.5,23.8,31.2,34,48.3,0.0,0.6,0.1,0.4,10.0,62,100,1,53.1,24.1,24.1,5.3,23.0,5
KG_AT,Huyện An Biên - Kiên Giang,Kiên Giang,An Biên,9.8167,105.0667,2026-03-11 14:01:56,openmeteo,high,2026-03-11T21:00,,26.6,31.7,25.0,27.3,82,87,51,75.6,1011.3,1015.1,1008.0,1011.5,13.8,23.9,2.1,14.2,173,90.6,0.0,2.1,0.1,0.2,5.5,33,85,0,46.5,24.1,24.1,3.4,23.9,5
KG_AM,Huyện An Minh - Kiên Giang,Kiên Giang,An Minh,9.6667,104.95,2026-03-11 14:01:57,openmeteo,high,2026-03-11T21:00,,26.4,32.0,24.3,27.1,83,90,50,76.7,1011.3,1014.9,1008.3,1011.5,15.6,27.2,1.8,14.6,165,94.3,0.0,1.9,0.1,0.6,13.8,32,100,0,52.7,24.1,24.1,3.4,23.9,5
KG_CL,Huyện Châu Thành - Kiên Giang,Kiên Giang,Châu Thành,9.9333,105.1667,2026-03-11 14:01:58,openmeteo,high,2026-03-11T21:00,,26.6,31.8,25.0,27.3,82,87,51,75.6,1011.3,1015.1,1008.0,1011.5,13.8,23.9,2.1,14.2,173,90.6,0.0,2.1,0.1,0.2,5.5,33,85,0,46.5,24.1,24.1,8.2,23.9,5
KG_GT,Huyện Giang Thành - Kiên Giang,Kiên Giang,Giang Thành,10.4833,104.6333,2026-03-11 14:01:57,openmeteo,high,2026-03-11T21:00,,26.7,34.3,23.4,28.1,82,95,41,70.5,1010.8,1015.3,1007.7,1011.5,6.1,15.8,0.5,6.5,208,99.1,0.0,0.2,0.1,0.0,0.5,35,92,7,60.3,24.1,24.1,3.0,23.0,5
KG_GD,Huyện Gò Quao - Kiên Giang,Kiên Giang,Gò Quao,9.7333,105.2667,2026-03-11 14:01:58,openmeteo,high,2026-03-11T21:00,,25.4,33.7,23.0,27.3,87,92,43,72.6,1011.2,1015.0,1007.9,1011.4,7.9,21.6,2.2,11.0,164,95.7,0.0,2.0,0.1,0.4,9.1,36,100,16,56.9,24.1,24.1,11.5,23.9,15
KG_HG,Huyện Hòn Đất - Kiên Giang,Kiên Giang,Hòn Đất,10.2333,104.9333,2026-03-11 14:01:58,openmeteo,high,2026-03-11T21:00,,27.9,31.8,24.9,27.8,78,86,52,73.2,1011.1,1015.2,1008.0,1011.5,12.7,19.1,2.8,10.5,172,116.9,0.0,0.7,0.1,0.2,4.8,68,84,0,57.7,24.1,24.1,2.4,23.8,5
KG_KT,Huyện Kiên Hải - Kiên Giang,Kiên Giang,Kiên Hải,9.71,104.33,2026-03-11 14:01:58,openmeteo,high,2026-03-11T21:00,,28.0,29.4,26.5,27.6,79,81,66,74.7,1011.2,1015.2,1008.4,1011.6,18.5,26.7,1.5,15.7,159,102.1,0.0,1.7,0.1,0.3,8.1,49,88,0,41.6,16.1,24.1,10.1,23.7,5
KG_LS,Huyện Kiên Lương - Kiên Giang,Kiên Giang,Kiên Lương,10.25,104.6333,2026-03-11 14:01:59,openmeteo,high,2026-03-11T21:00,,29.2,31.4,25.9,28.0,74,83,53,73.2,1010.9,1015.2,1008.2,1011.5,12.9,20.5,1.0,11.4,193,128.7,0.0,1.5,0.1,0.5,12.7,5,83,0,47.1,24.1,24.1,7.5,23.8,5
KG_PQ,Huyện Phú Quốc - Kiên Giang,Kiên Giang,Phú Quốc,10.227,103.9679,2026-03-11 14:01:57,openmeteo,high,2026-03-11T21:00,,28.5,31.5,26.1,28.1,77,87,50,75.2,1011.2,1015.3,1008.2,1011.6,6.9,21.3,0.4,8.9,223,120.2,0.0,3.5,0.1,1.9,46.3,43,100,0,50.8,24.1,24.1,3.3,22.4,5
KG_TG,Huyện Tân Hiệp - Kiên Giang,Kiên Giang,Tân Hiệp,10.1,105.2833,2026-03-11 14:01:59,openmeteo,high,2026-03-11T21:00,,25.8,34.2,22.4,27.3,83,93,39,72.5,1011.3,1015.2,1007.8,1011.4,7.6,19.4,2.2,9.1,180,96.4,0.0,2.3,0.1,0.3,8.4,28,90,4,58.2,24.1,24.1,8.2,23.9,5
KG_UM,Huyện U Minh Thượng - Kiên Giang,Kiên Giang,U Minh Thượng,9.6,105.1,2026-03-11 14:01:59,openmeteo,high,2026-03-11T21:00,,24.9,33.3,22.6,26.9,89,93,44,74.6,1011.3,1015.0,1007.9,1011.4,8.6,21.6,1.1,10.6,165,98.1,0.0,2.8,0.1,0.7,15.8,31,100,0,58.1,24.1,24.1,11.5,23.9,10
KG_VT,Huyện Vĩnh Thuận - Kiên Giang,Kiên Giang,Vĩnh Thuận,9.5333,105.25,2026-03-11 14:01:59,openmeteo,high,2026-03-11T21:00,,25.0,33.0,22.7,26.9,86,93,45,73.8,1011.4,1014.9,1008.0,1011.4,9.1,23.1,2.5,11.7,146,98.2,0.0,3.6,0.1,0.4,10.5,28,100,0,56.7,24.1,24.1,6.8,23.8,10
KG_HN,Thành phố Hà Tiên - Kiên Giang,Kiên Giang,Hà Tiên,10.3833,104.4833,2026-03-11 14:01:57,openmeteo,high,2026-03-11T21:00,,29.3,32.1,26.0,28.0,70,86,47,73.1,1010.9,1015.2,1008.2,1011.5,9.0,18.8,0.5,9.5,196,134.7,0.0,2.4,0.1,1.1,26.1,6,94,0,49.6,24.1,24.1,2.9,23.1,5
KG_RG,Thành phố Rạch Giá - Kiên Giang,Kiên Giang,Rạch Giá,10.0317,105.0809,2026-03-11 14:01:55,openmeteo,high,2026-03-11T21:00,,26.6,32.7,24.5,27.5,80,88,46,73.2,1011.3,1015.2,1007.8,1011.5,10.8,20.5,0.0,11.1,178,98.7,0.0,2.4,0.1,0.5,10.8,31,82,4,54.8,24.1,24.1,8.2,23.9,5
KG_ND,Đảo Nam Du - Kiên Giang,Kiên Giang,Kiên Hải,9.71,104.33,2026-03-11 14:02:49,openmeteo,high,2026-03-11T21:00,,28.0,29.4,26.5,27.6,79,81,66,74.7,1011.2,1015.2,1008.4,1011.6,18.5,26.7,1.5,15.7,159,102.1,0.0,1.7,0.1,0.3,8.1,49,88,0,41.6,16.1,24.1,10.1,23.7,5
KG_PQ2,Đảo Phú Quốc - Kiên Giang,Kiên Giang,Phú Quốc,10.227,103.9679,2026-03-11 14:02:49,openmeteo,high,2026-03-11T21:00,,28.5,31.5,26.1,28.1,77,87,50,75.2,1011.2,1015.3,1008.2,1011.6,6.9,21.3,0.4,8.9,223,120.2,0.0,3.5,0.1,1.9,46.3,43,100,0,50.8,24.1,24.1,3.3,22.4,5
KG_TC,Đảo Thổ Chu - Kiên Giang,Kiên Giang,Phú Quốc,9.3,103.4833,2026-03-11 14:02:49,openmeteo,high,2026-03-11T21:00,,27.3,27.9,25.8,26.8,74,83,70,76.4,1011.3,1015.0,1008.6,1011.5,9.6,30.0,5.0,18.7,146,101.0,0.0,1.4,0.1,0.7,17.3,66,88,3,51.0,24.1,24.1,9.0,23.7,5
KT_NH,Huyện Ngọc Hồi - Kon Tum,Kon Tum,Ngọc Hồi,14.7,107.8333,2026-03-11 14:02:44,openmeteo,high,2026-03-11T21:00,,22.3,30.7,16.4,22.9,66,89,36,63.6,1014.5,1018.7,1009.7,1014.7,6.2,16.7,0.0,5.3,80,74.7,0.0,0.0,0.0,0.0,0.0,84,98,0,40.4,24.1,24.1,24.1,24.1,0
KT_DG,Huyện Đắk Glei - Kon Tum,Kon Tum,Đắk Glei,15.0167,107.75,2026-03-11 14:02:44,openmeteo,high,2026-03-11T21:00,,20.7,30.4,17.7,22.3,78,90,36,69.0,1016.3,1019.8,1010.8,1016.2,8.4,14.1,1.8,8.4,25,24.8,0.0,0.0,0.0,0.0,0.0,86,92,0,48.9,14.2,24.1,0.3,16.9,0
KT_KT,Thành phố Kon Tum - Kon Tum,Kon Tum,Kon Tum,14.3833,107.9833,2026-03-11 14:02:44,openmeteo,high,2026-03-11T21:00,,22.5,32.2,18.7,24.0,66,81,32,60.9,1014.7,1018.3,1009.4,1014.7,9.8,27.6,0.0,10.6,82,73.0,0.0,0.0,0.0,0.0,0.0,82,91,0,27.7,24.1,24.1,20.2,24.1,0
LC_PT,Huyện Phong Thổ - Lai Châu,Lai Châu,Phong Thổ,22.5333,103.3333,2026-03-11 14:02:28,openmeteo,high,2026-03-11T21:00,,18.9,24.8,13.0,18.7,81,97,54,77.8,1015.7,1021.0,1010.1,1016.8,5.8,8.1,1.8,5.0,176,175.4,0.0,1.0,0.1,0.3,7.2,100,100,22,91.9,4.9,24.1,4.4,21.9,0
LC_TN,Huyện Tam Đường - Lai Châu,Lai Châu,Tam Đường,22.3667,103.6167,2026-03-11 14:02:29,openmeteo,high,2026-03-11T21:00,,13.6,18.2,8.9,12.9,77,98,58,79.6,1016.9,1021.8,1011.3,1017.5,9.0,9.9,3.1,6.1,90,135.3,0.0,0.6,0.1,0.3,8.0,100,100,12,88.5,4.4,24.1,4.1,22.0,0
LC_LC,Thành phố Lai Châu - Lai Châu,Lai Châu,Lai Châu,22.4,103.45,2026-03-11 14:02:28,openmeteo,high,2026-03-11T21:00,,19.4,24.7,14.5,19.0,80,96,58,79.5,1016.3,1021.4,1010.9,1017.2,5.9,8.9,1.3,4.9,101,158.8,0.0,0.7,0.1,0.4,9.5,100,100,9,89.1,2.7,24.1,1.8,16.3,0
LA_DH,Huyện Đức Hòa - Long An,Long An,Đức Hòa,10.8833,106.4167,2026-03-11 14:02:45,openmeteo,high,2026-03-11T21:00,,25.9,35.6,22.7,27.7,75,95,34,68.1,1010.6,1015.4,1007.4,1011.3,14.2,19.2,0.7,7.4,171,68.0,0.0,0.0,0.0,0.0,0.0,28,96,0,44.2,24.1,24.1,21.5,24.1,5
LA_TA,Thành phố Tân An - Long An,Long An,Tân An,10.5333,106.4167,2026-03-11 14:02:45,openmeteo,high,2026-03-11T21:00,,25.2,33.6,22.9,27.2,80,94,41,70.8,1011.1,1015.3,1008.1,1011.5,11.5,21.7,0.4,9.7,141,99.3,0.0,0.2,0.1,0.0,0.7,0,100,0,54.7,24.1,24.1,24.1,24.1,5
LA_KT,Thị xã Kiến Tường - Long An,Long An,Kiến Tường,10.7667,105.9,2026-03-11 14:02:46,openmeteo,high,2026-03-11T21:00,,26.2,34.8,22.5,27.6,79,95,38,69.8,1010.8,1015.4,1007.4,1011.4,13.8,22.1,0.8,8.1,171,86.5,0.0,0.0,0.0,0.0,0.0,6,87,0,44.3,24.1,24.1,11.5,24.0,5
LC_BT,Huyện Bát Xát - Lào Cai,Lào Cai,Bát Xát,22.5333,103.8833,2026-03-11 14:02:45,openmeteo,high,2026-03-11T21:00,,12.5,20.8,10.6,14.6,100,100,64,87.8,1019.9,1023.5,1012.1,1018.8,8.0,10.3,0.7,5.3,72,158.0,0.0,0.2,0.1,0.0,0.9,100,100,38,91.0,24.1,24.1,6.6,20.7,10
LC_SM,Huyện Sa Pa - Lào Cai,Lào Cai,Sa Pa,22.3367,103.84,2026-03-11 14:02:45,openmeteo,high,2026-03-11T21:00,,16.5,21.9,12.9,16.5,80,100,64,81.6,1017.8,1022.1,1011.8,1018.0,11.1,11.4,2.5,6.5,61,122.0,0.0,1.4,0.1,0.4,9.8,100,100,28,90.6,5.9,24.1,2.6,14.7,0
LC_LC2,Thành phố Lào Cai - Lào Cai,Lào Cai,Lào Cai,22.4833,103.95,2026-03-11 14:02:44,openmeteo,high,2026-03-11T21:00,,18.6,25.2,17.3,19.6,84,99,70,83.9,1018.7,1022.5,1010.4,1017.8,3.8,9.5,0.4,4.0,139,92.5,0.0,0.3,0.1,0.1,1.8,100,100,64,94.5,24.1,24.1,6.6,20.7,0
LD_BD,Huyện Bảo Lâm - Lâm Đồng,Lâm Đồng,Bảo Lâm,11.7,107.7167,2026-03-11 14:01:43,openmeteo,high,2026-03-11T21:00,,20.6,31.7,17.4,23.1,72,89,29,64.7,1013.1,1016.8,1008.5,1013.1,8.9,16.1,2.2,8.1,58,52.7,0.0,0.2,0.1,0.0,0.6,0,99,0,32.5,24.1,24.1,0.5,22.7,0
LD_CD,Huyện Cát Tiên - Lâm Đồng,Lâm Đồng,Cát Tiên,11.5833,107.35,2026-03-11 14:01:44,openmeteo,high,2026-03-11T21:00,,25.9,34.1,21.0,26.7,66,92,32,62.9,1011.5,1015.7,1007.8,1011.8,2.6,13.7,0.0,4.7,56,57.3,0.0,1.7,0.3,0.1,3.5,8,100,0,38.9,24.1,24.1,20.7,24.1,5
LD_DD,Huyện Di Linh - Lâm Đồng,Lâm Đồng,Di Linh,11.5833,108.0667,2026-03-11 14:01:44,openmeteo,high,2026-03-11T21:00,,19.5,28.9,14.2,20.4,85,98,31,72.8,1014.0,1017.7,1009.4,1014.1,4.4,13.7,0.4,5.4,81,60.1,0.0,1.3,0.1,0.2,4.1,42,100,0,48.8,24.1,24.1,21.8,24.1,0
LD_LH,Huyện Lâm Hà - Lâm Đồng,Lâm Đồng,Lâm Hà,11.8333,108.2,2026-03-11 14:01:46,openmeteo,high,2026-03-11T21:00,,20.4,28.4,15.3,21.2,82,94,41,72.4,1014.5,1018.0,1010.2,1014.6,3.0,17.0,1.1,5.8,76,29.0,0.0,2.8,0.2,0.2,5.9,31,100,0,45.1,24.1,24.1,15.4,24.0,0
LD_LC,Huyện Lạc Dương - Lâm Đồng,Lâm Đồng,Lạc Dương,12.0,108.4333,2026-03-11 14:01:45,openmeteo,high,2026-03-11T21:00,,16.2,23.4,12.9,17.6,80,92,46,73.1,1015.7,1018.6,1011.3,1015.5,8.0,19.6,2.7,8.9,63,50.5,0.0,0.4,0.1,0.1,1.6,22,100,0,45.2,3.4,24.1,0.2,19.0,0
LD_DT2,Huyện Đam Rông - Lâm Đồng,Lâm Đồng,Đam Rông,12.0833,108.1667,2026-03-11 14:01:44,openmeteo,high,2026-03-11T21:00,,21.4,32.4,16.6,23.2,74,100,35,71.0,1013.9,1017.5,1009.2,1013.9,5.8,22.1,1.1,8.6,7,11.1,0.0,0.0,0.0,0.0,0.0,3,100,0,29.6,24.1,24.1,12.0,23.9,0
LD_DL2,Huyện Đơn Dương - Lâm Đồng,Lâm Đồng,Đơn Dương,11.75,108.55,2026-03-11 14:01:45,openmeteo,high,2026-03-11T21:00,,20.1,27.4,14.8,20.8,73,92,39,67.3,1014.7,1017.8,1010.6,1014.7,8.4,18.4,3.3,9.5,70,74.0,0.0,0.4,0.1,0.1,2.5,72,100,0,51.2,24.1,24.1,20.4,24.0,0
LD_DH,Huyện Đạ Huoai - Lâm Đồng,Lâm Đồng,Đạ Huoai,11.4167,107.6333,2026-03-11 14:01:44,openmeteo,high,2026-03-11T21:00,,25.7,33.5,19.9,26.8,84,99,46,73.5,1011.5,1015.7,1008.2,1011.8,1.8,11.8,0.4,4.2,191,124.2,0.0,0.2,0.1,0.0,0.3,45,100,0,40.5,24.1,24.1,14.1,23.9,5
LD_DT,Huyện Đạ Tẻh - Lâm Đồng,Lâm Đồng,Đạ Tẻh,11.5,107.5167,2026-03-11 14:01:43,openmeteo,high,2026-03-11T21:00,,26.3,35.4,20.7,27.5,76,92,31,63.6,1011.3,1015.5,1007.6,1011.6,2.5,12.1,0.4,4.0,270,51.5,0.0,0.1,0.1,0.0,0.6,26,100,0,39.4,24.1,24.1,16.0,24.0,5
LD_DR,Huyện Đức Trọng - Lâm Đồng,Lâm Đồng,Đức Trọng,11.7333,108.3,2026-03-11 14:01:45,openmeteo,high,2026-03-11T21:00,,20.2,29.0,14.6,21.1,84,100,34,73.4,1014.0,1017.9,1009.5,1014.1,4.6,12.2,0.8,5.0,108,64.4,0.0,2.1,0.1,0.3,6.1,44,100,0,54.4,24.1,24.1,15.4,24.0,0
LD_BA,Thành phố Bảo Lộc - Lâm Đồng,Lâm Đồng,Bảo Lộc,11.55,107.8,2026-03-11 14:01:43,openmeteo,high,2026-03-11T21:00,,21.0,29.7,18.3,23.5,88,89,49,72.2,1012.2,1016.1,1008.9,1012.5,4.5,10.6,0.5,6.2,61,90.5,0.0,0.1,0.1,0.0,0.9,7,100,0,40.6,24.1,24.1,14.1,23.9,10
LD_DL,Thành phố Đà Lạt - Lâm Đồng,Lâm Đồng,Đà Lạt,11.9404,108.4587,2026-03-11 14:01:43,openmeteo,high,2026-03-11T21:00,,16.8,24.1,13.5,18.2,80,92,46,73.1,1015.7,1018.6,1011.3,1015.5,8.0,19.6,2.7,8.9,63,50.5,0.0,0.4,0.1,0.1,1.6,22,100,0,45.2,3.4,24.1,0.2,19.0,0
LS_CL,Huyện Cao Lộc - Lạng Sơn,Lạng Sơn,Cao Lộc,21.9,106.8,2026-03-11 14:02:30,openmeteo,high,2026-03-11T21:00,,17.3,24.4,12.3,18.8,80,94,46,77.1,1019.1,1022.9,1012.1,1018.6,2.8,15.6,0.4,5.8,40,117.1,0.0,0.0,0.0,0.0,0.0,49,100,41,82.1,24.1,24.1,22.1,24.1,0
LS_LL,Huyện Lộc Bình - Lạng Sơn,Lạng Sơn,Lộc Bình,21.75,106.9333,2026-03-11 14:02:30,openmeteo,high,2026-03-11T21:00,,17.3,24.4,12.3,18.9,79,94,44,75.6,1019.1,1022.9,1012.3,1018.7,2.4,14.3,1.3,5.9,27,112.6,0.0,0.0,0.0,0.0,0.0,46,100,23,78.3,24.1,24.1,22.4,24.1,0
LS_LS,Thành phố Lạng Sơn - Lạng Sơn,Lạng Sơn,Lạng Sơn,21.8478,106.7578,2026-03-11 14:02:30,openmeteo,high,2026-03-11T21:00,,17.4,24.5,12.4,18.9,80,94,46,77.1,1019.1,1022.9,1012.1,1018.6,2.8,15.6,0.4,5.8,40,117.1,0.0,0.0,0.0,0.0,0.0,49,100,41,82.1,24.1,24.1,22.7,24.1,0
ND_GL,Huyện Giao Thủy - Nam Định,Nam Định,Giao Thủy,20.2333,106.45,2026-03-11 14:01:29,openmeteo,high,2026-03-11T21:00,,18.1,25.5,15.5,20.7,89,99,49,83.0,1018.5,1021.9,1012.1,1018.0,5.4,21.4,1.9,8.8,90,75.2,0.0,0.2,0.1,0.1,1.5,100,100,16,75.1,24.1,24.1,15.5,24.0,10
ND_HH,Huyện Hải Hậu - Nam Định,Nam Định,Hải Hậu,20.1833,106.3,2026-03-11 14:01:29,openmeteo,high,2026-03-11T21:00,,18.8,25.8,16.1,21.0,86,99,51,82.0,1018.5,1022.0,1011.9,1018.0,2.5,16.6,0.8,5.9,98,63.8,0.0,0.2,0.1,0.0,1.0,100,100,22,77.5,24.1,24.1,21.3,24.1,10
ND_ML,Huyện Mỹ Lộc - Nam Định,Nam Định,Mỹ Lộc,20.4667,106.1167,2026-03-11 14:01:29,openmeteo,high,2026-03-11T21:00,,19.1,27.5,16.5,21.2,79,98,49,79.3,1018.5,1022.3,1011.2,1018.0,6.1,16.9,0.4,5.6,135,124.5,0.0,0.1,0.1,0.1,1.9,100,100,6,83.7,24.1,24.1,21.2,24.0,0
ND_NC,Huyện Nam Trực - Nam Định,Nam Định,Nam Trực,20.3333,106.2,2026-03-11 14:01:29,openmeteo,high,2026-03-11T21:00,,18.3,26.2,15.4,20.8,85,99,51,82.2,1018.5,1022.1,1011.8,1018.0,4.6,19.1,0.7,6.9,108,80.0,0.0,0.2,0.1,0.1,1.3,100,100,20,79.7,24.1,24.1,11.9,23.9,0
ND_TK,Huyện Trực Ninh - Nam Định,Nam Định,Trực Ninh,20.25,106.25,2026-03-11 14:01:30,openmeteo,high,2026-03-11T21:00,,18.4,26.0,15.5,20.8,87,99,50,82.4,1018.5,1022.0,1011.9,1018.0,4.0,19.9,0.4,7.3,100,72.7,0.0,0.2,0.1,0.1,1.8,100,100,21,77.6,24.1,24.1,11.9,23.9,10
ND_VB,Huyện Vụ Bản - Nam Định,Nam Định,Vụ Bản,20.3667,106.1,2026-03-11 14:01:29,openmeteo,high,2026-03-11T21:00,,18.6,26.9,16.1,21.0,83,99,49,81.3,1018.5,1022.2,1011.5,1018.0,4.9,17.9,0.5,5.9,126,92.7,0.0,0.1,0.1,0.0,1.1,100,100,15,80.4,24.1,24.1,23.6,24.1,0
ND_XT,Huyện Xuân Trường - Nam Định,Nam Định,Xuân Trường,20.3,106.35,2026-03-11 14:01:29,openmeteo,high,2026-03-11T21:00,,18.1,25.5,15.4,20.7,89,99,49,83.0,1018.5,1021.9,1012.1,1018.0,5.4,21.4,1.9,8.8,90,75.2,0.0,0.2,0.1,0.1,1.5,100,100,16,75.1,24.1,24.1,11.9,23.9,10
ND_YN,Huyện Ý Yên - Nam Định,Nam Định,Ý Yên,20.3167,106.0167,2026-03-11 14:01:30,openmeteo,high,2026-03-11T21:00,,19.1,27.1,16.0,21.0,81,99,50,80.2,1018.5,1022.2,1011.3,1018.0,4.1,18.0,0.4,5.1,135,109.1,0.0,0.2,0.1,0.1,1.3,100,100,24,84.0,24.1,24.1,23.6,24.1,0
ND_TP,Thành phố Nam Định - Nam Định,Nam Định,Nam Định,20.42,106.1683,2026-03-11 14:01:28,openmeteo,high,2026-03-11T21:00,,18.5,26.9,16.0,21.0,83,99,49,81.3,1018.5,1022.2,1011.5,1018.0,4.9,17.9,0.5,5.9,126,92.7,0.0,0.1,0.1,0.0,1.1,100,100,15,80.4,24.1,24.1,11.9,23.9,0
NA_HH,Huyện Hoàng Mai - Nghệ An,Nghệ An,Hoàng Mai,19.2667,105.7167,2026-03-11 14:02:19,openmeteo,high,2026-03-11T21:00,,18.5,26.4,16.6,20.6,87,99,61,84.8,1018.5,1021.7,1011.8,1017.9,2.4,13.4,0.4,5.1,27,25.6,0.0,0.4,0.1,0.1,3.1,77,100,34,77.3,24.1,24.1,19.2,24.0,10
NA_VH,Thành phố Vinh - Nghệ An,Nghệ An,Vinh,18.6733,105.6811,2026-03-11 14:02:18,openmeteo,high,2026-03-11T21:00,,19.7,28.9,17.9,21.3,85,99,57,83.1,1018.3,1021.4,1011.4,1017.7,1.8,11.7,0.4,4.4,323,359.9,0.0,0.2,0.1,0.0,0.7,94,100,0,79.0,24.1,24.1,15.2,23.7,0
NA_CT,Thị xã Cửa Lò - Nghệ An,Nghệ An,Cửa Lò,18.8167,105.7167,2026-03-11 14:02:18,openmeteo,high,2026-03-11T21:00,,19.6,26.6,18.2,21.2,88,96,68,84.1,1018.3,1021.4,1011.7,1017.7,1.6,12.0,0.7,4.4,27,11.9,0.0,0.3,0.3,0.0,0.9,93,100,0,77.1,24.1,24.1,15.2,23.7,10
NA_TH,Thị xã Thái Hòa - Nghệ An,Nghệ An,Thái Hòa,19.3,105.4667,2026-03-11 14:02:19,openmeteo,high,2026-03-11T21:00,,18.7,27.2,16.2,20.8,84,97,59,82.1,1018.6,1021.9,1011.3,1017.9,1.5,13.4,0.5,4.3,14,19.3,0.0,0.2,0.1,0.0,0.6,89,100,36,79.0,24.1,24.1,20.6,24.1,0
NB_HS,Huyện Hoa Lư - Ninh Bình,Ninh Bình,Hoa Lư,20.2833,105.9167,2026-03-11 14:02:39,openmeteo,high,2026-03-11T21:00,,18.8,27.2,15.6,20.8,83,100,47,80.3,1018.6,1022.2,1011.3,1018.0,3.3,16.6,0.0,4.8,139,100.5,0.0,0.1,0.1,0.0,0.9,100,100,28,82.1,24.1,24.1,23.6,24.1,0
NB_NB,Thành phố Ninh Bình - Ninh Bình,Ninh Bình,Ninh Bình,20.2539,105.975,2026-03-11 14:02:40,openmeteo,high,2026-03-11T21:00,,18.8,26.8,15.7,20.8,84,100,47,81.2,1018.5,1022.2,1011.6,1018.0,3.3,16.2,0.4,4.9,131,84.7,0.0,0.2,0.1,0.1,1.6,100,100,22,80.7,24.1,24.1,23.6,24.1,0
NB_TL,Thành phố Tam Điệp - Ninh Bình,Ninh Bình,Tam Điệp,20.15,105.9167,2026-03-11 14:02:39,openmeteo,high,2026-03-11T21:00,,18.9,27.1,15.9,20.9,85,100,50,81.3,1018.5,1022.1,1011.5,1018.0,2.6,15.1,0.0,4.8,124,78.5,0.0,0.1,0.1,0.0,0.4,100,100,20,79.7,24.1,24.1,23.6,24.1,0
NT_NA,Huyện Ninh Hải - Ninh Thuận,Ninh Thuận,Ninh Hải,11.6,109.0333,2026-03-11 14:02:25,openmeteo,high,2026-03-11T21:00,,24.8,33.1,19.9,26.0,66,88,39,64.7,1013.1,1016.5,1009.8,1013.1,2.7,27.8,0.4,10.1,67,22.4,0.0,0.0,0.0,0.0,0.0,83,100,0,43.5,24.1,24.1,24.1,24.1,0
NT_TA,Huyện Thuận Bắc - Ninh Thuận,Ninh Thuận,Thuận Bắc,11.75,108.9333,2026-03-11 14:02:25,openmeteo,high,2026-03-11T21:00,,24.3,32.6,18.5,24.9,63,87,37,62.2,1013.4,1016.9,1009.7,1013.4,2.6,24.5,0.4,8.1,56,14.8,0.0,0.0,0.0,0.0,0.0,54,100,0,48.1,24.1,24.1,23.4,24.1,0
NT_PH,Thành phố Phan Rang-Tháp Chàm - Ninh Thuận,Ninh Thuận,Phan Rang-Tháp Chàm,11.5667,108.9833,2026-03-11 14:02:24,openmeteo,high,2026-03-11T21:00,,24.8,33.1,19.9,26.0,66,88,39,64.7,1013.1,1016.5,1009.8,1013.1,2.7,27.8,0.4,10.1,67,22.4,0.0,0.0,0.0,0.0,0.0,83,100,0,43.5,24.1,24.1,24.1,24.1,0
PT_HT,Huyện Hạ Hòa - Phú Thọ,Phú Thọ,Hạ Hòa,21.55,105.0,2026-03-11 14:02:35,openmeteo,high,2026-03-11T21:00,,18.4,25.3,14.7,19.7,88,99,54,84.6,1018.8,1022.8,1011.0,1018.1,2.3,11.4,0.0,3.8,231,121.0,0.0,0.1,0.1,0.0,0.9,100,100,46,91.3,24.1,24.1,6.3,23.9,10
PT_VT,Thành phố Việt Trì - Phú Thọ,Phú Thọ,Việt Trì,21.3,105.4333,2026-03-11 14:02:34,openmeteo,high,2026-03-11T21:00,,21.0,28.0,16.7,21.3,79,97,55,79.9,1018.2,1022.6,1010.1,1017.7,0.8,15.5,0.0,7.8,207,115.9,0.0,0.3,0.1,0.1,1.5,100,100,43,87.3,24.1,24.1,21.4,24.0,0
PT_PT,Thị xã Phú Thọ - Phú Thọ,Phú Thọ,Phú Thọ,21.4,105.2333,2026-03-11 14:02:35,openmeteo,high,2026-03-11T21:00,,20.1,27.6,16.4,20.9,86,95,51,81.5,1018.3,1022.7,1010.1,1017.7,2.3,14.5,0.4,6.8,231,127.2,0.0,0.1,0.1,0.0,0.6,100,100,47,90.4,24.1,24.1,21.8,24.1,10
PY_DD,Huyện Đông Hòa - Phú Yên,Phú Yên,Đông Hòa,12.9833,109.3667,2026-03-11 14:02:23,openmeteo,high,2026-03-11T21:00,,21.9,26.8,21.0,22.8,90,96,64,86.2,1015.5,1018.8,1012.0,1015.5,5.4,17.8,1.1,7.4,4,6.2,0.0,1.2,0.1,0.5,12.9,81,100,41,81.9,17.3,24.1,1.1,19.5,10
PY_TH,Thành phố Tuy Hòa - Phú Yên,Phú Yên,Tuy Hòa,13.0833,109.3,2026-03-11 14:02:23,openmeteo,high,2026-03-11T21:00,,22.1,29.3,20.9,23.7,84,94,48,77.1,1015.1,1018.5,1011.5,1015.2,7.1,18.2,0.8,9.6,45,42.9,0.0,0.3,0.1,0.0,0.7,65,98,31,71.3,17.3,24.1,1.1,19.5,0
PY_SH,Thị xã Sông Cầu - Phú Yên,Phú Yên,Sông Cầu,13.45,109.2167,2026-03-11 14:02:23,openmeteo,high,2026-03-11T21:00,,22.4,30.1,21.1,23.9,81,91,50,74.6,1015.4,1018.7,1011.5,1015.4,6.9,21.6,2.0,9.5,9,14.6,0.0,0.3,0.1,0.0,0.9,83,99,5,68.4,19.2,24.1,3.3,20.3,0
QB_BT,Huyện Bố Trạch - Quảng Bình,Quảng Bình,Bố Trạch,17.5,106.25,2026-03-11 14:01:35,openmeteo,high,2026-03-11T21:00,,16.2,25.5,14.0,17.8,94,98,58,85.9,1018.3,1021.2,1012.0,1017.9,5.2,14.2,2.1,7.0,34,47.9,0.0,0.2,0.1,0.0,0.9,91,100,43,86.1,0.4,24.1,0.1,12.1,10
QB_LT,Huyện Lệ Thủy - Quảng Bình,Quảng Bình,Lệ Thủy,17.2167,106.8,2026-03-11 14:01:35,openmeteo,high,2026-03-11T21:00,,20.7,27.0,18.8,21.6,88,96,67,87.0,1017.4,1020.5,1011.8,1017.1,2.9,13.1,0.4,5.3,360,36.8,0.0,2.4,0.1,0.8,19.1,98,100,41,85.2,24.1,24.1,6.8,20.6,10
QB_MC,Huyện Minh Hóa - Quảng Bình,Quảng Bình,Minh Hóa,17.7833,105.9167,2026-03-11 14:01:35,openmeteo,high,2026-03-11T21:00,,16.3,26.5,14.3,18.4,98,99,58,86.8,1018.7,1021.5,1012.3,1018.2,7.4,15.0,3.5,8.2,43,44.0,0.0,0.0,0.0,0.0,0.0,95,100,45,82.4,24.1,24.1,0.1,15.4,10
QB_QN,Huyện Quảng Ninh - Quảng Bình,Quảng Bình,Quảng Ninh,17.4,106.55,2026-03-11 14:01:36,openmeteo,high,2026-03-11T21:00,,18.9,27.0,16.6,20.4,95,98,63,85.9,1018.1,1021.1,1012.4,1017.8,3.9,13.3,2.6,6.4,34,62.7,0.0,0.2,0.1,0.1,2.8,97,100,55,88.2,23.6,24.1,1.2,18.5,10
QB_QH,Huyện Quảng Trạch - Quảng Bình,Quảng Bình,Quảng Trạch,17.8333,106.4167,2026-03-11 14:01:35,openmeteo,high,2026-03-11T21:00,,19.2,26.1,17.4,20.6,92,99,68,86.3,1017.9,1021.0,1012.0,1017.5,2.3,15.5,1.1,6.2,321,6.7,0.0,0.3,0.1,0.2,3.9,94,100,33,85.8,24.1,24.1,10.3,21.1,10
QB_TN,Huyện Tuyên Hóa - Quảng Bình,Quảng Bình,Tuyên Hóa,17.9,106.0,2026-03-11 14:01:36,openmeteo,high,2026-03-11T21:00,,19.2,27.8,17.0,20.6,94,99,64,87.9,1018.3,1021.5,1011.5,1017.9,2.8,10.5,0.0,4.5,310,339.7,0.0,0.2,0.1,0.1,1.8,100,100,41,86.3,24.1,24.1,3.3,22.5,10
QB_DH,Thành phố Đồng Hới - Quảng Bình,Quảng Bình,Đồng Hới,17.4687,106.6227,2026-03-11 14:01:34,openmeteo,high,2026-03-11T21:00,,19.4,26.0,17.0,20.5,92,94,68,86.3,1017.8,1020.9,1012.2,1017.5,2.7,14.1,1.0,5.6,23,50.4,0.0,0.3,0.1,0.2,4.0,99,100,43,87.7,23.6,24.1,1.2,18.5,10
QB_BAD,Thị xã Ba Đồn - Quảng Bình,Quảng Bình,Ba Đồn,17.75,106.4167,2026-03-11 14:01:34,openmeteo,high,2026-03-11T21:00,,20.6,26.7,18.3,21.5,88,98,69,85.6,1017.7,1020.7,1011.9,1017.3,1.8,15.5,1.4,5.6,349,8.3,0.0,0.2,0.1,0.1,3.3,96,100,29,83.8,24.1,24.1,10.3,21.1,10
QN_NT,Huyện Núi Thành - Quảng Nam,Quảng Nam,Núi Thành,15.4333,108.6667,2026-03-11 14:02:21,openmeteo,high,2026-03-11T21:00,,22.7,29.4,19.7,23.5,93,98,59,86.1,1016.8,1020.1,1011.7,1016.7,2.4,10.6,0.4,4.4,27,9.6,0.0,1.0,0.1,0.6,13.8,94,100,0,75.9,22.6,24.1,5.9,19.8,10
QN_DG,Huyện Điện Bàn - Quảng Nam,Quảng Nam,Điện Bàn,15.9,108.25,2026-03-11 14:02:21,openmeteo,high,2026-03-11T21:00,,21.9,28.4,20.5,23.0,91,97,60,84.6,1016.7,1019.8,1011.6,1016.6,3.7,15.7,0.8,5.7,11,12.9,0.0,1.4,0.1,0.9,20.6,91,100,32,79.6,14.8,24.1,5.5,19.0,10
QN_HT,Thành phố Hội An - Quảng Nam,Quảng Nam,Hội An,15.8833,108.3333,2026-03-11 14:02:20,openmeteo,high,2026-03-11T21:00,,21.7,28.2,20.3,22.8,91,97,60,84.6,1016.7,1019.8,1011.6,1016.6,3.7,15.7,0.8,5.7,11,12.9,0.0,1.4,0.1,0.9,20.6,91,100,32,79.6,14.8,24.1,5.5,19.0,10
QN_TC,Thành phố Tam Kỳ - Quảng Nam,Quảng Nam,Tam Kỳ,15.5667,108.4833,2026-03-11 14:02:20,openmeteo,high,2026-03-11T21:00,,21.6,27.8,19.5,22.5,92,99,62,85.8,1016.6,1019.9,1011.6,1016.6,2.6,13.4,0.0,4.4,56,25.4,0.0,1.3,0.1,0.9,21.7,94,100,42,81.6,22.6,24.1,5.9,19.8,10
QN_BT,Huyện Bình Sơn - Quảng Ngãi,Quảng Ngãi,Bình Sơn,15.3167,108.7667,2026-03-11 14:02:21,openmeteo,high,2026-03-11T21:00,,20.2,26.6,18.8,21.2,94,98,62,86.9,1016.9,1020.1,1012.0,1016.8,3.5,11.9,1.4,5.1,24,4.2,0.0,1.6,0.1,0.8,19.3,92,100,51,83.2,15.8,24.1,5.8,19.6,10
QN_LS,Huyện Lý Sơn - Quảng Ngãi,Quảng Ngãi,Lý Sơn,15.3833,109.1167,2026-03-11 14:02:22,openmeteo,high,2026-03-11T21:00,,23.3,25.0,22.6,23.8,83,88,66,79.2,1016.2,1019.5,1011.8,1016.2,10.9,16.9,1.0,9.8,34,11.5,0.1,1.5,0.1,1.5,35.0,82,100,0,69.9,24.1,24.1,6.9,20.9,25
QN_QN,Thành phố Quảng Ngãi - Quảng Ngãi,Quảng Ngãi,Quảng Ngãi,15.1167,108.8,2026-03-11 14:02:21,openmeteo,high,2026-03-11T21:00,,22.0,28.5,19.6,22.8,90,98,58,83.4,1016.5,1019.7,1011.7,1016.4,2.9,14.6,0.0,5.1,360,338.8,0.0,1.1,0.1,0.5,11.2,92,100,42,80.2,17.5,24.1,2.1,19.3,10
QN_LS2,Đảo Lý Sơn - Quảng Ngãi,Quảng Ngãi,Lý Sơn,15.3833,109.1167,2026-03-11 14:02:50,openmeteo,high,2026-03-11T21:00,,23.3,25.0,22.6,23.8,83,88,66,79.2,1016.2,1019.5,1011.8,1016.2,10.9,16.9,1.0,9.8,34,11.5,0.1,1.5,0.1,1.5,35.0,82,100,0,69.9,24.1,24.1,6.9,20.9,25
QN_BG,Huyện Ba Chẽ - Quảng Ninh,Quảng Ninh,Ba Chẽ,21.2833,107.1833,2026-03-11 14:01:24,openmeteo,high,2026-03-11T21:00,,17.7,25.5,13.7,20.1,81,96,48,77.7,1019.1,1022.7,1012.6,1018.6,2.7,15.3,0.5,5.4,113,88.0,0.0,0.1,0.1,0.0,0.3,64,100,0,74.5,24.1,24.1,23.2,24.1,0
QN_BQ,Huyện Bình Liêu - Quảng Ninh,Quảng Ninh,Bình Liêu,21.5333,107.4333,2026-03-11 14:01:24,openmeteo,high,2026-03-11T21:00,,16.4,23.9,12.0,18.9,87,95,48,79.4,1019.4,1022.8,1013.2,1019.0,2.0,14.8,1.5,6.4,135,116.5,0.0,0.0,0.0,0.0,0.0,98,100,0,77.1,24.1,24.1,22.7,24.1,10
QN_CT,Huyện Cô Tô - Quảng Ninh,Quảng Ninh,Cô Tô,20.9681,107.7639,2026-03-11 14:01:25,openmeteo,high,2026-03-11T21:00,,19.8,22.0,17.9,20.5,68,92,61,79.9,1018.8,1022.3,1013.1,1018.5,5.2,19.9,1.3,9.4,34,64.1,0.0,0.2,0.1,0.1,1.5,99,100,0,64.5,24.1,24.1,11.2,23.5,0
QN_HD,Huyện Hải Hà - Quảng Ninh,Quảng Ninh,Hải Hà,21.4333,107.7167,2026-03-11 14:01:25,openmeteo,high,2026-03-11T21:00,,14.8,21.2,11.5,17.3,92,99,58,84.3,1019.4,1023.2,1013.7,1019.3,3.9,13.3,1.1,6.0,22,95.5,0.0,0.3,0.1,0.2,4.1,97,100,0,79.0,24.1,24.1,13.1,23.6,10
QN_TY,Huyện Tiên Yên - Quảng Ninh,Quảng Ninh,Tiên Yên,21.3833,107.3833,2026-03-11 14:01:26,openmeteo,high,2026-03-11T21:00,,17.4,24.6,13.7,19.7,79,95,50,78.3,1019.1,1022.6,1013.0,1018.8,0.8,16.6,0.5,5.8,63,101.1,0.0,0.0,0.0,0.0,0.0,89,100,0,73.5,24.1,24.1,22.7,24.1,0
QN_VD,Huyện Vân Đồn - Quảng Ninh,Quảng Ninh,Vân Đồn,20.9551,107.4764,2026-03-11 14:01:27,openmeteo,high,2026-03-11T21:00,,18.0,25.2,14.3,20.2,75,97,49,78.8,1019.0,1022.5,1013.0,1018.7,2.3,16.6,1.5,6.5,321,58.0,0.0,0.5,0.1,0.1,2.2,80,100,0,71.1,24.1,24.1,14.8,24.0,0
QN_DH,Huyện Đầm Hà - Quảng Ninh,Quảng Ninh,Đầm Hà,21.3667,107.6,2026-03-11 14:01:26,openmeteo,high,2026-03-11T21:00,,18.2,24.8,13.6,20.4,84,97,51,80.2,1019.1,1022.7,1013.3,1018.9,2.5,18.2,0.8,6.9,8,74.6,0.0,0.2,0.1,0.1,1.8,98,100,0,75.5,24.1,24.1,21.1,24.0,0
QN_CP,Thành phố Cẩm Phả - Quảng Ninh,Quảng Ninh,Cẩm Phả,21.0167,107.3167,2026-03-11 14:01:23,openmeteo,high,2026-03-11T21:00,,17.0,24.8,13.4,19.8,76,92,49,76.7,1019.0,1022.3,1013.0,1018.5,2.6,18.4,2.2,7.9,16,73.8,0.0,0.3,0.1,0.1,1.2,83,100,0,68.3,24.1,24.1,14.8,24.0,0
QN_HL,Thành phố Hạ Long - Quảng Ninh,Quảng Ninh,Hạ Long,20.9582,107.0758,2026-03-11 14:01:23,openmeteo,high,2026-03-11T21:00,,19.7,25.3,16.6,21.5,71,90,51,76.2,1018.9,1022.1,1012.7,1018.3,2.1,19.8,1.4,8.6,59,78.6,0.0,0.2,0.2,0.0,0.6,88,100,0,67.0,24.1,24.1,23.0,24.1,0
QN_MC,Thành phố Móng Cái - Quảng Ninh,Quảng Ninh,Móng Cái,21.5247,107.9664,2026-03-11 14:01:24,openmeteo,high,2026-03-11T21:00,,18.7,24.8,14.5,20.3,79,93,47,77.7,1018.9,1023.0,1013.2,1018.9,2.3,13.2,0.4,5.0,321,51.3,0.0,0.3,0.1,0.2,4.8,98,100,0,72.3,24.1,24.1,13.1,23.6,0
QN_UB,Thành phố Uông Bí - Quảng Ninh,Quảng Ninh,Uông Bí,21.0361,106.7633,2026-03-11 14:01:23,openmeteo,high,2026-03-11T21:00,,19.3,26.3,15.3,21.4,74,94,47,77.1,1018.8,1022.2,1012.3,1018.1,3.8,18.2,0.5,7.5,107,93.0,0.0,0.2,0.1,0.0,0.9,100,100,0,73.1,24.1,24.1,20.4,24.1,0
QN_QY,Thị xã Quảng Yên - Quảng Ninh,Quảng Ninh,Quảng Yên,20.9333,106.8167,2026-03-11 14:01:25,openmeteo,high,2026-03-11T21:00,,19.2,25.2,16.4,21.1,74,93,54,76.9,1018.8,1022.1,1012.5,1018.2,4.3,17.3,1.5,8.4,85,85.2,0.0,0.2,0.1,0.0,0.9,99,100,0,69.3,24.1,24.1,20.4,24.1,0
QN_DK,Thị xã Đông Triều - Quảng Ninh,Quảng Ninh,Đông Triều,21.0833,106.5,2026-03-11 14:01:24,openmeteo,high,2026-03-11T21:00,,20.1,27.0,16.4,21.8,75,93,43,76.1,1018.5,1022.5,1011.7,1018.0,6.9,16.1,0.4,5.7,141,116.9,0.0,0.1,0.1,0.0,0.3,100,100,20,81.4,24.1,24.1,17.8,24.0,0
QN_CT,Đảo Cô Tô - Quảng Ninh,Quảng Ninh,Cô Tô,20.9681,107.7639,2026-03-11 14:02:51,openmeteo,high,2026-03-11T21:00,,19.8,22.0,17.9,20.5,68,92,61,79.9,1018.8,1022.3,1013.1,1018.5,5.2,19.9,1.3,9.4,34,64.1,0.0,0.2,0.1,0.1,1.5,99,100,0,64.5,24.1,24.1,11.2,23.5,0
QN_VD,Đảo Vân Đồn - Quảng Ninh,Quảng Ninh,Vân Đồn,20.9551,107.4764,2026-03-11 14:02:48,openmeteo,high,2026-03-11T21:00,,18.0,25.2,14.3,20.2,75,97,49,78.8,1019.0,1022.5,1013.0,1018.7,2.3,16.6,1.5,6.5,321,58.0,0.0,0.5,0.1,0.1,2.2,80,100,0,71.1,24.1,24.1,14.8,24.0,0
QT_CL,Huyện Cam Lộ - Quảng Trị,Quảng Trị,Cam Lộ,16.8,106.9833,2026-03-11 14:01:32,openmeteo,high,2026-03-11T21:00,,19.8,28.9,18.4,21.0,91,98,52,86.8,1017.4,1020.5,1011.8,1017.1,3.3,15.1,2.1,6.1,6,27.7,0.0,0.9,0.1,0.3,8.2,98,100,54,85.0,12.9,24.1,4.1,20.4,10
QT_CC,Huyện Cồn Cỏ - Quảng Trị,Quảng Trị,Cồn Cỏ,17.1597,107.3408,2026-03-11 14:01:33,openmeteo,high,2026-03-11T21:00,,22.5,24.2,21.7,23.0,83,88,72,81.0,1016.9,1020.1,1011.8,1016.7,9.3,29.4,8.0,17.5,54,79.8,0.1,2.0,0.1,1.8,42.5,93,100,0,70.9,20.6,24.1,7.6,20.9,25
QT_GL,Huyện Gio Linh - Quảng Trị,Quảng Trị,Gio Linh,16.9167,107.05,2026-03-11 14:01:33,openmeteo,high,2026-03-11T21:00,,20.6,29.0,18.8,21.8,93,100,56,87.7,1017.2,1020.3,1011.6,1016.9,2.3,15.5,0.5,5.7,309,18.0,0.0,1.8,0.1,0.9,21.2,100,100,44,83.6,23.5,24.1,7.2,20.7,10
QT_HL,Huyện Hướng Hóa - Quảng Trị,Quảng Trị,Hướng Hóa,16.7,106.6667,2026-03-11 14:01:34,openmeteo,high,2026-03-11T21:00,,20.3,31.2,18.6,22.4,79,83,41,70.0,1016.0,1019.2,1010.2,1015.9,7.4,20.3,4.7,11.5,61,63.8,0.0,0.0,0.0,0.0,0.0,88,100,0,47.8,0.1,24.1,0.1,10.7,0
QT_HH,Huyện Hải Lăng - Quảng Trị,Quảng Trị,Hải Lăng,16.7,107.25,2026-03-11 14:01:33,openmeteo,high,2026-03-11T21:00,,21.5,26.9,19.5,22.1,88,96,70,87.5,1016.9,1020.0,1011.6,1016.7,1.5,17.7,0.8,7.6,45,68.5,0.0,3.0,0.1,1.1,26.9,97,100,23,75.2,24.1,24.1,8.0,21.1,10
QT_TL,Huyện Triệu Phong - Quảng Trị,Quảng Trị,Triệu Phong,16.7833,107.1667,2026-03-11 14:01:34,openmeteo,high,2026-03-11T21:00,,20.8,28.8,18.8,21.7,90,100,57,87.6,1017.0,1020.1,1011.5,1016.7,2.0,16.5,1.0,5.9,315,29.0,0.0,2.3,0.1,0.9,20.7,99,100,19,79.5,24.1,24.1,8.0,21.1,10
QT_VL,Huyện Vĩnh Linh - Quảng Trị,Quảng Trị,Vĩnh Linh,17.0,106.9333,2026-03-11 14:01:34,openmeteo,high,2026-03-11T21:00,,18.9,26.4,17.4,20.1,96,99,63,89.2,1017.7,1021.0,1012.2,1017.5,2.4,13.7,1.6,5.9,27,73.1,0.0,3.4,0.1,0.3,7.4,100,100,61,87.4,23.5,24.1,7.2,20.7,10
QT_DK,Huyện Đa Krông - Quảng Trị,Quảng Trị,Đa Krông,16.5556,106.9722,2026-03-11 14:01:33,openmeteo,high,2026-03-11T21:00,,19.3,28.1,17.6,20.6,91,98,56,84.9,1017.2,1020.1,1011.6,1016.9,8.0,19.0,3.8,9.6,54,59.2,0.0,0.3,0.1,0.0,1.0,100,100,31,78.7,0.2,24.1,0.1,14.3,10
QT_DH,Thành phố Đông Hà - Quảng Trị,Quảng Trị,Đông Hà,16.816,107.1,2026-03-11 14:01:32,openmeteo,high,2026-03-11T21:00,,20.0,28.4,18.2,21.2,93,100,56,87.7,1017.2,1020.3,1011.6,1016.9,2.3,15.5,0.5,5.7,309,18.0,0.0,1.8,0.1,0.9,21.2,100,100,44,83.6,12.9,24.1,4.1,20.4,10
QT_QH,Thị xã Quảng Trị - Quảng Trị,Quảng Trị,Quảng Trị,16.75,107.1833,2026-03-11 14:01:33,openmeteo,high,2026-03-11T21:00,,20.9,28.9,18.8,21.8,90,100,57,87.6,1017.0,1020.1,1011.5,1016.7,2.0,16.5,1.0,5.9,315,29.0,0.0,2.3,0.1,0.9,20.7,99,100,19,79.5,24.1,24.1,8.0,21.1,10
QT_CC2,Đảo Cồn Cỏ - Quảng Trị,Quảng Trị,Cồn Cỏ,17.1597,107.3408,2026-03-11 14:02:50,openmeteo,high,2026-03-11T21:00,,22.5,24.2,21.7,23.0,83,88,72,81.0,1016.9,1020.1,1011.8,1016.7,9.3,29.4,8.0,17.5,54,79.8,0.1,2.0,0.1,1.8,42.5,93,100,0,70.9,20.6,24.1,7.6,20.9,25
ST_CL,Huyện Châu Thành - Sóc Trăng,Sóc Trăng,Châu Thành,9.7,105.9,2026-03-11 14:02:13,openmeteo,high,2026-03-11T21:00,,25.0,33.1,23.2,27.3,80,90,42,70.1,1011.6,1015.0,1008.1,1011.5,8.3,26.0,6.0,14.1,108,94.0,0.0,0.2,0.1,0.0,0.9,21,100,2,54.6,24.1,24.1,14.6,24.0,0
ST_CT,Huyện Cù Lao Dung - Sóc Trăng,Sóc Trăng,Cù Lao Dung,9.6667,106.1667,2026-03-11 14:02:13,openmeteo,high,2026-03-11T21:00,,25.2,33.2,23.8,27.4,79,87,41,69.1,1011.6,1015.0,1008.4,1011.6,10.5,28.1,7.9,17.0,94,89.2,0.0,0.0,0.0,0.0,0.0,25,100,6,53.4,24.1,24.1,16.3,24.0,5
ST_KS,Huyện Kế Sách - Sóc Trăng,Sóc Trăng,Kế Sách,9.8167,105.9833,2026-03-11 14:02:14,openmeteo,high,2026-03-11T21:00,,25.3,33.2,23.6,27.4,80,90,42,70.2,1011.6,1015.0,1008.0,1011.5,9.3,25.1,2.9,13.6,106,94.2,0.0,0.3,0.1,0.0,1.0,39,100,3,56.4,24.1,24.1,14.6,24.0,5
ST_LT,Huyện Long Phú - Sóc Trăng,Sóc Trăng,Long Phú,9.6167,106.1167,2026-03-11 14:02:14,openmeteo,high,2026-03-11T21:00,,25.2,33.2,23.8,27.4,79,87,41,69.1,1011.6,1015.0,1008.4,1011.6,10.5,28.1,7.9,17.0,94,89.2,0.0,0.0,0.0,0.0,0.0,25,100,6,53.4,24.1,24.1,19.7,24.1,5
ST_MD,Huyện Mỹ Tú - Sóc Trăng,Sóc Trăng,Mỹ Tú,9.6333,105.8167,2026-03-11 14:02:14,openmeteo,high,2026-03-11T21:00,,25.1,33.0,23.3,27.2,80,90,43,70.6,1011.6,1014.9,1008.1,1011.5,8.9,26.3,6.9,14.8,104,92.8,0.0,0.3,0.1,0.0,0.6,14,100,9,54.1,24.1,24.1,14.8,24.0,5
ST_MX,Huyện Mỹ Xuyên - Sóc Trăng,Sóc Trăng,Mỹ Xuyên,9.5333,105.9833,2026-03-11 14:02:14,openmeteo,high,2026-03-11T21:00,,25.1,32.7,24.1,27.3,81,86,44,70.6,1011.6,1015.0,1008.5,1011.6,10.5,29.8,8.6,18.0,94,89.0,0.0,0.0,0.0,0.0,0.0,19,100,9,53.1,24.1,24.1,19.7,24.1,5
ST_TN,Huyện Thạnh Trị - Sóc Trăng,Sóc Trăng,Thạnh Trị,9.4667,105.7167,2026-03-11 14:02:15,openmeteo,high,2026-03-11T21:00,,25.1,32.8,23.5,27.2,81,89,44,70.8,1011.6,1014.9,1008.1,1011.5,9.5,27.2,7.6,16.0,101,91.2,0.0,0.3,0.1,0.0,0.7,15,100,0,56.1,24.1,24.1,18.9,24.0,5
ST_TP,Huyện Trần Đề - Sóc Trăng,Sóc Trăng,Trần Đề,9.5,106.0833,2026-03-11 14:02:15,openmeteo,high,2026-03-11T21:00,,25.1,31.8,24.7,27.1,81,85,48,72.0,1011.6,1015.1,1008.8,1011.7,12.2,30.1,11.3,19.9,92,87.5,0.0,0.0,0.0,0.0,0.0,32,100,12,52.9,24.1,24.1,19.7,24.1,5
ST_ST,Thành phố Sóc Trăng - Sóc Trăng,Sóc Trăng,Sóc Trăng,9.6025,105.9739,2026-03-11 14:02:13,openmeteo,high,2026-03-11T21:00,,25.2,33.0,23.7,27.3,79,87,42,69.5,1011.6,1015.0,1008.3,1011.6,9.8,28.1,7.6,16.8,96,90.1,0.0,0.1,0.1,0.0,0.1,11,100,9,53.6,24.1,24.1,19.7,24.1,5
ST_NG,Thị xã Ngã Năm - Sóc Trăng,Sóc Trăng,Ngã Năm,9.5667,105.85,2026-03-11 14:02:13,openmeteo,high,2026-03-11T21:00,,25.1,33.0,23.3,27.2,80,90,43,70.6,1011.6,1014.9,1008.1,1011.5,8.9,26.3,6.9,14.8,104,92.8,0.0,0.3,0.1,0.0,0.6,14,100,9,54.1,24.1,24.1,18.9,24.0,5
ST_VC,Thị xã Vĩnh Châu - Sóc Trăng,Sóc Trăng,Vĩnh Châu,9.3333,105.9833,2026-03-11 14:02:14,openmeteo,high,2026-03-11T21:00,,25.4,32.3,24.9,27.3,80,85,47,70.7,1011.6,1015.0,1008.6,1011.6,12.6,30.0,11.2,19.7,92,87.4,0.0,0.0,0.0,0.0,0.0,21,100,2,51.1,24.1,24.1,19.7,24.1,5
SL_ML,Huyện Mộc Châu - Sơn La,Sơn La,Mộc Châu,20.85,104.6333,2026-03-11 14:02:28,openmeteo,high,2026-03-11T21:00,,16.6,25.4,12.5,17.6,87,98,59,82.2,1018.9,1023.1,1011.2,1018.4,6.2,13.6,0.5,5.7,69,110.0,0.0,1.7,0.1,0.5,11.4,100,100,44,85.7,24.1,24.1,0.3,22.7,10
SL_YB,Huyện Yên Châu - Sơn La,Sơn La,Yên Châu,21.05,104.3,2026-03-11 14:02:27,openmeteo,high,2026-03-11T21:00,,20.9,29.4,16.7,21.5,79,97,57,77.0,1017.7,1022.3,1010.0,1017.6,7.8,14.6,1.0,5.9,68,93.2,0.0,1.7,0.1,0.5,13.2,100,100,40,85.2,19.4,24.1,5.6,22.7,0
SL_SL,Thành phố Sơn La - Sơn La,Sơn La,Sơn La,21.3256,103.9189,2026-03-11 14:02:27,openmeteo,high,2026-03-11T21:00,,19.9,26.4,14.6,20.0,75,95,54,77.7,1016.9,1021.8,1010.1,1017.1,8.9,20.9,2.1,6.4,122,133.9,0.0,2.1,0.1,0.7,17.7,100,100,30,85.7,23.1,24.1,3.3,22.2,0
HCM_BC,Huyện Bình Chánh - TP Hồ Chí Minh,TP Hồ Chí Minh,Bình Chánh,10.7269,106.5672,2026-03-11 14:01:14,openmeteo,high,2026-03-11T21:00,,25.7,34.9,23.0,27.7,79,97,34,68.2,1010.7,1015.3,1007.4,1011.4,12.8,23.4,0.7,8.0,164,108.6,0.0,0.4,0.1,0.0,0.8,5,100,0,47.4,24.1,24.1,24.1,24.1,5
HCM_CG,Huyện Cần Giờ - TP Hồ Chí Minh,TP Hồ Chí Minh,Cần Giờ,10.4111,106.9547,2026-03-11 14:01:15,openmeteo,high,2026-03-11T21:00,,26.0,32.2,24.4,27.4,75,82,47,68.8,1010.9,1015.3,1008.4,1011.5,11.9,19.8,0.8,10.3,115,101.0,0.0,0.2,0.1,0.0,0.5,0,100,0,51.5,24.1,24.1,24.1,24.1,5
HCM_CC,Huyện Củ Chi - TP Hồ Chí Minh,TP Hồ Chí Minh,Củ Chi,10.9733,106.4939,2026-03-11 14:01:14,openmeteo,high,2026-03-11T21:00,,26.0,35.6,22.7,27.8,78,93,34,67.2,1010.5,1015.3,1007.3,1011.3,12.3,18.6,0.0,6.2,177,86.7,0.0,0.0,0.0,0.0,0.0,6,100,0,41.7,24.1,24.1,21.5,24.1,5
HCM_HM,Huyện Hóc Môn - TP Hồ Chí Minh,TP Hồ Chí Minh,Hóc Môn,10.8894,106.5953,2026-03-11 14:01:14,openmeteo,high,2026-03-11T21:00,,25.9,36.1,22.9,27.8,77,93,31,66.9,1010.6,1015.3,1007.3,1011.3,11.4,19.3,0.4,6.6,169,111.1,0.0,0.0,0.0,0.0,0.0,0,100,0,44.8,24.1,24.1,21.5,24.1,5
HCM_NB,Huyện Nhà Bè - TP Hồ Chí Minh,TP Hồ Chí Minh,Nhà Bè,10.6956,106.735,2026-03-11 14:01:15,openmeteo,high,2026-03-11T21:00,,25.8,34.9,23.4,27.7,75,95,36,67.4,1010.7,1015.2,1007.7,1011.4,10.8,22.3,0.5,7.9,159,116.8,0.0,0.3,0.1,0.0,0.6,0,100,0,50.6,24.1,24.1,24.1,24.1,5
HCM_1,Quận 1 - TP Hồ Chí Minh,TP Hồ Chí Minh,Quận 1,10.7757,106.7004,2026-03-11 14:01:10,statistical,medium,2026-03-11T14:01:10.485047,,35.4,36.2,26.5,31.4,66,84,65,73.3,1017.0,1020.0,1005.0,1012.5,4.4,5.9,1.0,3.4,285,60.5,0.0,6.4,1.1,0.7,17.9,48,70,47,58.2,13.6,15.8,11.1,13.3,10
HCM_10,Quận 10 - TP Hồ Chí Minh,TP Hồ Chí Minh,Quận 10,10.7679,106.6668,2026-03-11 14:01:09,openmeteo,high,2026-03-11T21:00,,25.6,34.9,23.0,27.6,79,97,34,68.2,1010.7,1015.3,1007.4,1011.4,12.8,23.4,0.7,8.0,164,108.6,0.0,0.4,0.1,0.0,0.8,5,100,0,47.4,24.1,24.1,24.1,24.1,5
HCM_11,Quận 11 - TP Hồ Chí Minh,TP Hồ Chí Minh,Quận 11,10.7639,106.6474,2026-03-11 14:01:10,openmeteo,high,2026-03-11T21:00,,25.6,34.9,23.0,27.6,79,97,34,68.2,1010.7,1015.3,1007.4,1011.4,12.8,23.4,0.7,8.0,164,108.6,0.0,0.4,0.1,0.0,0.8,5,100,0,47.4,24.1,24.1,24.1,24.1,5
HCM_12,Quận 12 - TP Hồ Chí Minh,TP Hồ Chí Minh,Quận 12,10.8642,106.6543,2026-03-11 14:01:11,openmeteo,high,2026-03-11T21:00,,25.9,36.1,22.9,27.8,77,93,31,66.9,1010.6,1015.3,1007.3,1011.3,11.4,19.3,0.4,6.6,169,111.1,0.0,0.0,0.0,0.0,0.0,0,100,0,44.8,24.1,24.1,24.1,24.1,5
HCM_2,Quận 2 - TP Hồ Chí Minh,TP Hồ Chí Minh,Quận 2,10.7872,106.7498,2026-03-11 14:01:01,openmeteo,high,2026-03-11T21:00,,25.8,34.9,23.4,27.7,75,95,36,67.4,1010.7,1015.2,1007.7,1011.4,10.8,22.3,0.5,7.9,159,116.8,0.0,0.3,0.1,0.0,0.6,0,100,0,50.6,24.1,24.1,24.1,24.1,5
HCM_3,Quận 3 - TP Hồ Chí Minh,TP Hồ Chí Minh,Quận 3,10.7823,106.6848,2026-03-11 14:01:01,openmeteo,high,2026-03-11T21:00,,25.6,34.9,23.0,27.6,79,97,34,68.2,1010.7,1015.3,1007.4,1011.4,12.8,23.4,0.7,8.0,164,108.6,0.0,0.4,0.1,0.0,0.8,5,100,0,47.4,24.1,24.1,24.1,24.1,5
HCM_4,Quận 4 - TP Hồ Chí Minh,TP Hồ Chí Minh,Quận 4,10.7642,106.7053,2026-03-11 14:01:11,statistical,medium,2026-03-11T14:01:11.552242,,32.4,34.6,23.7,28.8,70,84,65,74.5,1007.0,1020.0,1005.0,1012.1,4.4,5.7,1.1,2.9,168,322.3,0.0,7.8,1.9,1.3,31.8,58,73,50,60.0,14.9,15.3,10.0,12.7,10
HCM_5,Quận 5 - TP Hồ Chí Minh,TP Hồ Chí Minh,Quận 5,10.754,106.669,2026-03-11 14:01:11,openmeteo,high,2026-03-11T21:00,,25.6,34.8,22.9,27.6,79,97,34,68.2,1010.7,1015.3,1007.4,1011.4,12.8,23.4,0.7,8.0,164,108.6,0.0,0.4,0.1,0.0,0.8,5,100,0,47.4,24.1,24.1,24.1,24.1,5
HCM_6,Quận 6 - TP Hồ Chí Minh,TP Hồ Chí Minh,Quận 6,10.7464,106.6492,2026-03-11 14:01:13,statistical,medium,2026-03-11T14:01:13.121220,,34.3,35.1,26.8,30.9,70,84,65,73.5,1006.0,1020.0,1005.0,1012.3,1.5,5.9,1.2,2.9,302,327.2,0.0,5.8,2.0,0.7,16.1,54,74,42,55.9,13.8,15.5,10.0,13.1,10
HCM_7,Quận 7 - TP Hồ Chí Minh,TP Hồ Chí Minh,Quận 7,10.7329,106.7269,2026-03-11 14:01:04,openmeteo,high,2026-03-11T21:00,,25.8,34.9,23.4,27.7,75,95,36,67.4,1010.7,1015.2,1007.7,1011.4,10.8,22.3,0.5,7.9,159,116.8,0.0,0.3,0.1,0.0,0.6,0,100,0,50.6,24.1,24.1,24.1,24.1,5
HCM_8,Quận 8 - TP Hồ Chí Minh,TP Hồ Chí Minh,Quận 8,10.7241,106.6286,2026-03-11 14:01:06,openmeteo,high,2026-03-11T21:00,,25.6,34.9,23.0,27.6,79,97,34,68.2,1010.7,1015.3,1007.4,1011.4,12.8,23.4,0.7,8.0,164,108.6,0.0,0.4,0.1,0.0,0.8,5,100,0,47.4,24.1,24.1,24.1,24.1,5
HCM_9,Quận 9 - TP Hồ Chí Minh,TP Hồ Chí Minh,Quận 9,10.8428,106.8287,2026-03-11 14:01:07,openmeteo,high,2026-03-11T21:00,,26.1,35.6,22.9,27.9,74,93,33,67.1,1010.6,1015.2,1007.6,1011.3,10.0,20.4,0.7,6.5,159,131.5,0.0,0.3,0.1,0.1,1.2,4,100,0,49.1,24.1,24.1,24.1,24.1,5
HCM_BT2,Quận Bình Thạnh - TP Hồ Chí Minh,TP Hồ Chí Minh,Bình Thạnh,10.801,106.6959,2026-03-11 14:01:13,openmeteo,high,2026-03-11T21:00,,25.8,34.8,23.4,27.7,75,95,36,67.4,1010.7,1015.2,1007.7,1011.4,10.8,22.3,0.5,7.9,159,116.8,0.0,0.3,0.1,0.0,0.6,0,100,0,50.6,24.1,24.1,24.1,24.1,5
HCM_BT,Quận Bình Tân - TP Hồ Chí Minh,TP Hồ Chí Minh,Bình Tân,10.7654,106.6032,2026-03-11 14:01:13,openmeteo,high,2026-03-11T21:00,,25.6,34.9,23.0,27.6,79,97,34,68.2,1010.7,1015.3,1007.4,1011.4,12.8,23.4,0.7,8.0,164,108.6,0.0,0.4,0.1,0.0,0.8,5,100,0,47.4,24.1,24.1,24.1,24.1,5
HCM_GB,Quận Gò Vấp - TP Hồ Chí Minh,TP Hồ Chí Minh,Gò Vấp,10.8383,106.6653,2026-03-11 14:01:12,openmeteo,high,2026-03-11T21:00,,25.9,36.1,22.9,27.8,77,93,31,66.9,1010.6,1015.3,1007.3,1011.3,11.4,19.3,0.4,6.6,169,111.1,0.0,0.0,0.0,0.0,0.0,0,100,0,44.8,24.1,24.1,24.1,24.1,5
HCM_PN,Quận Phú Nhuận - TP Hồ Chí Minh,TP Hồ Chí Minh,Phú Nhuận,10.7992,106.6753,2026-03-11 14:01:14,openmeteo,high,2026-03-11T21:00,,25.6,34.8,22.9,27.6,79,97,34,68.2,1010.7,1015.3,1007.4,1011.4,12.8,23.4,0.7,8.0,164,108.6,0.0,0.4,0.1,0.0,0.8,5,100,0,47.4,24.1,24.1,24.1,24.1,5
HCM_TB,Quận Tân Bình - TP Hồ Chí Minh,TP Hồ Chí Minh,Tân Bình,10.8014,106.6526,2026-03-11 14:01:13,openmeteo,high,2026-03-11T21:00,,25.6,34.9,23.0,27.6,79,97,34,68.2,1010.7,1015.3,1007.4,1011.4,12.8,23.4,0.7,8.0,164,108.6,0.0,0.4,0.1,0.0,0.8,5,100,0,47.4,24.1,24.1,24.1,24.1,5
HCM_TP,Quận Tân Phú - TP Hồ Chí Minh,TP Hồ Chí Minh,Tân Phú,10.7902,106.6289,2026-03-11 14:01:12,openmeteo,high,2026-03-11T21:00,,25.6,34.9,23.0,27.6,79,97,34,68.2,1010.7,1015.3,1007.4,1011.4,12.8,23.4,0.7,8.0,164,108.6,0.0,0.4,0.1,0.0,0.8,5,100,0,47.4,24.1,24.1,24.1,24.1,5
HCM_TD,Thành phố Thủ Đức - TP Hồ Chí Minh,TP Hồ Chí Minh,Thủ Đức,10.8494,106.7717,2026-03-11 14:01:14,openmeteo,high,2026-03-11T21:00,,25.8,36.0,22.8,27.7,77,93,31,66.9,1010.6,1015.3,1007.3,1011.3,11.4,19.3,0.4,6.6,169,111.1,0.0,0.0,0.0,0.0,0.0,0,100,0,44.8,24.1,24.1,24.1,24.1,5
TH_NC,Huyện Nghi Sơn - Thanh Hóa,Thanh Hóa,Nghi Sơn,19.45,105.7833,2026-03-11 14:02:18,openmeteo,high,2026-03-11T21:00,,18.6,27.0,16.2,20.6,86,100,60,83.4,1018.7,1022.0,1011.5,1018.0,0.4,13.0,0.4,4.5,360,18.1,0.0,0.2,0.1,0.0,0.9,91,100,41,81.4,24.1,24.1,14.6,23.9,10
TH_TH,Thành phố Thanh Hóa - Thanh Hóa,Thanh Hóa,Thanh Hóa,19.8,105.7667,2026-03-11 14:02:17,openmeteo,high,2026-03-11T21:00,,18.6,26.8,15.8,20.6,88,100,57,82.9,1018.7,1022.1,1011.3,1018.0,1.8,13.5,0.0,4.4,169,48.3,0.0,0.1,0.1,0.0,1.1,98,100,36,81.8,24.1,24.1,17.4,23.9,10
TH_BT,Thị xã Bỉm Sơn - Thanh Hóa,Thanh Hóa,Bỉm Sơn,20.0781,105.8603,2026-03-11 14:02:18,openmeteo,high,2026-03-11T21:00,,19.0,27.3,16.0,21.0,85,100,50,81.3,1018.5,1022.1,1011.5,1018.0,2.6,15.1,0.0,4.8,124,78.5,0.0,0.1,0.1,0.0,0.4,100,100,20,79.7,24.1,24.1,23.9,24.1,0
TH_SL,Thị xã Sầm Sơn - Thanh Hóa,Thanh Hóa,Sầm Sơn,19.7333,105.9,2026-03-11 14:02:18,openmeteo,high,2026-03-11T21:00,,18.8,27.4,16.2,21.0,88,100,53,81.8,1018.5,1022.0,1011.4,1017.9,1.6,12.3,0.4,4.1,153,68.0,0.0,0.1,0.1,0.0,1.0,100,100,22,78.0,24.1,24.1,17.4,23.9,10
TB_HH,Huyện Hưng Hà - Thái Bình,Thái Bình,Hưng Hà,20.6,106.2167,2026-03-11 14:01:27,openmeteo,high,2026-03-11T21:00,,18.6,26.5,16.0,20.9,82,98,50,81.1,1018.5,1022.2,1011.5,1018.0,6.8,17.7,0.4,6.7,122,101.0,0.0,0.2,0.1,0.1,1.5,100,100,0,79.7,24.1,24.1,11.9,23.9,0
TB_KL,Huyện Kiến Xương - Thái Bình,Thái Bình,Kiến Xương,20.4,106.4167,2026-03-11 14:01:28,openmeteo,high,2026-03-11T21:00,,18.2,25.7,15.5,20.8,86,99,54,82.3,1018.5,1022.0,1011.9,1018.0,4.9,18.7,1.1,7.4,107,82.7,0.0,0.2,0.1,0.0,1.2,100,100,9,79.0,24.1,24.1,15.5,24.0,10
TB_QH,Huyện Quỳnh Phụ - Thái Bình,Thái Bình,Quỳnh Phụ,20.65,106.3333,2026-03-11 14:01:28,openmeteo,high,2026-03-11T21:00,,18.3,26.3,15.2,20.7,83,98,49,81.6,1018.5,1022.2,1011.7,1018.0,6.9,19.2,1.0,7.6,118,97.7,0.0,0.2,0.1,0.1,1.5,100,100,0,79.4,24.1,24.1,15.5,23.9,0
TB_TT,Huyện Thái Thụy - Thái Bình,Thái Bình,Thái Thụy,20.5333,106.5333,2026-03-11 14:01:28,openmeteo,high,2026-03-11T21:00,,18.1,25.8,15.1,20.7,86,98,54,81.7,1018.5,1022.1,1012.0,1018.0,5.7,19.9,2.3,8.5,108,87.2,0.0,0.3,0.2,0.1,1.5,100,100,4,77.7,24.1,24.1,15.5,24.0,10
TB_VT,Huyện Vũ Thư - Thái Bình,Thái Bình,Vũ Thư,20.4333,106.2833,2026-03-11 14:01:28,openmeteo,high,2026-03-11T21:00,,18.3,26.2,15.4,20.8,85,99,51,82.2,1018.5,1022.1,1011.8,1018.0,4.6,19.1,0.7,6.9,108,80.0,0.0,0.2,0.1,0.1,1.3,100,100,20,79.7,24.1,24.1,11.9,23.9,0
TB_DH,Huyện Đông Hưng - Thái Bình,Thái Bình,Đông Hưng,20.55,106.35,2026-03-11 14:01:27,openmeteo,high,2026-03-11T21:00,,18.2,25.7,15.5,20.7,85,98,54,82.2,1018.5,1022.1,1011.9,1018.0,5.5,18.1,0.8,7.2,113,87.2,0.0,0.3,0.1,0.1,1.5,100,100,10,78.6,24.1,24.1,11.9,23.9,0
TB_TP,Thành phố Thái Bình - Thái Bình,Thái Bình,Thái Bình,20.4461,106.3366,2026-03-11 14:01:27,openmeteo,high,2026-03-11T21:00,,18.2,25.7,15.5,20.7,85,98,54,82.2,1018.5,1022.1,1011.9,1018.0,5.5,18.1,0.8,7.2,113,87.2,0.0,0.3,0.1,0.1,1.5,100,100,10,78.6,24.1,24.1,11.9,23.9,0
TN_DD,Huyện Định Hóa - Thái Nguyên,Thái Nguyên,Định Hóa,21.9,105.6333,2026-03-11 14:02:32,openmeteo,high,2026-03-11T21:00,,19.6,24.3,15.2,19.8,80,93,54,79.2,1018.6,1022.8,1011.2,1018.2,1.5,13.0,0.8,5.5,256,109.2,0.0,0.1,0.1,0.0,0.3,100,100,59,90.9,24.1,24.1,10.6,23.7,0
TN_SC,Thành phố Sông Công - Thái Nguyên,Thái Nguyên,Sông Công,21.4833,105.85,2026-03-11 14:02:32,openmeteo,high,2026-03-11T21:00,,20.0,25.9,15.7,20.5,79,93,46,78.5,1018.4,1022.6,1011.3,1018.2,1.9,14.0,0.0,5.4,248,150.8,0.0,0.2,0.1,0.1,2.7,100,100,53,89.2,24.1,24.1,15.9,23.8,0
TN_TN,Thành phố Thái Nguyên - Thái Nguyên,Thái Nguyên,Thái Nguyên,21.5928,105.8442,2026-03-11 14:02:32,openmeteo,high,2026-03-11T21:00,,20.9,26.3,16.3,21.3,77,95,41,76.2,1018.3,1022.6,1011.1,1018.0,0.8,17.6,0.4,6.3,153,127.0,0.0,0.2,0.1,0.1,1.5,100,100,53,89.1,24.1,24.1,15.9,23.8,0
TTH_AD,Huyện A Lưới - Thừa Thiên Huế,Thừa Thiên Huế,A Lưới,16.2333,107.3,2026-03-11 14:01:31,openmeteo,high,2026-03-11T21:00,,18.2,26.4,16.5,19.2,92,99,56,85.4,1017.7,1020.7,1012.0,1017.5,5.8,15.5,3.0,7.6,68,82.8,0.0,0.3,0.1,0.0,1.0,97,100,15,80.1,0.2,24.1,0.1,9.9,10
TTH_NL,Huyện Nam Đông - Thừa Thiên Huế,Thừa Thiên Huế,Nam Đông,16.1667,107.7,2026-03-11 14:01:31,openmeteo,high,2026-03-11T21:00,,20.6,29.8,17.6,21.5,94,99,51,87.1,1017.1,1020.3,1011.0,1016.8,2.6,9.8,0.4,3.8,16,23.8,0.0,1.7,0.1,0.7,16.2,91,100,16,80.5,15.1,24.1,0.3,20.1,10
TTH_PD,Huyện Phong Điền - Thừa Thiên Huế,Thừa Thiên Huế,Phong Điền,16.5833,107.35,2026-03-11 14:01:32,openmeteo,high,2026-03-11T21:00,,21.6,27.7,19.3,22.2,89,98,67,87.0,1016.8,1019.9,1011.4,1016.6,2.9,19.4,0.7,7.8,83,100.8,0.0,1.4,0.1,1.0,23.8,93,100,0,71.0,13.4,24.1,0.4,16.4,10
TTH_PL,Huyện Phú Lộc - Thừa Thiên Huế,Thừa Thiên Huế,Phú Lộc,16.2667,107.9,2026-03-11 14:01:31,openmeteo,high,2026-03-11T21:00,,21.3,30.4,18.6,22.6,95,98,54,85.4,1016.9,1020.0,1011.1,1016.7,2.6,12.0,0.0,4.4,56,86.1,0.0,1.1,0.1,0.6,13.3,86,100,0,74.1,24.1,24.1,2.5,19.6,10
TTH_QD,Huyện Quảng Điền - Thừa Thiên Huế,Thừa Thiên Huế,Quảng Điền,16.5833,107.5,2026-03-11 14:01:32,openmeteo,high,2026-03-11T21:00,,21.1,27.9,17.6,21.8,92,100,64,87.5,1016.8,1019.9,1011.3,1016.6,1.8,16.0,0.5,5.8,79,117.0,0.0,1.6,0.1,0.9,21.4,86,100,0,74.8,24.1,24.1,7.1,21.0,10
TTH_H,Thành phố Huế - Thừa Thiên Huế,Thừa Thiên Huế,Huế,16.4637,107.5909,2026-03-11 14:01:30,openmeteo,high,2026-03-11T21:00,,21.5,26.8,19.1,22.3,91,97,70,86.5,1016.7,1019.9,1011.3,1016.5,5.1,20.4,1.3,8.8,86,95.8,0.0,1.1,0.1,1.1,25.7,86,100,0,71.7,24.1,24.1,7.1,21.0,10
TTH_HL,Thị xã Hương Thủy - Thừa Thiên Huế,Thừa Thiên Huế,Hương Thủy,16.4167,107.7167,2026-03-11 14:01:31,openmeteo,high,2026-03-11T21:00,,21.4,28.7,18.1,22.4,92,97,62,85.3,1016.7,1019.8,1011.1,1016.5,2.6,16.6,0.0,5.6,56,94.0,0.0,1.2,0.1,0.8,19.1,92,100,0,72.9,24.1,24.1,7.1,21.7,10
TTH_HT,Thị xã Hương Trà - Thừa Thiên Huế,Thừa Thiên Huế,Hương Trà,16.5,107.4833,2026-03-11 14:01:30,openmeteo,high,2026-03-11T21:00,,21.2,27.9,17.7,21.8,92,100,64,87.5,1016.8,1019.9,1011.3,1016.6,1.8,16.0,0.5,5.8,79,117.0,0.0,1.6,0.1,0.9,21.4,86,100,0,74.8,24.1,24.1,7.1,21.0,10
TG_CB,Huyện Cai Lậy - Tiền Giang,Tiền Giang,Cai Lậy,10.4,106.1167,2026-03-11 14:02:04,openmeteo,high,2026-03-11T21:00,,25.9,33.5,23.7,27.6,78,91,43,70.3,1011.3,1015.1,1007.9,1011.5,12.2,22.2,0.7,11.0,133,97.0,0.0,1.8,0.1,0.1,3.4,24,100,0,55.9,24.1,24.1,10.5,24.0,5
TG_CL,Huyện Châu Thành - Tiền Giang,Tiền Giang,Châu Thành,10.45,106.25,2026-03-11 14:02:03,openmeteo,high,2026-03-11T21:00,,25.4,33.8,23.0,27.4,79,94,41,70.5,1011.0,1015.3,1007.8,1011.4,12.5,21.0,1.1,9.3,147,97.6,0.0,0.3,0.1,0.0,0.5,0,100,0,51.8,24.1,24.1,22.6,24.1,5
TG_CL2,Huyện Chợ Gạo - Tiền Giang,Tiền Giang,Chợ Gạo,10.35,106.4667,2026-03-11 14:02:04,openmeteo,high,2026-03-11T21:00,,25.6,33.4,23.5,27.4,78,89,42,70.1,1011.3,1015.2,1008.4,1011.5,11.4,24.5,1.8,12.1,125,96.9,0.0,0.2,0.1,0.0,0.5,18,100,0,54.2,24.1,24.1,24.1,24.1,5
TG_CT,Huyện Cái Bè - Tiền Giang,Tiền Giang,Cái Bè,10.3333,105.95,2026-03-11 14:02:03,openmeteo,high,2026-03-11T21:00,,25.6,34.1,22.8,27.5,78,94,41,70.4,1011.1,1015.3,1007.7,1011.4,11.8,20.8,0.8,9.7,142,95.9,0.0,1.1,0.1,0.1,3.5,5,99,0,54.9,24.1,24.1,17.3,24.1,5
TG_GC,Huyện Gò Công Tây - Tiền Giang,Tiền Giang,Gò Công Tây,10.35,106.6,2026-03-11 14:02:03,openmeteo,high,2026-03-11T21:00,,25.7,33.3,23.3,27.3,77,90,43,70.5,1011.2,1015.3,1008.4,1011.5,11.2,25.4,1.5,12.0,130,97.2,0.0,0.8,0.1,0.0,1.0,6,100,0,54.1,24.1,24.1,24.1,24.1,5
TG_GD,Huyện Gò Công Đông - Tiền Giang,Tiền Giang,Gò Công Đông,10.3667,106.7167,2026-03-11 14:02:03,openmeteo,high,2026-03-11T21:00,,25.5,32.3,23.1,27.0,77,89,50,71.8,1011.1,1015.3,1008.7,1011.6,12.6,26.3,1.1,14.1,114,94.0,0.0,0.0,0.0,0.0,0.0,6,100,0,52.2,24.1,24.1,24.1,24.1,5
TG_TP,Huyện Tân Phú Đông - Tiền Giang,Tiền Giang,Tân Phú Đông,10.25,106.6,2026-03-11 14:02:03,openmeteo,high,2026-03-11T21:00,,25.8,32.6,24.3,27.3,76,87,48,70.7,1011.3,1015.3,1008.8,1011.6,13.9,26.0,3.8,15.4,107,91.9,0.0,0.4,0.4,0.0,0.4,33,100,0,53.3,24.1,24.1,24.1,24.1,5
TG_TL,Huyện Tân Phước - Tiền Giang,Tiền Giang,Tân Phước,10.5,106.15,2026-03-11 14:02:04,openmeteo,high,2026-03-11T21:00,,25.7,34.0,22.9,27.3,77,94,40,70.9,1010.9,1015.3,1007.6,1011.4,13.1,19.3,1.0,8.8,148,92.3,0.0,0.3,0.1,0.0,0.8,7,100,0,52.5,24.1,24.1,22.6,24.1,5
TG_MT,Thành phố Mỹ Tho - Tiền Giang,Tiền Giang,Mỹ Tho,10.35,106.35,2026-03-11 14:02:02,openmeteo,high,2026-03-11T21:00,,25.4,33.7,23.1,27.4,79,92,41,70.3,1011.2,1015.2,1008.2,1011.5,11.5,22.3,0.5,10.9,134,96.3,0.0,0.2,0.1,0.0,1.0,13,100,0,55.6,24.1,24.1,11.7,24.0,5
TG_GL,Thị xã Gò Công - Tiền Giang,Tiền Giang,Gò Công,10.3667,106.6667,2026-03-11 14:02:02,openmeteo,high,2026-03-11T21:00,,25.7,33.3,23.3,27.3,77,90,43,70.5,1011.2,1015.3,1008.4,1011.5,11.2,25.4,1.5,12.0,130,97.2,0.0,0.8,0.1,0.0,1.0,6,100,0,54.1,24.1,24.1,24.1,24.1,5
TV_CL,Huyện Càng Long - Trà Vinh,Trà Vinh,Càng Long,9.9667,106.2,2026-03-11 14:02:47,openmeteo,high,2026-03-11T21:00,,25.3,33.2,23.9,27.4,79,90,42,69.8,1011.5,1015.1,1008.3,1011.6,10.4,26.4,6.3,14.6,104,94.3,0.0,0.3,0.1,0.0,0.4,47,100,11,55.2,24.1,24.1,22.2,24.1,5
TV_CN,Huyện Cầu Ngang - Trà Vinh,Trà Vinh,Cầu Ngang,9.8,106.4333,2026-03-11 14:02:47,openmeteo,high,2026-03-11T21:00,,25.1,32.4,24.2,27.1,81,87,46,71.0,1011.6,1015.2,1008.8,1011.7,11.5,28.4,8.3,17.6,92,89.1,0.0,0.0,0.0,0.0,0.0,39,100,0,53.4,24.1,24.1,24.1,24.1,5
TV_TV,Thành phố Trà Vinh - Trà Vinh,Trà Vinh,Trà Vinh,9.9347,106.3453,2026-03-11 14:02:46,openmeteo,high,2026-03-11T21:00,,25.3,32.8,24.4,27.3,79,87,44,70.0,1011.6,1015.2,1008.7,1011.7,11.6,28.1,8.0,17.0,95,91.1,0.0,0.0,0.0,0.0,0.0,43,100,0,55.6,24.1,24.1,22.2,24.1,5
TQ_LB,Huyện Lâm Bình - Tuyên Quang,Tuyên Quang,Lâm Bình,22.4667,105.2167,2026-03-11 14:02:33,openmeteo,high,2026-03-11T21:00,,18.4,24.5,16.0,19.5,89,94,55,83.7,1018.9,1022.8,1011.0,1018.2,2.6,10.4,0.4,3.2,214,155.5,0.0,0.1,0.1,0.0,1.2,100,100,73,95.0,24.1,24.1,13.2,23.7,10
TQ_NH,Huyện Na Hang - Tuyên Quang,Tuyên Quang,Na Hang,22.35,105.3833,2026-03-11 14:02:33,openmeteo,high,2026-03-11T21:00,,19.7,25.2,16.2,20.6,86,94,55,82.0,1018.9,1023.0,1011.2,1018.2,2.8,10.9,0.4,3.6,220,163.4,0.0,0.1,0.1,0.0,0.3,100,100,72,93.9,24.1,24.1,11.1,23.7,10
TQ_TQ,Thành phố Tuyên Quang - Tuyên Quang,Tuyên Quang,Tuyên Quang,21.8181,105.2144,2026-03-11 14:02:32,openmeteo,high,2026-03-11T21:00,,20.8,27.1,17.8,21.5,82,97,57,79.8,1018.5,1022.7,1010.5,1017.8,1.8,13.5,0.7,5.2,217,150.3,0.0,0.2,0.1,0.1,2.7,100,100,68,94.0,24.1,24.1,8.7,23.9,0
TN_TB,Huyện Tân Biên - Tây Ninh,Tây Ninh,Tân Biên,11.55,105.9667,2026-03-11 14:02:46,openmeteo,high,2026-03-11T21:00,,27.5,35.1,21.8,28.1,61,95,34,64.7,1010.1,1015.3,1007.1,1011.3,2.9,13.1,0.0,5.3,7,28.5,0.0,0.1,0.1,0.0,0.2,56,91,0,45.7,24.1,24.1,21.4,24.1,5
TN_TC,Huyện Tân Châu - Tây Ninh,Tây Ninh,Tân Châu,11.3333,106.1667,2026-03-11 14:02:46,openmeteo,high,2026-03-11T21:00,,28.6,35.5,22.2,28.3,60,94,33,64.7,1010.3,1015.3,1007.1,1011.3,6.8,15.2,0.4,6.3,155,54.7,0.0,0.0,0.0,0.0,0.0,67,95,0,45.0,24.1,24.1,16.0,24.0,5
TN_TN2,Thành phố Tây Ninh - Tây Ninh,Tây Ninh,Tây Ninh,11.3131,106.0963,2026-03-11 14:02:46,openmeteo,high,2026-03-11T21:00,,28.6,35.6,22.3,28.4,60,94,33,64.7,1010.3,1015.3,1007.1,1011.3,6.8,15.2,0.4,6.3,155,54.7,0.0,0.0,0.0,0.0,0.0,67,95,0,45.0,24.1,24.1,15.4,24.0,5
VL_BT,Huyện Bình Tân - Vĩnh Long,Vĩnh Long,Bình Tân,10.0833,105.7667,2026-03-11 14:02:07,openmeteo,high,2026-03-11T21:00,,26.1,33.7,23.1,27.5,77,93,42,70.1,1011.3,1015.1,1007.8,1011.5,10.7,21.1,0.5,10.3,130,98.8,0.0,1.2,0.1,0.1,2.8,30,100,5,57.8,24.1,24.1,20.0,24.1,5
VL_LH,Huyện Long Hồ - Vĩnh Long,Vĩnh Long,Long Hồ,10.2,106.0167,2026-03-11 14:02:07,openmeteo,high,2026-03-11T21:00,,25.3,33.6,22.9,27.3,80,94,42,70.9,1011.3,1015.2,1007.8,1011.5,10.7,21.8,1.3,10.1,132,99.5,0.0,1.1,0.1,0.1,2.8,27,97,0,56.6,24.1,24.1,17.3,24.1,5
VL_MT,Huyện Mang Thít - Vĩnh Long,Vĩnh Long,Mang Thít,10.1833,106.1,2026-03-11 14:02:08,openmeteo,high,2026-03-11T21:00,,25.2,33.6,23.3,27.5,79,91,42,69.5,1011.4,1015.2,1008.1,1011.5,9.8,23.6,2.9,12.2,118,96.3,0.0,0.9,0.1,0.1,3.0,55,100,0,56.3,24.1,24.1,17.3,24.1,5
VL_TL,Huyện Tam Bình - Vĩnh Long,Vĩnh Long,Tam Bình,10.0667,105.9833,2026-03-11 14:02:08,openmeteo,high,2026-03-11T21:00,,25.1,33.3,23.1,27.3,81,93,43,70.5,1011.4,1015.1,1007.9,1011.5,10.0,23.3,1.1,11.1,128,98.9,0.0,1.4,0.1,0.2,3.8,35,98,6,57.5,24.1,24.1,17.3,24.0,5
VL_TR,Huyện Trà Ôn - Vĩnh Long,Vĩnh Long,Trà Ôn,9.9667,105.8833,2026-03-11 14:02:08,openmeteo,high,2026-03-11T21:00,,25.6,32.7,23.6,27.3,80,91,47,71.3,1011.5,1015.1,1008.0,1011.5,10.0,22.0,0.5,11.8,120,97.0,0.0,1.7,0.1,0.2,4.4,45,100,0,57.4,24.1,24.1,17.3,24.0,5
VL_VT,Huyện Vũng Liêm - Vĩnh Long,Vĩnh Long,Vũng Liêm,10.0833,106.1667,2026-03-11 14:02:08,openmeteo,high,2026-03-11T21:00,,25.2,33.6,23.3,27.5,79,91,42,69.5,1011.4,1015.2,1008.1,1011.5,9.8,23.6,2.9,12.2,118,96.3,0.0,0.9,0.1,0.1,3.0,55,100,0,56.3,24.1,24.1,22.2,24.1,5
