station_id,station_name,province,district,latitude,longitude,timestamp,data_source,data_quality,data_time,error_reason,temperature_current,temperature_max,temperature_min,temperature_avg,humidity_current,humidity_max,humidity_min,humidity_avg,pressure_current,pressure_max,pressure_min,pressure_avg,wind_speed_current,wind_speed_max,wind_speed_min,wind_speed_avg,wind_direction_current,wind_direction_avg,rain_current,rain_max,rain_min,rain_avg,rain_total,cloud_cover_current,cloud_cover_max,cloud_cover_min,cloud_cover_avg,visibility_current,visibility_max,visibility_min,visibility_avg,thunder_probability
AG_AT,Huyện An Phú - An Giang,An Giang,An Phú,10.8333,105.0833,2026-03-10 15:53:47,openmeteo,high,2026-03-10T15:45,,33.8,34.8,22.3,28.2,42,92,36,66.7,1009.3,1015.0,1007.2,1011.4,14.9,18.1,0.4,6.8,53,84.6,0.0,0.3,0.1,0.0,1.0,56,100,0,49.9,24.1,24.1,3.2,23.8,10
AG_CL,Huyện Châu Phú - An Giang,An Giang,Châu Phú,10.5667,105.1667,2026-03-10 15:53:49,openmeteo,high,2026-03-10T15:45,,33.6,34.7,22.3,28.1,43,92,39,67.3,1009.3,1014.9,1007.4,1011.5,10.8,15.3,0.4,6.8,69,89.1,0.0,0.2,0.1,0.0,0.7,56,95,4,54.1,24.1,24.1,6.3,23.8,10
AG_CP,Huyện Châu Thành - An Giang,An Giang,Châu Thành,10.45,105.25,2026-03-10 15:53:48,openmeteo,high,2026-03-10T15:45,,33.1,34.1,22.0,27.6,46,94,41,71.2,1009.4,1014.8,1007.4,1011.5,9.4,17.7,0.4,6.9,92,92.6,0.0,0.3,0.1,0.0,1.0,55,89,6,52.4,24.1,24.1,6.3,23.8,10
AG_CT,Huyện Chợ Mới - An Giang,An Giang,Chợ Mới,10.5333,105.3833,2026-03-10 15:53:50,openmeteo,high,2026-03-10T15:45,,33.2,34.2,22.0,27.8,46,95,41,70.3,1009.3,1014.8,1007.3,1011.4,8.6,16.2,0.4,6.6,90,94.4,0.0,0.6,0.1,0.1,1.5,70,91,0,53.0,24.1,24.1,10.8,23.8,10
AG_PT,Huyện Phú Tân - An Giang,An Giang,Phú Tân,10.65,105.2833,2026-03-10 15:54:00,statistical,medium,2026-03-10T15:54:00.015355,,30.7,34.0,24.4,28.9,75,85,66,75.4,1006.0,1019.0,1005.0,1011.2,3.1,5.8,1.3,3.6,353,322.7,0.0,7.3,0.1,0.6,13.8,65,75,46,59.4,12.0,15.4,10.3,12.9,10
AG_TV,Huyện Thoại Sơn - An Giang,An Giang,Thoại Sơn,10.2667,105.2667,2026-03-10 15:53:51,openmeteo,high,2026-03-10T15:45,,32.6,34.2,22.6,27.6,51,94,43,70.9,1009.5,1014.7,1007.4,1011.4,7.6,19.6,1.5,7.8,109,94.1,0.0,1.4,0.1,0.1,3.2,68,89,7,55.7,24.1,24.1,6.0,23.8,10
AG_TX,Huyện Tri Tôn - An Giang,An Giang,Tri Tôn,10.4167,105.0,2026-03-10 15:53:54,openmeteo,high,2026-03-10T15:45,,33.0,34.4,22.9,28.1,46,90,40,68.9,1009.5,1014.8,1007.4,1011.5,11.3,17.7,0.4,7.4,83,92.9,0.0,0.4,0.1,0.0,1.0,64,93,4,56.3,24.1,24.1,4.6,23.8,10
AG_TN,Huyện Tịnh Biên - An Giang,An Giang,Tịnh Biên,10.55,105.0,2026-03-10 15:53:51,openmeteo,high,2026-03-10T15:45,,33.6,34.8,22.7,28.5,43,91,39,66.7,1009.4,1014.9,1007.5,1011.5,11.2,17.5,0.7,7.6,75,88.6,0.0,0.2,0.1,0.0,0.4,70,90,0,56.4,24.1,24.1,4.6,23.8,10
AG_CD,Thành phố Châu Đốc - An Giang,An Giang,Châu Đốc,10.7,105.1167,2026-03-10 15:53:45,openmeteo,high,2026-03-10T15:45,,34.0,34.6,22.5,28.2,41,91,38,66.5,1009.3,1014.9,1007.3,1011.4,15.2,17.3,0.4,7.0,59,83.1,0.0,0.3,0.1,0.0,0.8,51,100,5,54.1,24.1,24.1,3.2,23.8,10
AG_LX,Thành phố Long Xuyên - An Giang,An Giang,Long Xuyên,10.3865,105.4351,2026-03-10 15:53:45,openmeteo,high,2026-03-10T15:45,,33.1,34.4,22.4,27.7,48,94,40,70.0,1009.4,1014.7,1007.3,1011.4,8.7,19.1,0.8,7.3,107,92.2,0.0,0.3,0.1,0.0,1.1,58,96,2,55.7,24.1,24.1,10.8,23.8,10
AG_AP,Thị xã Tân Châu - An Giang,An Giang,Tân Châu,10.8,105.2167,2026-03-10 15:53:46,openmeteo,high,2026-03-10T15:45,,33.9,34.9,21.8,28.1,41,94,37,67.7,1009.2,1014.9,1007.2,1011.4,11.6,14.5,0.8,6.6,60,88.2,0.0,0.2,0.1,0.0,0.6,60,100,10,51.9,24.1,24.1,4.5,23.7,10
BR_CH,Huyện Châu Đức - Bà Rịa - Vũng Tàu,Bà Rịa - Vũng Tàu,Châu Đức,10.65,107.25,2026-03-10 15:53:54,statistical,medium,2026-03-10T15:53:54.594158,,31.5,33.1,25.1,30.2,80,85,65,75.8,1015.0,1020.0,1005.0,1013.0,2.0,5.7,1.1,3.7,117,170.8,0.0,0.9,0.9,0.0,0.9,59,72,48,60.4,12.5,15.7,10.2,12.9,10
BR_CD,Huyện Côn Đảo - Bà Rịa - Vũng Tàu,Bà Rịa - Vũng Tàu,Côn Đảo,8.6822,106.6089,2026-03-10 15:53:43,openmeteo,high,2026-03-10T15:45,,26.8,27.1,25.9,26.4,79,83,74,79.2,1010.6,1014.4,1008.6,1011.6,27.1,36.0,22.1,29.1,65,70.6,0.0,0.0,0.0,0.0,0.0,35,100,10,47.5,24.1,24.1,24.1,24.1,5
BR_LD,Huyện Long Điền - Bà Rịa - Vũng Tàu,Bà Rịa - Vũng Tàu,Long Điền,10.4667,107.2333,2026-03-10 15:53:49,openmeteo,high,2026-03-10T15:45,,30.1,33.6,23.2,27.6,64,92,44,68.5,1010.8,1014.9,1008.2,1011.6,18.6,28.0,0.0,14.7,105,90.0,0.0,0.3,0.1,0.1,1.3,52,100,0,48.3,24.1,24.1,22.2,24.1,10
BR_XM,Huyện Xuyên Mộc - Bà Rịa - Vũng Tàu,Bà Rịa - Vũng Tàu,Xuyên Mộc,10.6333,107.4333,2026-03-10 15:53:54,statistical,medium,2026-03-10T15:53:54.902719,,31.4,37.0,27.2,31.8,83,85,65,75.0,1006.0,1020.0,1005.0,1011.4,1.9,5.9,1.1,3.3,236,355.9,0.0,5.9,0.1,0.8,19.9,58,72,47,60.6,10.5,15.1,9.6,13.3,10
BR_DD,Huyện Đất Đỏ - Bà Rịa - Vũng Tàu,Bà Rịa - Vũng Tàu,Đất Đỏ,10.5,107.2833,2026-03-10 15:53:43,openmeteo,high,2026-03-10T15:45,,30.1,33.6,23.1,27.6,64,92,44,68.5,1010.8,1014.9,1008.2,1011.6,18.6,28.0,0.0,14.7,105,90.0,0.0,0.3,0.1,0.1,1.3,52,100,0,48.3,24.1,24.1,22.2,24.1,10
BR_BR,Thành phố Bà Rịa - Bà Rịa - Vũng Tàu,Bà Rịa - Vũng Tàu,Bà Rịa,10.5,107.1833,2026-03-10 15:53:41,openmeteo,high,2026-03-10T15:45,,30.1,32.5,24.8,27.8,65,89,48,69.2,1010.5,1014.9,1008.1,1011.5,12.9,21.0,0.7,10.4,117,98.9,0.0,0.3,0.1,0.0,1.0,56,100,0,45.2,24.1,24.1,22.2,24.1,10
BR_VT,Thành phố Vũng Tàu - Bà Rịa - Vũng Tàu,Bà Rịa - Vũng Tàu,Vũng Tàu,10.346,107.0843,2026-03-10 15:53:41,openmeteo,high,2026-03-10T15:45,,30.1,32.5,24.8,27.8,65,89,48,69.2,1010.5,1014.9,1008.1,1011.5,12.9,21.0,0.7,10.4,117,98.9,0.0,0.3,0.1,0.0,1.0,56,100,0,45.2,24.1,24.1,22.2,24.1,10
BR_PT,Thị xã Phú Mỹ - Bà Rịa - Vũng Tàu,Bà Rịa - Vũng Tàu,Phú Mỹ,10.6,107.05,2026-03-10 15:53:43,openmeteo,high,2026-03-10T15:45,,31.0,34.3,24.2,27.8,61,93,37,68.7,1010.3,1014.9,1007.6,1011.4,13.5,21.3,0.4,8.3,138,107.1,0.0,0.4,0.1,0.0,0.7,37,100,0,46.3,24.1,24.1,8.0,24.0,10
BR_CD2,Đảo Côn Sơn - Bà Rịa - Vũng Tàu,Bà Rịa - Vũng Tàu,Côn Đảo,8.6822,106.6089,2026-03-10 15:56:45,statistical,medium,2026-03-10T15:56:45.213399,,33.5,37.5,27.0,31.7,79,85,65,73.8,1007.0,1019.0,1005.0,1011.4,5.1,5.9,1.0,3.0,130,194.7,4.7,6.3,0.3,0.5,11.5,71,69,44,56.9,11.4,15.7,10.2,13.1,15
BD_BA,Huyện Bàu Bàng - Bình Dương,Bình Dương,Bàu Bàng,11.25,106.8,2026-03-10 15:53:32,openmeteo,high,2026-03-10T15:45,,33.8,35.4,21.7,28.1,41,91,30,62.4,1009.4,1014.9,1006.6,1011.3,7.0,17.8,0.7,5.7,111,66.0,0.0,1.1,0.1,0.1,2.2,77,100,0,46.9,24.1,24.1,16.8,24.1,10
BD_BC,Huyện Bắc Tân Uyên - Bình Dương,Bình Dương,Bắc Tân Uyên,11.1667,106.8667,2026-03-10 15:53:32,openmeteo,high,2026-03-10T15:45,,32.0,35.6,22.0,28.0,52,94,30,63.4,1009.9,1014.9,1006.8,1011.3,14.2,18.4,0.0,5.6,153,125.3,0.0,1.1,0.2,0.1,2.9,73,100,0,47.7,24.1,24.1,16.8,24.1,10
BD_DH,Huyện Dầu Tiếng - Bình Dương,Bình Dương,Dầu Tiếng,11.2667,106.3667,2026-03-10 15:53:35,openmeteo,high,2026-03-10T15:45,,34.2,35.5,22.4,28.2,43,95,31,64.6,1009.3,1014.8,1006.8,1011.3,7.3,16.8,0.5,6.1,79,43.6,0.0,1.4,0.1,0.1,3.3,57,100,0,40.7,24.1,24.1,20.4,24.1,10
BD_PG,Huyện Phú Giáo - Bình Dương,Bình Dương,Phú Giáo,11.3333,106.7667,2026-03-10 15:53:43,statistical,medium,2026-03-10T15:53:43.387543,,30.2,33.8,24.7,29.8,67,85,66,75.7,1011.0,1020.0,1005.0,1013.1,5.6,6.0,1.2,3.4,230,320.7,0.0,5.0,1.4,1.0,23.6,47,74,42,60.2,14.2,15.3,9.6,12.7,10
BD_TDM,Thành phố Thủ Dầu Một - Bình Dương,Bình Dương,Thủ Dầu Một,10.9804,106.6519,2026-03-10 15:53:35,openmeteo,high,2026-03-10T15:45,,33.4,35.3,22.8,28.1,45,94,31,66.1,1009.5,1014.9,1006.8,1011.3,11.5,19.4,0.4,5.9,136,73.4,0.0,2.3,0.1,0.2,4.0,74,100,0,46.1,24.1,24.1,5.8,23.9,10
BD_BG,Thị xã Bến Cát - Bình Dương,Bình Dương,Bến Cát,11.15,106.6,2026-03-10 15:53:30,openmeteo,high,2026-03-10T15:45,,33.3,35.3,22.1,28.1,45,94,31,65.2,1009.6,1014.9,1006.7,1011.3,10.9,18.1,0.0,5.6,136,78.4,0.0,0.7,0.1,0.1,2.0,85,100,0,47.1,24.1,24.1,13.0,24.0,10
BD_DT,Thị xã Dĩ An - Bình Dương,Bình Dương,Dĩ An,10.9,106.7667,2026-03-10 15:53:31,openmeteo,high,2026-03-10T15:45,,32.3,35.7,22.9,28.0,50,95,30,66.1,1009.8,1014.8,1006.8,1011.3,12.6,20.3,0.4,6.3,143,113.8,0.0,0.1,0.1,0.0,0.2,69,100,0,47.3,24.1,24.1,5.8,23.9,10
BD_TN,Thị xã Thuận An - Bình Dương,Bình Dương,Thuận An,10.9333,106.7,2026-03-10 15:53:30,openmeteo,high,2026-03-10T15:45,,32.5,35.9,23.1,28.2,50,95,30,66.1,1009.8,1014.8,1006.8,1011.3,12.6,20.3,0.4,6.3,143,113.8,0.0,0.1,0.1,0.0,0.2,69,100,0,47.3,24.1,24.1,5.8,23.9,10
BD_TU,Thị xã Tân Uyên - Bình Dương,Bình Dương,Tân Uyên,11.0667,106.8,2026-03-10 15:53:31,openmeteo,high,2026-03-10T15:45,,33.5,35.5,22.3,28.3,45,94,31,65.2,1009.6,1014.9,1006.7,1011.3,10.9,18.1,0.0,5.6,136,78.4,0.0,0.7,0.1,0.1,2.0,85,100,0,47.1,24.1,24.1,5.8,23.9,10
BP_DX,Thành phố Đồng Xoài - Bình Phước,Bình Phước,Đồng Xoài,11.5349,106.8823,2026-03-10 15:56:13,statistical,medium,2026-03-10T15:56:13.226689,,30.5,35.3,25.8,30.8,70,85,65,74.5,1014.0,1020.0,1005.0,1012.8,1.5,5.9,1.1,3.2,11,329.7,0.0,6.1,1.5,0.8,19.8,61,72,42,59.0,15.4,15.0,9.6,12.5,10
BP_BL,Thị xã Bình Long - Bình Phước,Bình Phước,Bình Long,11.65,106.6,2026-03-10 15:56:04,openmeteo,high,2026-03-10T15:45,,34.1,36.3,20.4,28.3,40,92,30,59.8,1009.2,1014.8,1006.7,1011.3,10.3,15.7,1.1,5.5,61,40.1,0.0,0.1,0.1,0.0,0.1,87,100,0,41.6,24.1,24.1,21.1,24.1,10
BP_PL,Thị xã Phước Long - Bình Phước,Bình Phước,Phước Long,11.8333,106.9667,2026-03-10 15:56:05,openmeteo,high,2026-03-10T15:45,,33.3,35.7,20.2,27.8,42,90,27,58.8,1009.8,1015.1,1006.8,1011.5,13.6,16.6,0.4,5.1,53,51.4,0.0,0.2,0.2,0.0,0.6,68,89,0,36.7,24.1,24.1,24.1,24.1,10
BT_HD,Huyện Hàm Thuận Bắc - Bình Thuận,Bình Thuận,Hàm Thuận Bắc,11.0833,108.1167,2026-03-10 15:55:30,openmeteo,high,2026-03-10T15:45,,29.4,31.8,19.5,25.1,55,95,35,71.2,1010.8,1016.2,1008.5,1012.8,14.4,20.6,0.4,7.2,89,68.7,0.0,0.3,0.1,0.1,1.9,87,100,0,50.2,24.1,24.1,24.1,24.1,5
BT_PH,Huyện Phú Quý - Bình Thuận,Bình Thuận,Phú Quý,10.5,108.9333,2026-03-10 15:55:29,openmeteo,high,2026-03-10T15:45,,25.3,25.8,24.7,25.3,86,88,75,83.0,1011.6,1015.5,1009.4,1012.4,39.8,44.5,28.9,36.8,42,43.2,0.0,0.0,0.0,0.0,0.0,73,100,6,52.5,24.1,24.1,24.1,24.1,15
BT_PT,Thành phố Phan Thiết - Bình Thuận,Bình Thuận,Phan Thiết,10.9333,108.1,2026-03-10 15:55:26,openmeteo,high,2026-03-10T15:45,,31.2,33.7,20.6,26.6,50,98,35,66.9,1010.2,1015.4,1008.1,1012.0,30.2,30.2,0.4,11.2,81,62.4,0.0,0.0,0.0,0.0,0.0,45,100,0,49.1,24.1,24.1,24.1,24.1,10
BT_LC,Thị xã La Gi - Bình Thuận,Bình Thuận,La Gi,10.6667,107.7667,2026-03-10 15:55:27,openmeteo,high,2026-03-10T15:45,,29.3,32.7,21.2,26.5,65,96,43,69.5,1010.8,1015.2,1008.5,1012.0,21.6,26.3,1.8,13.3,88,78.3,0.1,0.5,0.1,0.0,1.2,76,100,0,49.8,24.1,24.1,21.4,24.1,30
BT_PQ2,Đảo Phú Quý - Bình Thuận,Bình Thuận,Phú Quý,10.5,108.9333,2026-03-10 15:56:38,openmeteo,high,2026-03-10T15:45,,25.3,25.8,24.7,25.3,86,88,75,83.0,1011.6,1015.5,1009.4,1012.4,39.8,44.5,28.9,36.8,42,43.2,0.0,0.0,0.0,0.0,0.0,73,100,6,52.5,24.1,24.1,24.1,24.1,15
BD_AL,Huyện An Lão - Bình Định,Bình Định,An Lão,14.5667,108.9,2026-03-10 15:55:18,openmeteo,high,2026-03-10T15:45,,22.3,26.2,19.4,21.7,87,100,64,88.8,1017.3,1020.4,1013.6,1017.5,11.2,14.8,1.8,7.0,21,14.3,0.0,0.8,0.1,0.5,11.1,100,100,59,91.2,7.9,24.1,6.8,20.0,10
BD_HV,Huyện Hoài Ân - Bình Định,Bình Định,Hoài Ân,14.35,108.9,2026-03-10 15:55:18,openmeteo,high,2026-03-10T15:45,,21.9,25.5,18.2,20.9,79,93,57,80.8,1016.4,1019.6,1013.3,1016.8,15.1,21.5,3.5,9.9,33,27.8,0.0,0.3,0.1,0.1,2.1,95,100,45,84.3,13.1,24.1,8.3,21.2,0
BD_QN,Thành phố Quy Nhơn - Bình Định,Bình Định,Quy Nhơn,13.7667,109.2333,2026-03-10 15:55:17,openmeteo,high,2026-03-10T15:45,,24.9,28.9,22.0,24.2,79,93,55,80.9,1015.4,1018.3,1012.4,1015.6,20.7,23.5,2.5,11.4,17,4.6,0.1,0.9,0.1,1.1,25.7,88,100,24,81.3,21.8,24.1,4.3,21.6,25
BL_HH,Huyện Hòa Bình - Bạc Liêu,Bạc Liêu,Hòa Bình,9.2833,105.6333,2026-03-10 15:55:04,openmeteo,high,2026-03-10T15:45,,31.6,33.1,24.3,27.6,54,92,40,70.1,1010.0,1014.5,1008.0,1011.5,21.4,27.4,8.3,17.0,98,90.0,0.0,0.1,0.1,0.0,0.1,92,100,0,54.5,24.1,24.1,18.4,24.1,10
BL_HB,Huyện Hồng Dân - Bạc Liêu,Bạc Liêu,Hồng Dân,9.55,105.4167,2026-03-10 15:54:58,openmeteo,high,2026-03-10T15:45,,31.5,33.8,23.0,27.5,59,94,38,71.6,1009.9,1014.4,1007.5,1011.4,10.5,22.3,2.9,11.9,86,91.8,0.0,0.4,0.1,0.0,0.8,81,100,0,58.5,24.1,24.1,12.3,23.9,10
BL_PT,Huyện Phước Long - Bạc Liêu,Bạc Liêu,Phước Long,9.4333,105.4667,2026-03-10 15:55:00,openmeteo,high,2026-03-10T15:45,,31.9,33.4,23.8,27.6,53,93,38,70.3,1009.9,1014.4,1007.7,1011.4,15.6,24.6,4.7,14.4,98,90.3,0.0,0.1,0.1,0.0,0.1,86,96,0,55.5,24.1,24.1,12.3,23.9,10
BL_VL,Huyện Vĩnh Lợi - Bạc Liêu,Bạc Liêu,Vĩnh Lợi,9.35,105.5667,2026-03-10 15:55:01,openmeteo,high,2026-03-10T15:45,,31.6,33.1,24.3,27.6,54,92,40,70.1,1010.0,1014.5,1008.0,1011.5,21.4,27.4,8.3,17.0,98,90.0,0.0,0.1,0.1,0.0,0.1,92,100,0,54.5,24.1,24.1,18.4,24.1,10
BL_DD,Huyện Đông Hải - Bạc Liêu,Bạc Liêu,Đông Hải,9.1667,105.4333,2026-03-10 15:55:09,statistical,medium,2026-03-10T15:55:09.533994,,32.2,36.3,26.5,31.9,73,84,65,75.0,1011.0,1020.0,1005.0,1012.3,4.9,5.9,1.5,3.9,85,73.5,0.0,4.2,0.5,0.4,8.7,61,76,43,62.0,12.5,15.5,10.1,12.4,10
BL_BL,Thành phố Bạc Liêu - Bạc Liêu,Bạc Liêu,Bạc Liêu,9.2833,105.7167,2026-03-10 15:54:57,openmeteo,high,2026-03-10T15:45,,31.2,32.9,25.0,27.8,56,89,42,69.5,1010.3,1014.6,1008.2,1011.6,25.9,30.3,11.4,20.6,89,87.3,0.0,0.0,0.0,0.0,0.0,82,100,0,52.8,24.1,24.1,18.4,24.1,10
BL_GD,Thị xã Giá Rai - Bạc Liêu,Bạc Liêu,Giá Rai,9.2333,105.4667,2026-03-10 15:54:58,openmeteo,high,2026-03-10T15:45,,30.9,33.5,23.5,27.4,60,94,40,72.3,1010.1,1014.4,1007.7,1011.4,15.1,23.8,4.3,13.7,115,91.5,0.1,0.5,0.1,0.0,0.8,88,100,4,55.5,24.1,24.1,18.4,24.1,35
BG_LN,Huyện Lạng Giang - Bắc Giang,Bắc Giang,Lạng Giang,21.35,106.25,2026-03-10 15:56:03,openmeteo,high,2026-03-10T15:45,,24.2,26.2,15.4,20.9,49,94,49,76.0,1018.5,1025.5,1012.7,1019.0,7.4,13.9,0.4,4.8,47,133.2,0.0,0.2,0.1,0.1,1.3,30,100,0,79.7,24.1,24.1,19.3,24.1,0
BG_YL,Huyện Yên Thế - Bắc Giang,Bắc Giang,Yên Thế,21.5167,106.1167,2026-03-10 15:56:01,openmeteo,high,2026-03-10T15:45,,23.9,25.8,14.8,20.7,50,95,49,76.6,1018.5,1025.5,1012.6,1019.1,7.0,13.1,0.4,4.5,55,110.6,0.0,0.2,0.1,0.1,1.5,12,100,0,80.1,24.1,24.1,16.2,24.0,0
BG_BG,Thành phố Bắc Giang - Bắc Giang,Bắc Giang,Bắc Giang,21.2667,106.2,2026-03-10 15:56:09,statistical,medium,2026-03-10T15:56:09.549405,,22.5,26.1,16.4,20.9,88,90,75,83.4,1019.0,1020.0,1005.0,1011.9,5.0,6.0,1.1,3.8,302,224.5,0.0,6.0,0.7,0.7,17.3,74,78,56,66.3,10.7,13.2,9.2,11.2,10
BK_BB,Huyện Ba Bể - Bắc Kạn,Bắc Kạn,Ba Bể,22.4167,105.75,2026-03-10 15:55:45,openmeteo,high,2026-03-10T15:45,,20.8,22.7,13.3,18.8,66,92,60,81.1,1019.1,1025.8,1013.3,1019.6,2.7,10.5,0.0,4.5,157,151.1,0.0,0.0,0.0,0.0,0.0,81,100,32,88.9,24.1,24.1,20.1,24.0,0
BK_PT,Huyện Pác Nặm - Bắc Kạn,Bắc Kạn,Pác Nặm,22.6333,105.6667,2026-03-10 15:55:47,openmeteo,high,2026-03-10T15:45,,20.9,21.4,13.1,18.3,62,94,56,81.9,1018.7,1025.8,1013.3,1019.5,6.5,11.9,1.3,4.0,183,161.0,0.0,0.0,0.0,0.0,0.0,68,100,38,91.2,24.1,24.1,20.5,24.0,0
BK_BK,Thành phố Bắc Kạn - Bắc Kạn,Bắc Kạn,Bắc Kạn,22.15,105.8333,2026-03-10 15:55:45,openmeteo,high,2026-03-10T15:45,,19.6,22.3,12.5,18.7,72,93,66,81.5,1019.4,1025.8,1013.4,1019.7,5.2,10.1,0.4,4.2,155,128.4,0.0,0.1,0.1,0.0,0.3,97,100,17,88.0,24.1,24.1,18.6,24.0,0
BN_YL,Huyện Yên Phong - Bắc Ninh,Bắc Ninh,Yên Phong,21.2,105.95,2026-03-10 15:55:54,openmeteo,high,2026-03-10T15:45,,23.6,25.7,15.8,20.6,52,97,52,78.2,1018.6,1025.5,1012.4,1019.0,7.2,15.0,0.5,5.6,53,109.1,0.0,0.3,0.1,0.1,1.8,28,100,5,83.5,24.1,24.1,16.7,24.0,0
BN_BN,Thành phố Bắc Ninh - Bắc Ninh,Bắc Ninh,Bắc Ninh,21.1861,106.0764,2026-03-10 15:55:54,openmeteo,high,2026-03-10T15:45,,23.8,25.7,15.9,20.6,52,95,52,77.8,1018.6,1025.5,1012.6,1019.0,7.1,14.0,0.5,6.3,41,120.1,0.0,0.2,0.1,0.1,1.7,17,100,7,81.5,24.1,24.1,16.7,24.0,0
BN_TS,Thành phố Từ Sơn - Bắc Ninh,Bắc Ninh,Từ Sơn,21.1167,105.9667,2026-03-10 15:55:54,openmeteo,high,2026-03-10T15:45,,23.8,25.7,15.9,20.6,52,95,52,77.8,1018.6,1025.5,1012.6,1019.0,7.1,14.0,0.5,6.3,41,120.1,0.0,0.2,0.1,0.1,1.7,17,100,7,81.5,24.1,24.1,23.3,24.1,0
BT_BL,Huyện Ba Tri - Bến Tre,Bến Tre,Ba Tri,10.0667,106.6,2026-03-10 15:54:26,openmeteo,high,2026-03-10T15:45,,30.6,33.8,23.7,27.6,58,91,41,70.2,1010.5,1014.9,1008.3,1011.6,18.6,25.0,2.4,14.8,99,90.7,0.0,0.1,0.1,0.0,0.1,51,98,0,50.9,24.1,24.1,23.5,24.1,10
BT_BH,Huyện Bình Đại - Bến Tre,Bến Tre,Bình Đại,10.1833,106.7,2026-03-10 15:54:29,openmeteo,high,2026-03-10T15:45,,30.6,33.8,23.7,27.6,58,91,41,70.2,1010.5,1014.9,1008.3,1011.6,18.6,25.0,2.4,14.8,99,90.7,0.0,0.1,0.1,0.0,0.1,51,98,0,50.9,24.1,24.1,24.1,24.1,10
BT_CL,Huyện Châu Thành - Bến Tre,Bến Tre,Châu Thành,10.3,106.2667,2026-03-10 15:54:27,openmeteo,high,2026-03-10T15:45,,31.6,34.0,24.1,27.9,52,91,39,69.0,1010.1,1014.7,1007.6,1011.5,13.0,24.1,0.8,12.4,109,91.6,0.0,0.1,0.1,0.0,0.1,85,100,0,53.1,24.1,24.1,9.5,24.0,10
BT_CT,Huyện Chợ Lách - Bến Tre,Bến Tre,Chợ Lách,10.2667,106.15,2026-03-10 15:54:28,openmeteo,high,2026-03-10T15:45,,31.8,34.5,23.6,27.9,52,92,35,68.7,1010.0,1014.7,1007.4,1011.4,12.4,24.1,1.1,11.1,116,93.4,0.0,0.2,0.2,0.0,0.2,80,95,0,53.7,24.1,24.1,9.5,24.0,10
BT_GD,Huyện Giồng Trôm - Bến Tre,Bến Tre,Giồng Trôm,10.1667,106.4667,2026-03-10 15:54:27,openmeteo,high,2026-03-10T15:45,,31.1,33.9,24.1,27.8,57,90,40,69.8,1010.3,1014.8,1007.9,1011.5,15.9,24.2,1.8,13.1,103,91.2,0.0,0.1,0.1,0.0,0.1,61,100,0,52.4,24.1,24.1,24.1,24.1,10
BT_MB,Huyện Mỏ Cày Bắc - Bến Tre,Bến Tre,Mỏ Cày Bắc,10.1333,106.3,2026-03-10 15:54:29,openmeteo,high,2026-03-10T15:45,,31.7,34.4,23.5,27.8,52,92,37,68.6,1010.1,1014.7,1007.5,1011.4,13.8,24.9,1.1,12.1,110,91.6,0.0,0.1,0.1,0.0,0.1,80,99,0,54.0,24.1,24.1,9.5,24.0,10
BT_MN,Huyện Mỏ Cày Nam - Bến Tre,Bến Tre,Mỏ Cày Nam,10.0667,106.3333,2026-03-10 15:54:32,openmeteo,high,2026-03-10T15:45,,31.0,34.1,23.7,27.8,55,91,39,69.2,1010.3,1014.7,1007.8,1011.5,15.5,24.4,2.1,13.2,102,91.7,0.0,0.1,0.1,0.0,0.3,94,100,0,53.4,24.1,24.1,18.3,24.0,10
BT_TP,Huyện Thạnh Phú - Bến Tre,Bến Tre,Thạnh Phú,9.9333,106.5333,2026-03-10 15:54:30,openmeteo,high,2026-03-10T15:45,,30.3,32.6,24.9,27.7,60,86,47,69.6,1010.5,1014.8,1008.3,1011.6,22.3,27.6,8.6,18.4,91,87.7,0.0,0.1,0.1,0.0,0.1,31,89,0,50.0,24.1,24.1,23.5,24.1,10
BT_BT,Thành phố Bến Tre - Bến Tre,Bến Tre,Bến Tre,10.2333,106.3833,2026-03-10 15:54:26,openmeteo,high,2026-03-10T15:45,,31.6,34.0,24.1,27.9,52,91,39,69.0,1010.1,1014.7,1007.6,1011.5,13.0,24.1,0.8,12.4,109,91.6,0.0,0.1,0.1,0.0,0.1,85,100,0,53.1,24.1,24.1,24.1,24.1,10
CB_BL,Huyện Bảo Lâm - Cao Bằng,Cao Bằng,Bảo Lâm,22.8667,105.5,2026-03-10 15:55:43,openmeteo,high,2026-03-10T15:45,,21.2,21.9,12.6,18.5,59,94,56,81.5,1018.4,1026.2,1012.8,1019.3,4.7,13.5,0.4,4.3,180,169.4,0.0,0.1,0.1,0.0,0.7,77,100,30,92.9,24.1,24.1,24.1,24.1,0
CB_BC,Huyện Bảo Lạc - Cao Bằng,Cao Bằng,Bảo Lạc,22.95,105.7333,2026-03-10 15:55:43,openmeteo,high,2026-03-10T15:45,,21.6,22.4,12.9,19.0,58,91,57,77.8,1018.4,1026.4,1012.6,1019.3,2.5,17.7,0.4,4.5,270,139.6,0.0,0.1,0.1,0.0,0.4,41,100,9,90.7,24.1,24.1,23.3,24.1,0
CB_CB,Thành phố Cao Bằng - Cao Bằng,Cao Bằng,Cao Bằng,22.6667,106.25,2026-03-10 15:55:43,openmeteo,high,2026-03-10T15:45,,19.5,23.3,12.2,18.6,65,94,55,79.5,1019.5,1026.4,1012.7,1019.7,7.2,11.9,0.5,4.1,117,138.6,0.0,0.0,0.0,0.0,0.0,96,100,19,88.7,24.1,24.1,24.1,24.1,0
CM_CM,Huyện Cái Nước - Cà Mau,Cà Mau,Cái Nước,9.0,105.0333,2026-03-10 15:54:08,openmeteo,high,2026-03-10T15:45,,30.3,32.7,23.9,27.1,62,96,47,75.0,1010.3,1014.3,1008.0,1011.4,17.3,25.2,4.3,14.2,95,92.6,0.0,1.2,0.1,0.1,3.6,44,100,6,56.3,24.1,24.1,18.8,24.1,10
CM_NG,Huyện Ngọc Hiển - Cà Mau,Cà Mau,Ngọc Hiển,8.6667,105.05,2026-03-10 15:54:19,statistical,medium,2026-03-10T15:54:19.926577,,29.5,34.5,24.5,29.3,80,84,67,75.6,1018.0,1020.0,1005.0,1012.0,5.5,5.9,1.0,3.5,213,61.8,4.2,7.5,1.6,1.5,34.9,58,71,44,59.5,12.7,15.3,10.1,13.1,10
CM_NC,Huyện Năm Căn - Cà Mau,Cà Mau,Năm Căn,8.75,105.0,2026-03-10 15:54:14,openmeteo,high,2026-03-10T15:45,,30.6,31.6,24.8,27.5,57,92,48,73.4,1010.2,1014.2,1008.0,1011.4,22.8,31.1,8.0,18.8,85,87.8,0.0,0.0,0.0,0.0,0.0,58,100,11,51.3,24.1,24.1,24.1,24.1,10
CM_PT,Huyện Phú Tân - Cà Mau,Cà Mau,Phú Tân,8.8833,104.8833,2026-03-10 15:54:10,openmeteo,high,2026-03-10T15:45,,29.1,30.9,25.5,27.5,68,91,54,75.7,1010.3,1014.2,1008.0,1011.5,11.8,36.4,5.7,23.1,78,88.3,0.2,0.8,0.1,0.2,5.0,74,100,8,53.9,24.1,24.1,18.8,24.1,60
CM_TV,Huyện Thới Bình - Cà Mau,Cà Mau,Thới Bình,9.35,105.1,2026-03-10 15:54:11,openmeteo,high,2026-03-10T15:45,,29.3,33.4,22.7,27.0,74,96,42,75.0,1010.2,1014.4,1007.6,1011.4,10.0,21.0,0.8,10.4,150,96.6,0.3,5.2,0.1,0.5,12.3,100,100,0,60.5,24.1,24.1,6.8,23.5,60
CM_TR,Huyện Trần Văn Thời - Cà Mau,Cà Mau,Trần Văn Thời,9.0833,104.9667,2026-03-10 15:54:13,openmeteo,high,2026-03-10T15:45,,29.6,32.8,23.7,27.1,74,95,45,76.6,1010.4,1014.3,1007.9,1011.4,5.1,27.0,1.1,14.6,94,92.8,1.2,4.7,0.1,0.5,11.0,100,100,4,59.3,24.1,24.1,18.8,24.1,70
CM_UM,Huyện U Minh - Cà Mau,Cà Mau,U Minh,9.4,104.9833,2026-03-10 15:54:14,openmeteo,high,2026-03-10T15:45,,28.7,32.8,23.7,27.3,76,94,48,76.1,1010.4,1014.4,1007.8,1011.5,5.2,24.2,1.3,12.7,236,94.4,0.6,3.0,0.1,0.7,17.4,100,100,0,57.5,24.1,24.1,4.9,23.6,60
CM_DH,Huyện Đầm Dơi - Cà Mau,Cà Mau,Đầm Dơi,8.9833,105.2,2026-03-10 15:54:08,openmeteo,high,2026-03-10T15:45,,30.2,32.0,24.6,27.3,61,92,51,74.0,1010.4,1014.5,1008.2,1011.5,21.6,31.3,6.6,18.2,94,89.2,0.0,0.3,0.1,0.0,1.0,66,100,11,56.5,24.1,24.1,19.1,24.1,10
CM_TP,Thành phố Cà Mau - Cà Mau,Cà Mau,Cà Mau,9.1769,105.1521,2026-03-10 15:54:07,openmeteo,high,2026-03-10T15:45,,29.3,33.1,23.6,27.0,69,94,44,75.2,1010.4,1014.4,1008.0,1011.4,15.6,24.1,3.7,13.4,109,94.5,0.2,3.1,0.1,0.2,6.0,47,100,8,58.4,24.1,24.1,18.7,24.0,30
CT_CC,Huyện Cờ Đỏ - Cần Thơ,Cần Thơ,Cờ Đỏ,10.1,105.4333,2026-03-10 15:52:23,openmeteo,high,2026-03-10T15:45,,32.4,34.0,22.5,27.5,52,96,43,71.5,1009.6,1014.6,1007.4,1011.4,9.4,23.1,0.4,8.7,108,97.6,0.0,0.7,0.1,0.1,2.6,81,95,0,55.9,10.5,24.1,8.0,23.8,10
CT_PT,Huyện Phong Điền - Cần Thơ,Cần Thơ,Phong Điền,10.25,105.6667,2026-03-10 15:52:25,openmeteo,high,2026-03-10T15:45,,32.8,34.5,22.8,27.8,50,94,41,69.5,1009.6,1014.6,1007.3,1011.4,9.0,23.1,1.1,9.3,113,96.9,0.0,0.6,0.1,0.0,1.0,75,99,0,55.1,24.1,24.1,12.2,23.9,10
CT_TN,Huyện Thới Lai - Cần Thơ,Cần Thơ,Thới Lai,10.0667,105.55,2026-03-10 15:52:25,openmeteo,high,2026-03-10T15:45,,32.4,33.9,22.5,27.4,52,96,43,71.5,1009.6,1014.6,1007.4,1011.4,9.4,23.1,0.4,8.7,108,97.6,0.0,0.7,0.1,0.1,2.6,81,95,0,55.9,10.5,24.1,8.0,23.8,10
CT_VT,Huyện Vĩnh Thạnh - Cần Thơ,Cần Thơ,Vĩnh Thạnh,10.2167,105.4,2026-03-10 15:52:22,openmeteo,high,2026-03-10T15:45,,32.7,34.1,22.6,27.7,50,94,42,70.5,1009.5,1014.7,1007.4,1011.4,9.4,19.5,1.0,7.6,94,92.8,0.0,1.1,0.1,0.1,3.2,65,94,0,55.6,24.1,24.1,2.9,23.8,10
CT_BT,Quận Bình Thủy - Cần Thơ,Cần Thơ,Bình Thủy,10.0816,105.7378,2026-03-10 15:52:16,openmeteo,high,2026-03-10T15:45,,32.2,34.6,23.1,27.9,52,93,40,69.3,1009.9,1014.6,1007.4,1011.4,10.6,22.7,1.3,10.0,125,95.8,0.0,0.4,0.1,0.0,0.5,75,94,0,51.2,24.1,24.1,14.7,24.0,10
CT_CR,Quận Cái Răng - Cần Thơ,Cần Thơ,Cái Răng,10.0,105.7667,2026-03-10 15:52:21,openmeteo,high,2026-03-10T15:45,,31.9,34.3,23.0,27.7,54,95,38,69.9,1009.9,1014.5,1007.4,1011.4,10.5,24.5,1.0,10.4,112,94.7,0.0,0.3,0.2,0.0,0.5,80,95,0,52.9,24.1,24.1,14.7,24.0,10
CT_NK,Quận Ninh Kiều - Cần Thơ,Cần Thơ,Ninh Kiều,10.0452,105.7469,2026-03-10 15:52:13,openmeteo,high,2026-03-10T15:45,,31.9,34.3,23.0,27.7,54,95,38,69.9,1009.9,1014.5,1007.4,1011.4,10.5,24.5,1.0,10.4,112,94.7,0.0,0.3,0.2,0.0,0.5,80,95,0,52.9,24.1,24.1,14.7,24.0,10
CT_TL,Quận Thốt Nốt - Cần Thơ,Cần Thơ,Thốt Nốt,10.2667,105.5333,2026-03-10 15:52:24,openmeteo,high,2026-03-10T15:45,,32.9,34.4,22.5,27.7,50,95,41,69.9,1009.6,1014.6,1007.3,1011.4,8.8,22.0,1.3,8.5,109,96.4,0.0,0.3,0.1,0.1,1.3,74,98,0,56.6,24.1,24.1,2.9,23.8,10
CT_OT,Quận Ô Môn - Cần Thơ,Cần Thơ,Ô Môn,10.1167,105.6333,2026-03-10 15:52:19,openmeteo,high,2026-03-10T15:45,,32.4,34.4,22.7,27.7,52,95,40,69.9,1009.7,1014.6,1007.4,1011.4,9.8,24.1,1.5,9.7,114,96.7,0.0,0.2,0.1,0.0,0.8,83,100,0,55.3,24.1,24.1,14.7,24.0,10
GL_CP,Huyện Chư Prông - Gia Lai,Gia Lai,Chư Prông,13.5833,107.8333,2026-03-10 15:53:17,openmeteo,high,2026-03-10T15:45,,30.1,33.3,19.1,25.6,46,84,34,61.9,1012.6,1016.7,1009.3,1013.7,23.3,25.0,2.2,15.2,77,84.9,0.0,0.0,0.0,0.0,0.0,57,94,0,28.1,24.1,24.1,24.1,24.1,10
GL_CH,Huyện Chư Păh - Gia Lai,Gia Lai,Chư Păh,14.1667,107.9333,2026-03-10 15:53:14,openmeteo,high,2026-03-10T15:45,,24.9,28.4,17.9,22.1,55,81,39,64.4,1014.0,1017.8,1010.3,1014.9,21.4,25.1,5.6,12.0,61,48.2,0.0,0.0,0.0,0.0,0.0,59,100,17,54.2,24.1,24.1,24.1,24.1,0
GL_CS,Huyện Chư Sê - Gia Lai,Gia Lai,Chư Sê,13.75,108.0833,2026-03-10 15:53:16,openmeteo,high,2026-03-10T15:45,,25.4,28.3,17.5,22.1,56,86,42,68.4,1014.2,1017.8,1011.1,1014.9,26.1,30.1,6.1,16.8,62,71.6,0.0,0.0,0.0,0.0,0.0,63,93,0,36.2,24.1,24.1,24.1,24.1,5
GL_IA,Huyện Ia Grai - Gia Lai,Gia Lai,Ia Grai,13.9833,107.75,2026-03-10 15:53:29,statistical,medium,2026-03-10T15:53:29.383375,,31.0,36.3,26.4,31.2,69,85,67,75.5,1020.0,1020.0,1005.0,1012.7,5.1,5.6,1.0,3.0,167,344.9,0.0,6.8,0.4,0.6,13.5,55,77,44,59.5,14.7,14.6,10.6,12.9,10
GL_KB,Huyện KBang - Gia Lai,Gia Lai,KBang,14.35,108.5,2026-03-10 15:53:18,openmeteo,high,2026-03-10T15:45,,19.6,24.1,16.2,19.0,82,92,56,81.8,1016.9,1020.0,1013.3,1017.3,18.2,23.7,6.0,12.8,51,52.9,0.0,0.0,0.0,0.0,0.0,89,100,26,76.4,24.1,24.1,0.1,19.9,0
GL_KR,Huyện Krông Pa - Gia Lai,Gia Lai,Krông Pa,13.2167,108.6667,2026-03-10 15:53:19,openmeteo,high,2026-03-10T15:45,,24.5,27.4,18.5,22.2,67,92,50,77.3,1015.0,1018.3,1011.8,1015.6,20.7,23.6,3.0,10.4,55,81.5,0.0,0.2,0.1,0.0,1.0,87,98,44,77.9,24.1,24.1,16.9,24.1,0
GL_KN,Huyện Kông Chro - Gia Lai,Gia Lai,Kông Chro,13.7167,108.5167,2026-03-10 15:53:19,openmeteo,high,2026-03-10T15:45,,25.3,29.0,19.1,22.9,61,82,43,69.4,1014.5,1017.8,1011.4,1015.0,23.0,27.0,5.0,16.1,58,68.5,0.0,0.0,0.0,0.0,0.0,70,100,10,49.8,24.1,24.1,24.1,24.1,5
GL_MY,Huyện Mang Yang - Gia Lai,Gia Lai,Mang Yang,13.9833,108.25,2026-03-10 15:53:20,openmeteo,high,2026-03-10T15:45,,25.8,29.1,17.3,22.7,57,89,43,68.2,1014.7,1018.0,1011.4,1015.3,22.7,28.1,2.5,12.4,54,60.6,0.0,0.0,0.0,0.0,0.0,67,89,0,42.0,24.1,24.1,8.6,23.6,5
GL_PG,Huyện Phú Thiện - Gia Lai,Gia Lai,Phú Thiện,13.5333,108.3,2026-03-10 15:53:21,openmeteo,high,2026-03-10T15:45,,27.4,31.7,20.4,24.6,57,86,38,66.5,1013.7,1017.2,1010.2,1014.4,27.9,30.4,11.6,21.8,66,72.1,0.0,0.0,0.0,0.0,0.0,70,100,0,41.0,24.1,24.1,24.1,24.1,5
GL_DP,Huyện Đăk Pơ - Gia Lai,Gia Lai,Đăk Pơ,14.0,108.5,2026-03-10 15:53:27,statistical,medium,2026-03-10T15:53:27.079036,,30.7,34.3,24.3,29.1,65,85,66,75.6,1012.0,1020.0,1007.0,1013.5,4.9,5.9,1.3,3.8,229,245.5,0.0,5.6,0.1,1.3,30.3,52,70,46,60.5,13.3,15.9,9.3,12.9,10
GL_DC,Huyện Đăk Đoa - Gia Lai,Gia Lai,Đăk Đoa,14.1167,108.1167,2026-03-10 15:53:17,openmeteo,high,2026-03-10T15:45,,24.8,28.9,18.2,22.5,58,87,40,65.6,1014.7,1017.9,1010.9,1015.2,22.6,27.4,3.1,12.7,53,52.5,0.0,0.0,0.0,0.0,0.0,72,98,0,50.4,24.1,24.1,24.1,24.1,0
GL_DA,Huyện Đức Cơ - Gia Lai,Gia Lai,Đức Cơ,13.7833,107.6667,2026-03-10 15:53:18,openmeteo,high,2026-03-10T15:45,,31.3,33.9,17.7,25.8,42,95,31,61.0,1011.7,1016.5,1008.7,1013.2,19.4,19.6,2.4,9.3,75,104.5,0.0,0.0,0.0,0.0,0.0,68,98,0,34.1,24.1,24.1,24.1,24.1,10
GL_PC,Thành phố Pleiku - Gia Lai,Gia Lai,Pleiku,13.9833,108.0,2026-03-10 15:53:12,openmeteo,high,2026-03-10T15:45,,26.2,29.9,18.5,23.0,51,82,38,62.6,1013.8,1017.5,1010.5,1014.6,26.7,30.3,7.0,16.0,58,62.8,0.0,0.0,0.0,0.0,0.0,63,95,0,36.0,24.1,24.1,24.1,24.1,5
GL_AD,Thị xã An Khê - Gia Lai,Gia Lai,An Khê,14.0,108.6833,2026-03-10 15:53:15,openmeteo,high,2026-03-10T15:45,,23.5,27.2,18.3,21.7,68,88,48,74.5,1015.5,1018.9,1012.5,1016.2,26.3,29.6,6.6,15.3,49,51.1,0.0,0.0,0.0,0.0,0.0,59,94,22,65.5,24.1,24.1,0.6,22.3,0
GL_AY,Thị xã Ayun Pa - Gia Lai,Gia Lai,Ayun Pa,13.3833,108.4333,2026-03-10 15:53:14,openmeteo,high,2026-03-10T15:45,,27.4,31.7,21.2,25.2,60,90,40,68.0,1014.2,1017.5,1010.6,1014.7,22.4,24.2,4.6,14.1,60,65.8,0.0,0.0,0.0,0.0,0.0,71,100,2,64.2,24.1,24.1,24.1,24.1,5
HG_MK,Huyện Mèo Vạc - Hà Giang,Hà Giang,Mèo Vạc,23.1528,105.4069,2026-03-10 15:56:10,openmeteo,high,2026-03-10T15:45,,15.1,16.3,8.5,12.8,67,100,62,85.6,1018.7,1026.4,1013.2,1019.7,7.5,11.4,0.7,4.5,145,134.4,0.0,0.1,0.1,0.0,0.7,62,100,29,93.0,24.1,24.1,1.6,23.4,0
HG_DV,Huyện Đồng Văn - Hà Giang,Hà Giang,Đồng Văn,23.2547,105.25,2026-03-10 15:56:21,statistical,medium,2026-03-10T15:56:21.121737,,24.9,28.8,21.9,25.0,83,89,76,81.9,1012.0,1018.0,1005.0,1011.2,2.1,6.0,1.1,3.5,316,260.7,0.0,7.4,0.9,0.9,22.7,62,77,53,64.9,11.3,13.5,9.1,11.6,0
HG_HG,Thành phố Hà Giang - Hà Giang,Hà Giang,Hà Giang,22.8233,104.9836,2026-03-10 15:56:08,openmeteo,high,2026-03-10T15:45,,18.3,20.1,13.5,16.6,79,99,75,90.5,1019.0,1026.2,1013.3,1019.8,9.7,11.0,0.4,5.6,112,141.3,0.0,0.6,0.1,0.1,2.0,86,100,58,95.1,24.1,24.1,22.3,24.1,0
HNA_DT,Huyện Duy Tiên - Hà Nam,Hà Nam,Duy Tiên,20.6333,105.9667,2026-03-10 15:56:12,openmeteo,high,2026-03-10T15:45,,23.1,26.5,15.4,20.4,55,99,54,81.0,1018.7,1025.4,1012.4,1019.0,7.3,15.9,0.0,6.4,33,122.7,0.0,0.2,0.1,0.1,1.6,50,100,10,80.7,24.1,24.1,21.3,24.1,0
HNA_KB,Huyện Kim Bảng - Hà Nam,Hà Nam,Kim Bảng,20.5667,105.85,2026-03-10 15:56:11,openmeteo,high,2026-03-10T15:45,,23.0,26.9,15.1,20.3,54,97,53,78.9,1018.7,1025.5,1012.4,1019.0,7.5,15.9,0.4,5.7,35,131.7,0.0,0.1,0.1,0.0,0.4,36,100,4,80.6,24.1,24.1,24.1,24.1,0
HNA_PL,Thành phố Phủ Lý - Hà Nam,Hà Nam,Phủ Lý,20.5411,105.9139,2026-03-10 15:56:10,openmeteo,high,2026-03-10T15:45,,23.4,27.2,15.4,20.8,54,97,52,78.2,1018.8,1025.5,1012.6,1019.1,7.2,14.6,0.4,4.9,37,135.4,0.0,0.0,0.0,0.0,0.0,44,100,0,81.0,24.1,24.1,24.1,24.1,0
HN_BG,Huyện Ba Vì - Hà Nội,Hà Nội,Ba Vì,21.1992,105.4239,2026-03-10 15:51:45,openmeteo,high,2026-03-10T15:45,,23.0,26.7,15.9,20.9,58,96,57,79.3,1018.6,1025.4,1011.7,1018.8,6.8,15.2,0.5,7.3,108,119.7,0.0,0.3,0.1,0.0,0.4,21,100,5,83.8,24.1,24.1,8.9,23.9,0
HN_CM,Huyện Chương Mỹ - Hà Nội,Hà Nội,Chương Mỹ,20.8964,105.7039,2026-03-10 15:51:48,statistical,medium,2026-03-10T15:51:48.270913,,28.6,32.6,22.2,27.2,79,88,71,79.8,1011.0,1020.0,1006.0,1013.3,4.4,6.0,1.4,3.7,120,213.4,0.0,7.7,1.4,2.0,49.0,66,75,47,63.5,10.5,15.3,9.6,12.3,5
HN_GL,Huyện Gia Lâm - Hà Nội,Hà Nội,Gia Lâm,21.0408,105.95,2026-03-10 15:51:44,openmeteo,high,2026-03-10T15:45,,23.5,25.8,16.3,20.7,53,96,53,77.9,1018.6,1025.5,1012.5,1019.0,6.6,15.9,0.4,7.0,41,122.1,0.0,0.1,0.1,0.0,1.0,5,100,0,82.4,24.1,24.1,23.3,24.1,0
HN_HĐ,Huyện Hoài Đức - Hà Nội,Hà Nội,Hoài Đức,21.0392,105.7108,2026-03-10 15:51:35,statistical,medium,2026-03-10T15:51:35.371811,,25.2,29.3,19.2,24.2,86,90,75,83.0,1017.0,1020.0,1005.0,1012.2,2.4,6.0,1.1,3.5,194,255.3,0.0,5.3,0.9,0.5,11.7,69,80,56,66.7,11.6,13.8,9.7,11.7,15
HN_MT,Huyện Mê Linh - Hà Nội,Hà Nội,Mê Linh,21.1753,105.7219,2026-03-10 15:51:43,openmeteo,high,2026-03-10T15:45,,23.2,26.4,15.8,20.7,59,97,57,79.4,1018.6,1025.6,1012.0,1018.9,5.9,17.9,1.5,7.9,76,124.4,0.0,0.3,0.2,0.0,0.5,32,100,0,83.1,24.1,24.1,19.5,24.1,0
HN_MD,Huyện Mỹ Đức - Hà Nội,Hà Nội,Mỹ Đức,20.6472,105.7194,2026-03-10 15:51:40,openmeteo,high,2026-03-10T15:45,,21.6,25.4,13.8,19.3,55,98,54,78.5,1018.9,1025.7,1012.6,1019.3,8.4,15.2,0.4,5.3,43,132.8,0.0,0.1,0.1,0.0,0.4,26,100,0,82.9,24.1,24.1,24.1,24.1,0
HN_ML,Huyện Mỹ Đức - Hà Nội,Hà Nội,Mỹ Đức,20.6472,105.7194,2026-03-10 15:51:45,openmeteo,high,2026-03-10T15:45,,21.6,25.4,13.8,19.3,55,98,54,78.5,1018.9,1025.7,1012.6,1019.3,8.4,15.2,0.4,5.3,43,132.8,0.0,0.1,0.1,0.0,0.4,26,100,0,82.9,24.1,24.1,24.1,24.1,0
HN_PX,Huyện Phú Xuyên - Hà Nội,Hà Nội,Phú Xuyên,20.7392,105.9139,2026-03-10 15:51:38,openmeteo,high,2026-03-10T15:45,,23.2,26.5,15.4,20.4,55,98,55,80.4,1018.7,1025.6,1012.3,1019.0,7.5,17.3,0.4,6.8,35,145.8,0.0,0.1,0.1,0.0,0.7,26,100,7,80.1,24.1,24.1,21.3,24.1,0
HN_PH,Huyện Phú Xuyên - Hà Nội,Hà Nội,Phú Xuyên,20.7392,105.9139,2026-03-10 15:51:49,openmeteo,high,2026-03-10T15:45,,23.2,26.5,15.4,20.4,55,98,55,80.4,1018.7,1025.6,1012.3,1019.0,7.5,17.3,0.4,6.8,35,145.8,0.0,0.1,0.1,0.0,0.7,26,100,7,80.1,24.1,24.1,21.3,24.1,0
HN_PT,Huyện Phúc Thọ - Hà Nội,Hà Nội,Phúc Thọ,21.1031,105.5514,2026-03-10 15:51:45,openmeteo,high,2026-03-10T15:45,,22.5,26.0,15.6,20.4,59,95,57,79.1,1018.7,1025.6,1011.9,1018.9,6.8,16.1,0.7,7.2,90,122.0,0.0,0.7,0.1,0.1,2.3,20,100,8,83.9,24.1,24.1,12.2,23.9,0
HN_QO,Huyện Quốc Oai - Hà Nội,Hà Nội,Quốc Oai,20.9956,105.6119,2026-03-10 15:51:36,openmeteo,high,2026-03-10T15:45,,22.2,26.2,14.4,19.9,59,97,57,79.4,1018.8,1025.7,1012.0,1019.0,8.2,17.0,1.1,6.9,75,122.3,0.0,0.2,0.1,0.0,0.9,29,100,0,84.4,24.1,24.1,12.2,23.9,0
HN_SL,Huyện Sóc Sơn - Hà Nội,Hà Nội,Sóc Sơn,21.2578,105.8489,2026-03-10 15:51:41,openmeteo,high,2026-03-10T15:45,,23.6,25.7,16.0,20.7,53,96,53,78.3,1018.6,1025.5,1012.4,1019.0,6.8,15.6,0.0,6.5,58,115.4,0.0,0.3,0.1,0.1,1.7,12,100,7,83.9,24.1,24.1,19.5,24.1,0
HN_TO,Huyện Thanh Oai - Hà Nội,Hà Nội,Thanh Oai,20.8556,105.7722,2026-03-10 15:51:38,openmeteo,high,2026-03-10T15:45,,22.9,26.9,15.2,20.5,58,96,55,78.2,1018.8,1025.7,1012.1,1019.0,7.1,18.7,0.4,6.5,60,129.8,0.0,0.0,0.0,0.0,0.0,27,100,0,81.9,24.1,24.1,24.1,24.1,0
HN_TT2,Huyện Thường Tín - Hà Nội,Hà Nội,Thường Tín,20.87,105.8583,2026-03-10 15:51:42,openmeteo,high,2026-03-10T15:45,,23.5,26.6,15.7,20.6,54,97,53,78.8,1018.7,1025.5,1012.3,1019.0,7.4,16.8,0.4,7.0,39,137.8,0.0,0.1,0.1,0.0,0.4,23,100,5,81.6,24.1,24.1,24.1,24.1,0
HN_TT,Huyện Thạch Thất - Hà Nội,Hà Nội,Thạch Thất,21.0278,105.5564,2026-03-10 15:51:38,openmeteo,high,2026-03-10T15:45,,23.7,27.7,14.3,21.0,54,100,53,78.5,1018.7,1025.7,1011.9,1019.0,8.6,14.7,0.7,5.8,75,119.4,0.0,0.1,0.1,0.0,0.4,23,100,0,82.7,24.1,24.1,12.2,23.9,0
HN_DP,Huyện Đan Phượng - Hà Nội,Hà Nội,Đan Phượng,21.1394,105.6736,2026-03-10 15:51:37,openmeteo,high,2026-03-10T15:45,,23.2,26.5,15.9,20.8,59,97,57,79.4,1018.6,1025.6,1012.0,1018.9,5.9,17.9,1.5,7.9,76,124.4,0.0,0.3,0.2,0.0,0.5,32,100,0,83.1,24.1,24.1,19.5,24.1,0
HN_DH,Huyện Đông Anh - Hà Nội,Hà Nội,Đông Anh,21.1467,105.8464,2026-03-10 15:51:43,openmeteo,high,2026-03-10T15:45,,23.3,25.9,16.2,20.7,54,95,54,78.3,1018.6,1025.5,1012.4,1019.0,6.7,16.6,0.4,7.2,54,121.2,0.0,0.1,0.1,0.0,0.8,25,100,4,83.7,24.1,24.1,19.5,24.1,0
HN_UH,Huyện Ứng Hòa - Hà Nội,Hà Nội,Ứng Hòa,20.7292,105.8236,2026-03-10 15:51:40,openmeteo,high,2026-03-10T15:45,,23.2,26.5,15.4,20.4,55,98,55,80.4,1018.7,1025.6,1012.3,1019.0,7.5,17.3,0.4,6.8,35,145.8,0.0,0.1,0.1,0.0,0.7,26,100,7,80.1,24.1,24.1,24.1,24.1,0
HN_BD,Quận Ba Đình - Hà Nội,Hà Nội,Ba Đình,21.0338,105.8142,2026-03-10 15:51:29,openmeteo,high,2026-03-10T15:45,,23.3,26.6,15.8,20.7,57,97,54,78.4,1018.7,1025.6,1012.2,1019.0,6.1,17.2,0.5,7.0,50,132.4,0.0,0.1,0.1,0.0,0.1,30,100,0,82.7,24.1,24.1,18.6,24.1,0
HN_BTL,Quận Bắc Từ Liêm - Hà Nội,Hà Nội,Bắc Từ Liêm,21.0772,105.773,2026-03-10 15:51:33,openmeteo,high,2026-03-10T15:45,,23.1,26.4,15.8,20.7,59,97,57,79.4,1018.6,1025.6,1012.0,1018.9,5.9,17.9,1.5,7.9,76,124.4,0.0,0.3,0.2,0.0,0.5,32,100,0,83.1,24.1,24.1,18.6,24.1,0
HN_CG,Quận Cầu Giấy - Hà Nội,Hà Nội,Cầu Giấy,21.0301,105.8022,2026-03-10 15:51:30,openmeteo,high,2026-03-10T15:45,,23.3,26.7,15.8,20.8,57,97,54,78.4,1018.7,1025.6,1012.2,1019.0,6.1,17.2,0.5,7.0,50,132.4,0.0,0.1,0.1,0.0,0.1,30,100,0,82.7,24.1,24.1,18.6,24.1,0
HN_HBT,Quận Hai Bà Trưng - Hà Nội,Hà Nội,Hai Bà Trưng,21.0091,105.8606,2026-03-10 15:51:30,openmeteo,high,2026-03-10T15:45,,23.3,26.6,15.8,20.7,57,97,54,78.4,1018.7,1025.6,1012.2,1019.0,6.1,17.2,0.5,7.0,50,132.4,0.0,0.1,0.1,0.0,0.1,30,100,0,82.7,24.1,24.1,18.6,24.1,0
HN_HK,Quận Hoàn Kiếm - Hà Nội,Hà Nội,Hoàn Kiếm,21.0285,105.8542,2026-03-10 15:51:37,statistical,medium,2026-03-10T15:51:37.191453,,23.0,28.5,18.8,23.2,85,90,75,82.7,1012.0,1020.0,1005.0,1012.5,3.2,5.9,1.4,3.5,298,334.7,0.0,8.0,0.9,1.3,32.1,73,80,54,64.1,11.4,14.3,10.0,11.6,0
HN_HM,Quận Hoàng Mai - Hà Nội,Hà Nội,Hoàng Mai,20.9837,105.8636,2026-03-10 15:51:31,openmeteo,high,2026-03-10T15:45,,23.3,26.6,15.8,20.7,57,97,54,78.4,1018.7,1025.6,1012.2,1019.0,6.1,17.2,0.5,7.0,50,132.4,0.0,0.1,0.1,0.0,0.1,30,100,0,82.7,24.1,24.1,18.6,24.1,0
HN_HD,Quận Hà Đông - Hà Nội,Hà Nội,Hà Đông,20.9714,105.7788,2026-03-10 15:51:33,openmeteo,high,2026-03-10T15:45,,23.3,26.6,15.8,20.7,57,97,54,78.4,1018.7,1025.6,1012.2,1019.0,6.1,17.2,0.5,7.0,50,132.4,0.0,0.1,0.1,0.0,0.1,30,100,0,82.7,24.1,24.1,18.6,24.1,0
HN_LB,Quận Long Biên - Hà Nội,Hà Nội,Long Biên,21.054,105.8959,2026-03-10 15:51:32,openmeteo,high,2026-03-10T15:45,,23.3,26.7,15.8,20.8,57,97,54,78.4,1018.7,1025.6,1012.2,1019.0,6.1,17.2,0.5,7.0,50,132.4,0.0,0.1,0.1,0.0,0.1,30,100,0,82.7,24.1,24.1,23.3,24.1,0
HN_NTL,Quận Nam Từ Liêm - Hà Nội,Hà Nội,Nam Từ Liêm,21.0113,105.7547,2026-03-10 15:51:33,openmeteo,high,2026-03-10T15:45,,23.3,26.7,15.8,20.8,57,97,54,78.4,1018.7,1025.6,1012.2,1019.0,6.1,17.2,0.5,7.0,50,132.4,0.0,0.1,0.1,0.0,0.1,30,100,0,82.7,24.1,24.1,18.6,24.1,0
HN_TX,Quận Thanh Xuân - Hà Nội,Hà Nội,Thanh Xuân,21.001,105.8093,2026-03-10 15:51:31,openmeteo,high,2026-03-10T15:45,,23.3,26.6,15.8,20.7,57,97,54,78.4,1018.7,1025.6,1012.2,1019.0,6.1,17.2,0.5,7.0,50,132.4,0.0,0.1,0.1,0.0,0.1,30,100,0,82.7,24.1,24.1,18.6,24.1,0
HN_DD,Quận Đống Đa - Hà Nội,Hà Nội,Đống Đa,21.019,105.8315,2026-03-10 15:51:37,statistical,medium,2026-03-10T15:51:37.506944,,21.9,25.7,16.3,20.6,75,90,75,81.3,1012.0,1020.0,1005.0,1013.1,4.7,6.0,1.2,4.0,5,152.6,0.0,7.6,0.1,1.5,36.1,57,76,56,65.2,11.0,14.1,9.4,12.0,0
HN_ST,Thị xã Sơn Tây - Hà Nội,Hà Nội,Sơn Tây,21.1376,105.507,2026-03-10 15:51:35,openmeteo,high,2026-03-10T15:45,,22.5,26.0,15.6,20.4,59,95,57,79.1,1018.7,1025.6,1011.9,1018.9,6.8,16.1,0.7,7.2,90,122.0,0.0,0.7,0.1,0.1,2.3,20,100,8,83.9,24.1,24.1,8.9,23.9,0
HT_HT,Thành phố Hà Tĩnh - Hà Tĩnh,Hà Tĩnh,Hà Tĩnh,18.3333,105.9,2026-03-10 15:55:09,openmeteo,high,2026-03-10T15:45,,20.4,25.8,17.3,20.7,75,100,68,86.1,1019.5,1024.7,1012.7,1018.6,6.7,12.5,0.4,5.6,16,337.5,0.0,0.2,0.1,0.1,2.2,84,100,31,88.4,24.1,24.1,4.0,21.8,0
HT_HK,Thị xã Hồng Lĩnh - Hà Tĩnh,Hà Tĩnh,Hồng Lĩnh,18.5333,105.7167,2026-03-10 15:55:11,openmeteo,high,2026-03-10T15:45,,20.5,25.5,17.0,20.5,73,98,65,84.3,1019.4,1024.8,1012.9,1018.6,6.2,13.4,0.4,5.1,21,357.3,0.0,0.1,0.1,0.0,0.8,79,100,20,85.9,24.1,24.1,7.3,22.8,0
HT_KL,Thị xã Kỳ Anh - Hà Tĩnh,Hà Tĩnh,Kỳ Anh,18.0833,106.3,2026-03-10 15:55:14,openmeteo,high,2026-03-10T15:45,,19.4,26.1,17.5,20.7,80,100,66,86.3,1019.5,1024.2,1012.8,1018.4,10.5,16.0,0.8,6.0,4,340.0,0.0,0.4,0.1,0.2,4.1,99,100,25,89.7,24.1,24.1,2.8,21.5,0
HB_KB,Huyện Kim Bôi - Hòa Bình,Hòa Bình,Kim Bôi,20.6667,105.5333,2026-03-10 15:55:41,openmeteo,high,2026-03-10T15:45,,21.9,25.1,13.8,19.1,57,100,55,81.4,1018.9,1025.7,1012.9,1019.4,5.4,12.4,1.1,5.5,53,138.8,0.0,0.1,0.1,0.0,1.0,29,100,0,84.2,24.1,24.1,13.6,23.9,0
HB_ML,Huyện Mai Châu - Hòa Bình,Hòa Bình,Mai Châu,20.6667,105.0833,2026-03-10 15:55:41,openmeteo,high,2026-03-10T15:45,,24.8,28.9,15.9,21.9,56,99,55,80.1,1018.7,1025.6,1012.3,1019.2,5.4,10.0,0.4,4.1,82,112.4,0.0,0.1,0.1,0.0,0.3,44,100,13,85.3,24.1,24.1,16.3,24.0,0
HB_HB,Thành phố Hòa Bình - Hòa Bình,Hòa Bình,Hòa Bình,20.8133,105.3383,2026-03-10 15:55:39,openmeteo,high,2026-03-10T15:45,,21.6,25.7,14.5,19.3,61,98,60,83.0,1018.9,1025.8,1012.4,1019.3,6.8,11.3,1.3,4.8,87,127.8,0.0,0.1,0.1,0.0,0.6,35,100,0,85.3,24.1,24.1,20.2,24.0,0
HY_ML,Huyện Mỹ Hào - Hưng Yên,Hưng Yên,Mỹ Hào,20.9333,106.0667,2026-03-10 15:56:05,statistical,medium,2026-03-10T15:56:05.525741,,29.9,34.0,26.3,29.6,84,89,70,80.6,1016.0,1020.0,1005.0,1013.1,1.7,5.5,1.1,3.6,288,184.4,0.0,6.6,1.1,1.3,31.3,72,78,53,64.0,10.0,15.0,9.6,12.0,5
HY_VD,Huyện Văn Lâm - Hưng Yên,Hưng Yên,Văn Lâm,20.9833,106.0333,2026-03-10 15:55:56,openmeteo,high,2026-03-10T15:45,,23.5,25.8,16.3,20.7,53,96,53,77.9,1018.6,1025.5,1012.5,1019.0,6.6,15.9,0.4,7.0,41,122.1,0.0,0.1,0.1,0.0,1.0,5,100,0,82.4,24.1,24.1,23.3,24.1,0
HY_HY,Thành phố Hưng Yên - Hưng Yên,Hưng Yên,Hưng Yên,20.6461,106.0511,2026-03-10 15:55:55,openmeteo,high,2026-03-10T15:45,,23.0,26.4,15.3,20.3,55,99,54,81.0,1018.7,1025.4,1012.4,1019.0,7.3,15.9,0.0,6.4,33,122.7,0.0,0.2,0.1,0.1,1.6,50,100,10,80.7,24.1,24.1,21.3,24.1,0
HD_CM,Huyện Cẩm Giàng - Hải Dương,Hải Dương,Cẩm Giàng,20.95,106.2167,2026-03-10 15:55:56,openmeteo,high,2026-03-10T15:45,,23.8,25.7,15.9,20.7,51,96,50,78.9,1018.6,1025.4,1012.7,1019.0,7.8,14.2,0.4,6.6,34,120.6,0.0,0.3,0.1,0.1,2.4,9,100,9,80.8,24.1,24.1,20.9,24.1,0
HD_HD,Thành phố Hải Dương - Hải Dương,Hải Dương,Hải Dương,20.9397,106.3308,2026-03-10 15:56:04,openmeteo,high,2026-03-10T15:45,,23.9,25.8,15.8,20.6,53,97,49,78.6,1018.5,1025.3,1012.8,1019.0,7.2,15.3,0.4,6.8,27,110.4,0.0,0.3,0.1,0.1,1.8,23,100,6,80.0,24.1,24.1,20.9,24.1,0
HD_CL,Thị xã Kinh Môn - Hải Dương,Hải Dương,Kinh Môn,21.0167,106.5,2026-03-10 15:55:54,openmeteo,high,2026-03-10T15:45,,24.3,25.8,15.9,20.5,51,95,50,76.1,1018.5,1025.1,1013.0,1019.0,4.0,15.8,0.8,6.2,27,91.5,0.0,0.2,0.1,0.1,1.8,39,100,0,78.3,24.1,24.1,24.1,24.1,0
HP_AC,Huyện An Dương - Hải Phòng,Hải Phòng,An Dương,20.8667,106.6167,2026-03-10 15:52:04,openmeteo,high,2026-03-10T15:45,,23.7,25.3,16.0,20.5,56,96,53,76.3,1018.7,1025.0,1013.3,1019.1,6.6,19.7,0.5,7.1,135,85.0,0.0,0.2,0.1,0.0,0.9,49,100,0,73.8,24.1,24.1,24.1,24.1,0
HP_AL,Huyện An Lão - Hải Phòng,Hải Phòng,An Lão,20.8167,106.55,2026-03-10 15:52:05,openmeteo,high,2026-03-10T15:45,,23.8,25.5,15.6,20.2,54,98,53,78.9,1018.6,1025.1,1013.0,1019.0,4.4,18.9,0.4,7.8,35,92.5,0.0,0.2,0.1,0.1,2.1,30,100,0,77.0,24.1,24.1,24.1,24.1,0
HP_BH,Huyện Bạch Long Vĩ - Hải Phòng,Hải Phòng,Bạch Long Vĩ,20.1333,107.7333,2026-03-10 15:52:07,openmeteo,high,2026-03-10T15:45,,18.7,22.6,17.8,20.9,75,92,70,81.6,1019.6,1024.4,1013.9,1018.7,32.3,51.1,5.4,23.9,44,62.7,0.0,0.1,0.1,0.0,0.4,76,100,6,70.0,24.1,24.1,23.4,24.1,0
HP_CH,Huyện Cát Hải - Hải Phòng,Hải Phòng,Cát Hải,20.7264,107.0489,2026-03-10 15:52:06,openmeteo,high,2026-03-10T15:45,,20.6,24.5,16.2,20.1,59,92,55,75.4,1019.2,1024.9,1013.6,1019.1,12.6,17.8,1.0,7.7,149,76.9,0.0,0.1,0.1,0.0,0.3,32,100,0,69.3,24.1,24.1,24.1,24.1,0
HP_KL,Huyện Kiến Thụy - Hải Phòng,Hải Phòng,Kiến Thụy,20.75,106.6667,2026-03-10 15:52:05,openmeteo,high,2026-03-10T15:45,,22.9,25.2,16.4,20.5,59,96,55,77.4,1018.9,1025.0,1013.3,1019.0,8.7,19.2,1.1,7.2,138,80.0,0.0,0.1,0.1,0.0,0.6,47,100,0,72.6,24.1,24.1,24.1,24.1,0
HP_TL,Huyện Thủy Nguyên - Hải Phòng,Hải Phòng,Thủy Nguyên,20.9583,106.6667,2026-03-10 15:52:05,openmeteo,high,2026-03-10T15:45,,24.5,25.9,16.1,20.7,51,95,50,76.1,1018.5,1025.1,1013.0,1019.0,4.0,15.8,0.8,6.2,27,91.5,0.0,0.2,0.1,0.1,1.8,39,100,0,78.3,24.1,24.1,24.1,24.1,0
HP_TH,Huyện Tiên Lãng - Hải Phòng,Hải Phòng,Tiên Lãng,20.7333,106.55,2026-03-10 15:52:07,openmeteo,high,2026-03-10T15:45,,23.5,25.5,15.6,20.1,57,98,54,80.0,1018.6,1025.1,1013.1,1019.0,3.4,20.3,0.0,8.0,58,89.9,0.0,0.2,0.1,0.1,1.8,39,100,0,75.9,24.1,24.1,24.1,24.1,0
HP_VB,Huyện Vĩnh Bảo - Hải Phòng,Hải Phòng,Vĩnh Bảo,20.7,106.4667,2026-03-10 15:52:06,openmeteo,high,2026-03-10T15:45,,23.5,25.5,15.6,20.1,57,98,54,80.0,1018.6,1025.1,1013.1,1019.0,3.4,20.3,0.0,8.0,58,89.9,0.0,0.2,0.1,0.1,1.8,39,100,0,75.9,24.1,24.1,24.1,24.1,0
HP_DS,Quận Dương Kinh - Hải Phòng,Hải Phòng,Dương Kinh,20.8025,106.6669,2026-03-10 15:52:02,openmeteo,high,2026-03-10T15:45,,22.9,25.2,16.4,20.5,59,96,55,77.4,1018.9,1025.0,1013.3,1019.0,8.7,19.2,1.1,7.2,138,80.0,0.0,0.1,0.1,0.0,0.6,47,100,0,72.6,24.1,24.1,24.1,24.1,0
HP_HA,Quận Hải An - Hải Phòng,Hải Phòng,Hải An,20.8378,106.7377,2026-03-10 15:52:11,statistical,medium,2026-03-10T15:52:11.131701,,29.5,35.1,24.6,29.8,75,90,71,81.3,1015.0,1019.0,1006.0,1012.7,2.4,6.0,1.6,3.7,116,321.8,3.8,7.3,0.3,1.4,34.3,60,80,48,64.6,13.8,15.3,8.7,11.7,10
HP_KS,Quận Kiến An - Hải Phòng,Hải Phòng,Kiến An,20.8075,106.6264,2026-03-10 15:52:02,openmeteo,high,2026-03-10T15:45,,22.8,25.1,16.3,20.4,59,96,55,77.4,1018.9,1025.0,1013.3,1019.0,8.7,19.2,1.1,7.2,138,80.0,0.0,0.1,0.1,0.0,0.6,47,100,0,72.6,24.1,24.1,24.1,24.1,0
HP_LC,Quận Lê Chân - Hải Phòng,Hải Phòng,Lê Chân,20.8516,106.6822,2026-03-10 15:52:00,openmeteo,high,2026-03-10T15:45,,23.7,25.3,16.0,20.5,56,96,53,76.3,1018.7,1025.0,1013.3,1019.1,6.6,19.7,0.5,7.1,135,85.0,0.0,0.2,0.1,0.0,0.9,49,100,0,73.8,24.1,24.1,24.1,24.1,0
HP_NQ,Quận Ngô Quyền - Hải Phòng,Hải Phòng,Ngô Quyền,20.858,106.7053,2026-03-10 15:52:02,openmeteo,high,2026-03-10T15:45,,22.9,25.3,16.2,20.5,57,94,52,75.6,1018.9,1024.9,1013.3,1019.1,10.2,18.2,1.0,6.6,141,83.0,0.0,0.1,0.1,0.0,0.6,47,100,0,73.8,24.1,24.1,24.1,24.1,0
HP_DK,Quận Đồ Sơn - Hải Phòng,Hải Phòng,Đồ Sơn,20.7278,106.7733,2026-03-10 15:52:03,openmeteo,high,2026-03-10T15:45,,21.2,24.9,16.4,20.5,58,94,56,77.5,1019.3,1024.9,1013.7,1019.1,12.5,18.8,1.4,8.4,141,78.6,0.0,0.1,0.1,0.0,0.3,26,100,0,70.5,24.1,24.1,24.1,24.1,0
HP_CB,Đảo Cát Bà - Hải Phòng,Hải Phòng,Cát Hải,20.7264,107.0489,2026-03-10 15:56:32,statistical,medium,2026-03-10T15:56:32.674844,,28.8,32.9,24.2,28.8,87,89,70,78.4,1008.0,1019.0,1006.0,1013.5,4.4,5.6,1.2,3.2,174,168.8,0.0,6.8,0.9,2.0,47.7,61,78,50,62.1,11.4,15.2,9.3,12.7,15
HG_CL,Huyện Châu Thành - Hậu Giang,Hậu Giang,Châu Thành,9.9333,105.6833,2026-03-10 15:54:45,openmeteo,high,2026-03-10T15:45,,31.5,33.7,22.7,27.4,58,96,41,71.5,1009.8,1014.4,1007.4,1011.4,8.5,24.1,0.7,10.4,118,95.3,0.0,0.6,0.1,0.0,0.8,80,99,0,53.2,24.1,24.1,14.7,24.0,10
HG_CT,Huyện Châu Thành A - Hậu Giang,Hậu Giang,Châu Thành A,9.9333,105.6333,2026-03-10 15:54:45,openmeteo,high,2026-03-10T15:45,,31.5,33.7,22.7,27.4,58,96,41,71.5,1009.8,1014.4,1007.4,1011.4,8.5,24.1,0.7,10.4,118,95.3,0.0,0.6,0.1,0.0,0.8,80,99,0,53.2,24.1,24.1,14.7,24.0,10
HG_LT,Huyện Long Mỹ - Hậu Giang,Hậu Giang,Long Mỹ,9.6833,105.5667,2026-03-10 15:54:47,openmeteo,high,2026-03-10T15:45,,31.6,33.3,23.1,27.4,55,93,38,71.0,1009.9,1014.4,1007.6,1011.4,10.1,24.5,4.7,13.0,94,91.3,0.0,0.2,0.2,0.0,0.2,78,95,0,53.8,24.1,24.1,6.3,23.5,10
HG_PB,Huyện Phụng Hiệp - Hậu Giang,Hậu Giang,Phụng Hiệp,9.7833,105.7167,2026-03-10 15:54:46,openmeteo,high,2026-03-10T15:45,,31.6,33.3,23.0,27.4,54,94,39,70.9,1009.8,1014.4,1007.6,1011.4,9.7,24.5,3.4,12.1,94,92.4,0.0,0.2,0.1,0.0,0.4,83,100,0,51.4,24.1,24.1,6.2,23.7,10
HG_VT2,Huyện Vị Thủy - Hậu Giang,Hậu Giang,Vị Thủy,9.7667,105.4667,2026-03-10 15:54:58,statistical,medium,2026-03-10T15:54:58.909972,,32.3,36.9,27.0,31.8,74,84,68,76.3,1018.0,1020.0,1006.0,1012.7,1.5,5.9,1.1,3.7,109,252.2,0.0,7.1,0.5,0.7,17.7,52,72,50,59.5,12.8,14.2,9.9,11.7,10
HG_VT,Thành phố Vị Thanh - Hậu Giang,Hậu Giang,Vị Thanh,9.7833,105.4667,2026-03-10 15:54:43,openmeteo,high,2026-03-10T15:45,,31.2,33.6,22.8,27.4,62,95,40,71.2,1009.9,1014.5,1007.5,1011.4,7.5,23.4,1.4,11.1,107,93.9,0.0,0.1,0.1,0.0,0.5,78,100,0,54.6,24.1,24.1,6.3,23.5,10
HG_NM,Thị xã Ngã Bảy - Hậu Giang,Hậu Giang,Ngã Bảy,9.8167,105.8167,2026-03-10 15:54:45,openmeteo,high,2026-03-10T15:45,,31.5,33.7,23.0,27.5,55,94,39,70.1,1009.9,1014.4,1007.5,1011.4,11.6,25.2,1.3,11.7,97,92.6,0.0,0.1,0.1,0.0,0.5,78,100,0,53.6,24.1,24.1,6.2,23.7,10
KH_TS,Huyện Trường Sa - Khánh Hòa,Khánh Hòa,Trường Sa,8.65,111.9167,2026-03-10 15:55:31,statistical,medium,2026-03-10T15:55:31.805726,,31.8,34.9,26.5,31.5,74,85,65,75.0,1009.0,1019.0,1005.0,1012.1,4.6,6.0,1.1,3.7,58,241.7,0.0,6.3,1.2,0.6,14.6,64,71,47,59.0,13.6,15.2,10.3,12.8,10
KH_CT,Thành phố Cam Ranh - Khánh Hòa,Khánh Hòa,Cam Ranh,11.9,109.1333,2026-03-10 15:55:22,openmeteo,high,2026-03-10T15:45,,24.8,28.9,20.7,23.6,69,82,45,70.9,1014.0,1017.8,1011.2,1014.8,21.9,28.2,5.8,13.8,36,28.6,0.0,0.2,0.1,0.0,0.9,81,100,25,66.9,20.6,24.1,12.8,23.8,0
KH_NT,Thành phố Nha Trang - Khánh Hòa,Khánh Hòa,Nha Trang,12.25,109.1833,2026-03-10 15:55:20,openmeteo,high,2026-03-10T15:45,,27.3,31.2,20.8,24.8,66,92,43,76.0,1014.1,1017.8,1011.4,1014.8,12.8,17.8,1.1,6.7,32,346.3,0.0,0.2,0.1,0.0,0.7,65,100,0,61.6,24.1,24.1,13.9,23.7,5
KH_NH,Thị xã Ninh Hòa - Khánh Hòa,Khánh Hòa,Ninh Hòa,12.5,109.15,2026-03-10 15:55:21,openmeteo,high,2026-03-10T15:45,,26.9,30.3,20.8,24.3,69,97,42,80.9,1013.9,1017.9,1011.0,1014.8,9.9,17.8,0.0,5.3,71,127.2,0.0,1.0,0.1,0.6,13.6,89,98,0,76.8,24.1,24.1,13.3,23.1,5
KH_HS,Đảo Hoàng Sa - Khánh Hòa,Khánh Hòa,Hoàng Sa,16.5322,111.6156,2026-03-10 15:56:39,statistical,medium,2026-03-10T15:56:39.364939,,28.5,33.1,22.7,27.8,88,88,71,79.1,1006.0,1020.0,1005.0,1010.8,3.8,5.6,1.2,3.3,251,195.5,2.0,7.9,0.2,1.8,43.2,73,77,50,62.6,12.4,15.2,9.4,12.5,20
KH_TS,Đảo Trường Sa - Khánh Hòa,Khánh Hòa,Trường Sa,8.65,111.9167,2026-03-10 15:56:33,openmeteo,high,2026-03-10T15:45,,27.0,27.8,26.2,26.9,82,87,67,80.0,1010.4,1014.1,1008.3,1011.4,28.9,37.1,23.0,30.8,39,46.9,0.0,0.5,0.1,0.4,9.4,100,100,9,58.9,20.9,24.1,7.0,22.8,5
KG_AT,Huyện An Biên - Kiên Giang,Kiên Giang,An Biên,9.8167,105.0667,2026-03-10 15:53:57,openmeteo,high,2026-03-10T15:45,,28.3,31.4,25.1,27.5,73,88,54,74.7,1010.1,1014.6,1007.7,1011.5,2.5,25.6,0.4,13.2,360,88.5,0.0,0.8,0.1,0.1,3.3,76,93,0,47.6,24.1,24.1,3.0,23.9,5
KG_AM,Huyện An Minh - Kiên Giang,Kiên Giang,An Minh,9.6667,104.95,2026-03-10 15:54:05,statistical,medium,2026-03-10T15:54:05.500466,,29.3,33.8,24.0,28.3,65,85,65,72.8,1005.0,1020.0,1005.0,1012.9,3.0,5.9,1.2,3.6,89,287.2,0.0,5.6,1.1,0.5,12.5,53,74,50,61.1,15.4,15.2,10.0,12.8,5
KG_CL,Huyện Châu Thành - Kiên Giang,Kiên Giang,Châu Thành,9.9333,105.1667,2026-03-10 15:53:57,openmeteo,high,2026-03-10T15:45,,28.4,31.5,25.1,27.6,73,88,54,74.7,1010.1,1014.6,1007.7,1011.5,2.5,25.6,0.4,13.2,360,88.5,0.0,0.8,0.1,0.1,3.3,76,93,0,47.6,24.1,24.1,10.5,24.0,5
KG_GT,Huyện Giang Thành - Kiên Giang,Kiên Giang,Giang Thành,10.4833,104.6333,2026-03-10 15:53:59,openmeteo,high,2026-03-10T15:45,,33.8,34.6,23.0,28.3,41,90,40,68.8,1009.3,1014.8,1007.5,1011.5,13.4,17.6,0.4,7.0,66,103.0,0.0,0.4,0.1,0.1,1.9,78,100,9,56.4,24.1,24.1,4.8,23.3,10
KG_GD,Huyện Gò Quao - Kiên Giang,Kiên Giang,Gò Quao,9.7333,105.2667,2026-03-10 15:54:08,statistical,medium,2026-03-10T15:54:08.900998,,30.6,34.6,24.2,29.0,82,85,66,76.8,1016.0,1020.0,1005.0,1011.9,2.4,5.7,1.0,3.3,295,68.3,0.0,7.2,0.7,0.9,22.0,74,74,46,61.0,13.5,15.7,10.0,12.6,10
KG_HG,Huyện Hòn Đất - Kiên Giang,Kiên Giang,Hòn Đất,10.2333,104.9333,2026-03-10 15:54:14,statistical,medium,2026-03-10T15:54:14.381029,,28.5,33.4,23.1,28.7,65,84,66,76.1,1015.0,1020.0,1005.0,1011.3,2.8,5.8,1.0,3.5,222,344.5,0.0,7.2,1.4,1.1,26.6,49,71,48,58.4,12.8,15.5,10.4,12.4,5
KG_KT,Huyện Kiên Hải - Kiên Giang,Kiên Giang,Kiên Hải,9.71,104.33,2026-03-10 15:54:01,openmeteo,high,2026-03-10T15:45,,28.3,30.1,26.6,27.8,73,83,62,75.0,1010.3,1014.8,1008.1,1011.6,1.6,25.2,1.1,15.3,207,97.8,0.0,1.5,0.1,0.4,10.0,95,95,0,43.0,24.1,24.1,8.6,23.4,5
KG_LS,Huyện Kiên Lương - Kiên Giang,Kiên Giang,Kiên Lương,10.25,104.6333,2026-03-10 15:54:02,openmeteo,high,2026-03-10T15:45,,29.0,30.4,26.0,28.2,74,83,59,72.7,1009.9,1014.8,1008.0,1011.6,14.6,22.1,0.5,11.3,189,130.7,0.0,1.5,0.1,0.4,9.3,84,100,0,44.0,24.1,24.1,5.9,23.6,5
KG_PQ,Huyện Phú Quốc - Kiên Giang,Kiên Giang,Phú Quốc,10.227,103.9679,2026-03-10 15:54:07,statistical,medium,2026-03-10T15:54:07.270184,,31.5,36.6,26.0,31.0,73,85,67,75.5,1005.0,1020.0,1005.0,1011.0,1.3,5.9,1.1,3.4,227,341.3,0.0,6.7,2.0,0.7,17.2,48,75,47,60.6,11.6,15.0,10.6,13.1,10
KG_TG,Huyện Tân Hiệp - Kiên Giang,Kiên Giang,Tân Hiệp,10.1,105.2833,2026-03-10 15:54:04,openmeteo,high,2026-03-10T15:45,,32.7,34.5,22.4,27.6,51,95,43,71.2,1009.6,1014.7,1007.5,1011.4,7.1,21.7,0.7,8.4,139,96.6,0.0,1.4,0.1,0.2,5.6,83,96,5,56.8,24.1,24.1,10.5,24.0,10
KG_UM,Huyện U Minh Thượng - Kiên Giang,Kiên Giang,U Minh Thượng,9.6,105.1,2026-03-10 15:54:05,openmeteo,high,2026-03-10T15:45,,31.7,33.7,22.4,27.2,55,95,43,74.0,1009.9,1014.5,1007.5,1011.4,7.2,22.0,1.6,9.6,117,96.8,0.0,1.9,0.1,0.4,9.1,87,100,0,60.4,24.1,24.1,4.9,23.6,10
KG_VT,Huyện Vĩnh Thuận - Kiên Giang,Kiên Giang,Vĩnh Thuận,9.5333,105.25,2026-03-10 15:54:16,statistical,medium,2026-03-10T15:54:16.835283,,32.0,36.9,27.1,32.1,70,85,65,76.0,1006.0,1020.0,1005.0,1014.5,5.0,5.4,1.0,3.4,357,104.9,0.0,7.4,0.5,1.1,27.1,51,72,52,61.5,13.4,15.4,10.3,12.7,10
KG_HN,Thành phố Hà Tiên - Kiên Giang,Kiên Giang,Hà Tiên,10.3833,104.4833,2026-03-10 15:53:56,openmeteo,high,2026-03-10T15:45,,31.0,32.1,25.8,28.2,58,83,49,72.3,1009.6,1014.9,1008.0,1011.6,8.5,18.2,1.5,9.6,152,137.3,0.0,2.5,0.1,0.8,19.1,63,100,0,47.1,24.1,24.1,6.0,23.1,10
KG_RG,Thành phố Rạch Giá - Kiên Giang,Kiên Giang,Rạch Giá,10.0317,105.0809,2026-03-10 15:53:53,openmeteo,high,2026-03-10T15:45,,30.0,32.2,24.5,27.8,63,90,50,72.3,1009.9,1014.6,1007.6,1011.5,5.8,22.8,0.5,10.2,184,100.3,0.0,1.3,0.1,0.2,6.0,86,87,0,55.2,24.1,24.1,10.5,24.0,5
KG_ND,Đảo Nam Du - Kiên Giang,Kiên Giang,Kiên Hải,9.71,104.33,2026-03-10 15:56:33,openmeteo,high,2026-03-10T15:45,,28.3,30.1,26.6,27.8,73,83,62,75.0,1010.3,1014.8,1008.1,1011.6,1.6,25.2,1.1,15.3,207,97.8,0.0,1.5,0.1,0.4,10.0,95,95,0,43.0,24.1,24.1,8.6,23.4,5
KG_PQ2,Đảo Phú Quốc - Kiên Giang,Kiên Giang,Phú Quốc,10.227,103.9679,2026-03-10 15:56:44,statistical,medium,2026-03-10T15:56:44.063984,,29.5,34.9,24.3,29.3,79,83,67,73.7,1007.0,1020.0,1005.0,1013.5,3.5,6.0,1.2,3.7,144,156.7,3.6,6.9,1.4,0.7,15.9,62,69,49,59.2,11.6,14.8,11.4,13.0,10
KG_TC,Đảo Thổ Chu - Kiên Giang,Kiên Giang,Phú Quốc,9.3,103.4833,2026-03-10 15:56:35,openmeteo,high,2026-03-10T15:45,,27.2,28.0,26.0,26.9,76,84,69,76.8,1010.7,1014.5,1008.3,1011.6,9.4,28.3,4.7,17.6,94,100.7,0.0,1.7,0.1,0.9,21.5,37,100,0,49.2,24.1,24.1,6.8,23.7,5
KT_NH,Huyện Ngọc Hồi - Kon Tum,Kon Tum,Ngọc Hồi,14.7,107.8333,2026-03-10 15:56:13,openmeteo,high,2026-03-10T15:45,,27.7,29.9,15.6,22.8,48,89,38,64.9,1013.1,1017.9,1010.2,1014.9,16.3,17.7,0.8,6.2,59,67.5,0.0,0.0,0.0,0.0,0.0,73,100,0,47.9,24.1,24.1,24.1,24.1,5
KT_DG,Huyện Đắk Glei - Kon Tum,Kon Tum,Đắk Glei,15.0167,107.75,2026-03-10 15:56:14,openmeteo,high,2026-03-10T15:45,,24.7,28.8,17.8,22.3,61,85,44,69.6,1015.5,1019.2,1012.1,1016.5,14.9,18.4,6.6,9.8,32,26.5,0.0,0.0,0.0,0.0,0.0,38,97,0,46.2,18.1,24.1,0.7,17.1,0
KT_KT,Thành phố Kon Tum - Kon Tum,Kon Tum,Kon Tum,14.3833,107.9833,2026-03-10 15:56:12,openmeteo,high,2026-03-10T15:45,,27.3,31.2,18.4,24.2,50,84,37,61.7,1013.8,1017.5,1010.1,1014.8,26.1,29.3,0.5,11.5,66,67.8,0.0,0.0,0.0,0.0,0.0,62,100,0,34.8,24.1,24.1,24.1,24.1,5
LC_PT,Huyện Phong Thổ - Lai Châu,Lai Châu,Phong Thổ,22.5333,103.3333,2026-03-10 15:55:39,openmeteo,high,2026-03-10T15:45,,23.4,25.8,13.3,18.5,52,95,50,77.1,1016.3,1023.4,1011.4,1017.6,10.6,11.5,1.0,4.6,162,172.6,0.0,1.0,0.1,0.5,12.2,94,100,0,88.0,24.1,24.1,8.2,22.2,0
LC_TN,Huyện Tam Đường - Lai Châu,Lai Châu,Tam Đường,22.3667,103.6167,2026-03-10 15:55:39,openmeteo,high,2026-03-10T15:45,,15.8,19.2,8.8,12.6,63,97,55,79.1,1017.7,1024.2,1012.5,1018.4,9.5,10.0,3.6,6.2,205,125.8,0.0,1.6,0.1,0.7,16.4,67,100,6,87.5,24.1,24.1,6.9,22.8,0
LC_LC,Thành phố Lai Châu - Lai Châu,Lai Châu,Lai Châu,22.4,103.45,2026-03-10 15:55:37,openmeteo,high,2026-03-10T15:45,,22.6,25.4,14.7,18.8,57,95,55,78.7,1017.2,1023.8,1012.0,1018.0,8.1,8.5,2.0,4.9,201,152.6,0.0,1.7,0.1,1.0,22.9,51,100,0,86.9,24.1,24.1,2.7,18.1,0
LA_DH,Huyện Đức Hòa - Long An,Long An,Đức Hòa,10.8833,106.4167,2026-03-10 15:56:16,openmeteo,high,2026-03-10T15:45,,33.1,35.5,22.6,28.0,47,96,30,67.1,1009.6,1014.9,1006.9,1011.3,11.6,20.3,0.4,6.7,126,69.1,0.0,1.1,0.1,0.1,2.9,58,97,0,42.4,24.1,24.1,14.3,24.0,10
LA_TA,Thành phố Tân An - Long An,Long An,Tân An,10.5333,106.4167,2026-03-10 15:56:15,openmeteo,high,2026-03-10T15:45,,31.5,34.5,22.7,27.5,55,95,36,70.7,1010.1,1014.8,1007.4,1011.4,12.7,19.9,0.4,9.3,115,94.8,0.0,0.2,0.1,0.0,0.5,74,100,0,49.6,24.1,24.1,21.2,24.1,10
LA_KT,Thị xã Kiến Tường - Long An,Long An,Kiến Tường,10.7667,105.9,2026-03-10 15:56:19,openmeteo,high,2026-03-10T15:45,,33.2,34.6,22.4,27.9,46,95,35,68.7,1009.4,1014.8,1007.0,1011.4,9.7,18.6,0.8,7.4,92,82.3,0.0,1.0,0.1,0.0,1.2,69,95,0,40.5,24.1,24.1,14.3,23.9,10
LC_BT,Huyện Bát Xát - Lào Cai,Lào Cai,Bát Xát,22.5333,103.8833,2026-03-10 15:56:14,openmeteo,high,2026-03-10T15:45,,19.4,21.0,10.1,14.1,62,100,59,89.5,1018.2,1026.2,1013.5,1019.8,3.4,9.6,0.0,4.9,252,138.3,0.0,1.0,0.1,0.3,6.3,91,100,30,91.7,24.1,24.1,7.1,22.5,0
LC_SM,Huyện Sa Pa - Lào Cai,Lào Cai,Sa Pa,22.3367,103.84,2026-03-10 15:56:14,openmeteo,high,2026-03-10T15:45,,19.5,22.7,12.6,16.2,65,100,58,81.2,1018.1,1024.6,1013.0,1018.9,11.4,11.7,3.1,6.7,204,111.7,0.0,2.2,0.1,1.0,24.1,89,100,22,89.4,24.1,24.1,2.6,15.5,0
LC_LC2,Thành phố Lào Cai - Lào Cai,Lào Cai,Lào Cai,22.4833,103.95,2026-03-10 15:56:25,statistical,medium,2026-03-10T15:56:25.022508,,22.7,26.8,16.4,21.1,77,90,75,82.8,1018.0,1019.0,1007.0,1013.5,4.2,5.6,1.2,3.5,102,179.1,0.0,7.9,5.0,1.1,26.4,64,81,52,66.6,12.9,14.1,9.4,11.8,0
LD_BD,Huyện Bảo Lâm - Lâm Đồng,Lâm Đồng,Bảo Lâm,11.7,107.7167,2026-03-10 15:53:24,openmeteo,high,2026-03-10T15:45,,26.9,30.8,17.5,23.0,53,90,33,67.0,1011.7,1016.5,1008.7,1013.2,19.9,22.2,0.4,9.2,44,58.4,0.0,2.2,0.1,0.4,8.4,27,97,0,31.5,22.9,24.1,0.4,22.6,5
LD_CD,Huyện Cát Tiên - Lâm Đồng,Lâm Đồng,Cát Tiên,11.5833,107.35,2026-03-10 15:53:24,openmeteo,high,2026-03-10T15:45,,30.1,34.0,20.9,26.9,56,93,32,62.3,1010.6,1015.3,1007.3,1011.9,9.0,16.9,1.1,5.5,106,56.5,0.0,0.2,0.1,0.0,0.3,94,100,0,39.8,24.1,24.1,19.4,24.1,10
LD_DD,Huyện Di Linh - Lâm Đồng,Lâm Đồng,Di Linh,11.5833,108.0667,2026-03-10 15:53:27,openmeteo,high,2026-03-10T15:45,,24.5,27.6,14.1,20.5,60,98,38,73.6,1012.2,1017.3,1009.2,1014.2,5.8,14.2,1.8,6.0,300,61.6,0.0,0.3,0.1,0.1,1.4,98,100,0,53.8,24.1,24.1,19.5,24.0,0
LD_LH,Huyện Lâm Hà - Lâm Đồng,Lâm Đồng,Lâm Hà,11.8333,108.2,2026-03-10 15:53:28,openmeteo,high,2026-03-10T15:45,,25.7,28.2,15.1,21.4,58,94,43,72.7,1012.6,1017.7,1010.0,1014.7,15.0,15.8,1.3,6.0,24,27.3,0.0,0.5,0.1,0.1,2.4,80,100,0,46.1,21.1,24.1,21.1,24.1,5
LD_LC,Huyện Lạc Dương - Lâm Đồng,Lâm Đồng,Lạc Dương,12.0,108.4333,2026-03-10 15:53:28,openmeteo,high,2026-03-10T15:45,,20.1,23.4,13.7,17.7,69,89,50,74.3,1014.2,1018.3,1011.0,1015.6,16.8,19.6,3.5,9.3,45,49.9,0.0,1.2,0.1,0.2,5.4,54,100,0,44.2,14.1,24.1,0.3,17.9,0
LD_DT2,Huyện Đam Rông - Lâm Đồng,Lâm Đồng,Đam Rông,12.0833,108.1667,2026-03-10 15:53:26,openmeteo,high,2026-03-10T15:45,,27.1,31.6,16.4,23.3,57,100,41,72.4,1012.6,1017.3,1009.4,1014.0,24.4,25.7,1.8,9.0,22,10.7,0.0,0.0,0.0,0.0,0.0,29,99,0,33.8,10.5,24.1,10.5,23.8,5
LD_DL2,Huyện Đơn Dương - Lâm Đồng,Lâm Đồng,Đơn Dương,11.75,108.55,2026-03-10 15:53:26,openmeteo,high,2026-03-10T15:45,,25.1,27.3,14.7,20.7,55,91,39,68.8,1012.8,1017.7,1010.0,1014.8,19.2,21.9,2.1,10.3,64,70.1,0.0,0.5,0.1,0.1,3.1,69,100,0,51.2,24.1,24.1,24.1,24.1,5
LD_DH,Huyện Đạ Huoai - Lâm Đồng,Lâm Đồng,Đạ Huoai,11.4167,107.6333,2026-03-10 15:53:24,openmeteo,high,2026-03-10T15:45,,30.0,33.5,19.1,26.6,65,98,39,74.6,1010.7,1015.4,1007.8,1011.9,0.8,14.3,0.4,4.3,153,117.5,0.0,1.4,0.2,0.1,2.9,68,99,0,42.5,24.1,24.1,10.6,24.0,5
LD_DT,Huyện Đạ Tẻh - Lâm Đồng,Lâm Đồng,Đạ Tẻh,11.5,107.5167,2026-03-10 15:53:29,openmeteo,high,2026-03-10T15:45,,29.7,35.5,19.9,27.3,66,92,29,65.1,1010.7,1015.2,1007.2,1011.6,7.5,10.5,0.4,4.0,145,55.5,0.1,0.4,0.1,0.0,0.5,83,99,0,36.2,24.1,24.1,4.7,24.0,30
LD_DR,Huyện Đức Trọng - Lâm Đồng,Lâm Đồng,Đức Trọng,11.7333,108.3,2026-03-10 15:53:32,openmeteo,high,2026-03-10T15:45,,25.8,28.3,14.2,21.2,56,99,40,74.0,1011.9,1017.4,1009.3,1014.2,13.6,14.4,0.0,5.4,11,67.5,0.0,1.3,0.1,0.2,4.2,76,100,0,56.1,21.1,24.1,21.1,24.1,5
LD_BA,Thành phố Bảo Lộc - Lâm Đồng,Lâm Đồng,Bảo Lộc,11.55,107.8,2026-03-10 15:53:23,openmeteo,high,2026-03-10T15:45,,25.0,29.7,18.3,23.6,81,95,42,71.9,1011.6,1015.9,1008.4,1012.6,5.0,9.4,0.4,6.2,159,96.2,0.3,1.0,0.1,0.1,2.4,100,100,0,39.6,24.1,24.1,10.6,24.0,25
LD_DL,Thành phố Đà Lạt - Lâm Đồng,Lâm Đồng,Đà Lạt,11.9404,108.4587,2026-03-10 15:53:21,openmeteo,high,2026-03-10T15:45,,20.7,24.0,14.3,18.3,69,89,50,74.3,1014.2,1018.3,1011.0,1015.6,16.8,19.6,3.5,9.3,45,49.9,0.0,1.2,0.1,0.2,5.4,54,100,0,44.2,14.1,24.1,0.3,17.9,0
LS_CL,Huyện Cao Lộc - Lạng Sơn,Lạng Sơn,Cao Lộc,21.9,106.8,2026-03-10 15:55:41,openmeteo,high,2026-03-10T15:45,,20.0,24.2,11.8,18.3,58,95,53,76.8,1019.6,1026.4,1013.3,1019.7,10.2,18.4,0.5,6.3,45,90.2,0.0,0.1,0.1,0.0,0.6,44,100,0,78.9,24.1,24.1,19.2,24.0,0
LS_LL,Huyện Lộc Bình - Lạng Sơn,Lạng Sơn,Lộc Bình,21.75,106.9333,2026-03-10 15:55:42,openmeteo,high,2026-03-10T15:45,,20.5,24.1,12.0,18.5,54,95,49,74.8,1019.4,1025.9,1013.4,1019.6,8.9,16.3,0.7,6.0,43,88.9,0.0,0.1,0.1,0.0,0.6,24,100,0,77.9,24.1,24.1,24.1,24.1,0
LS_LS,Thành phố Lạng Sơn - Lạng Sơn,Lạng Sơn,Lạng Sơn,21.8478,106.7578,2026-03-10 15:55:41,openmeteo,high,2026-03-10T15:45,,20.1,24.3,11.9,18.4,58,95,53,76.8,1019.6,1026.4,1013.3,1019.7,10.2,18.4,0.5,6.3,45,90.2,0.0,0.1,0.1,0.0,0.6,44,100,0,78.9,24.1,24.1,23.9,24.1,0
ND_GL,Huyện Giao Thủy - Nam Định,Nam Định,Giao Thủy,20.2333,106.45,2026-03-10 15:52:49,statistical,medium,2026-03-10T15:52:49.425609,,29.5,33.5,24.8,29.2,80,90,70,79.0,1008.0,1020.0,1007.0,1013.4,3.7,5.8,1.1,3.6,107,144.9,1.9,7.8,0.2,1.8,43.9,73,79,49,63.4,11.1,15.3,9.8,12.6,10
ND_HH,Huyện Hải Hậu - Nam Định,Nam Định,Hải Hậu,20.1833,106.3,2026-03-10 15:52:50,statistical,medium,2026-03-10T15:52:50.691898,,32.3,36.2,27.4,31.0,76,89,70,80.0,1005.0,1020.0,1005.0,1013.2,1.5,5.5,1.1,3.3,265,346.0,2.4,5.3,0.1,1.2,28.0,51,78,49,63.1,12.6,14.3,8.7,11.6,15
ND_ML,Huyện Mỹ Lộc - Nam Định,Nam Định,Mỹ Lộc,20.4667,106.1167,2026-03-10 15:52:40,openmeteo,high,2026-03-10T15:45,,23.1,26.5,15.7,20.6,57,97,54,79.0,1018.8,1025.3,1012.7,1019.1,5.9,15.1,0.4,5.6,43,101.2,0.0,0.1,0.1,0.1,1.2,58,100,10,81.5,24.1,24.1,24.1,24.1,0
ND_NC,Huyện Nam Trực - Nam Định,Nam Định,Nam Trực,20.3333,106.2,2026-03-10 15:52:42,openmeteo,high,2026-03-10T15:45,,22.5,26.0,14.7,20.1,61,98,57,82.2,1018.9,1025.1,1013.1,1019.0,5.5,18.4,1.1,7.1,58,58.8,0.0,0.3,0.1,0.1,1.8,62,100,0,77.3,24.1,24.1,24.1,24.1,0
ND_TK,Huyện Trực Ninh - Nam Định,Nam Định,Trực Ninh,20.25,106.25,2026-03-10 15:52:42,openmeteo,high,2026-03-10T15:45,,22.6,26.0,14.8,20.2,59,98,57,82.3,1018.9,1025.1,1013.1,1019.0,5.7,20.5,1.1,7.6,55,52.8,0.0,0.3,0.1,0.1,1.5,64,100,0,76.4,24.1,24.1,24.1,24.1,0
ND_VB,Huyện Vụ Bản - Nam Định,Nam Định,Vụ Bản,20.3667,106.1,2026-03-10 15:52:44,openmeteo,high,2026-03-10T15:45,,22.9,26.3,15.4,20.3,59,98,55,81.0,1018.8,1025.2,1012.9,1019.0,5.1,16.7,0.0,6.2,51,63.8,0.0,0.3,0.1,0.1,1.8,61,100,16,79.6,24.1,24.1,24.1,24.1,0
ND_XT,Huyện Xuân Trường - Nam Định,Nam Định,Xuân Trường,20.3,106.35,2026-03-10 15:52:43,openmeteo,high,2026-03-10T15:45,,22.2,25.5,14.9,20.1,60,99,58,83.0,1019.1,1025.1,1013.4,1019.0,7.2,22.1,2.6,8.8,96,57.0,0.0,0.3,0.1,0.1,2.1,73,100,0,75.7,24.1,24.1,24.1,24.1,0
ND_YN,Huyện Ý Yên - Nam Định,Nam Định,Ý Yên,20.3167,106.0167,2026-03-10 15:52:44,openmeteo,high,2026-03-10T15:45,,23.1,26.4,14.9,20.4,56,99,55,80.1,1018.8,1025.2,1012.8,1019.1,6.9,16.4,0.0,5.6,39,69.7,0.0,0.1,0.1,0.0,0.9,45,100,11,81.8,24.1,24.1,24.1,24.1,0
ND_TP,Thành phố Nam Định - Nam Định,Nam Định,Nam Định,20.42,106.1683,2026-03-10 15:52:40,openmeteo,high,2026-03-10T15:45,,22.9,26.3,15.4,20.3,59,98,55,81.0,1018.8,1025.2,1012.9,1019.0,5.1,16.7,0.0,6.2,51,63.8,0.0,0.3,0.1,0.1,1.8,61,100,16,79.6,24.1,24.1,24.1,24.1,0
NA_HH,Huyện Hoàng Mai - Nghệ An,Nghệ An,Hoàng Mai,19.2667,105.7167,2026-03-10 15:55:10,openmeteo,high,2026-03-10T15:45,,21.0,25.0,15.6,20.4,65,97,62,83.5,1019.4,1024.9,1013.2,1018.9,6.6,14.9,0.4,5.9,81,24.5,0.0,0.2,0.1,0.1,1.8,94,100,14,82.9,24.1,24.1,17.2,24.0,0
NA_VH,Thành phố Vinh - Nghệ An,Nghệ An,Vinh,18.6733,105.6811,2026-03-10 15:55:05,openmeteo,high,2026-03-10T15:45,,21.0,25.8,16.8,20.8,72,99,66,83.4,1019.4,1024.9,1012.8,1018.6,4.1,13.0,0.5,4.7,15,357.9,0.0,0.1,0.1,0.0,0.9,84,100,30,86.1,24.1,24.1,8.5,22.8,0
NA_CT,Thị xã Cửa Lò - Nghệ An,Nghệ An,Cửa Lò,18.8167,105.7167,2026-03-10 15:55:06,openmeteo,high,2026-03-10T15:45,,21.0,25.5,17.3,20.9,70,97,64,83.9,1019.5,1024.8,1013.0,1018.7,5.6,13.2,0.7,4.8,50,11.1,0.0,0.3,0.1,0.1,2.2,74,100,25,84.2,24.1,24.1,8.5,22.8,0
NA_TH,Thị xã Thái Hòa - Nghệ An,Nghệ An,Thái Hòa,19.3,105.4667,2026-03-10 15:55:06,openmeteo,high,2026-03-10T15:45,,21.9,25.3,15.3,20.4,61,96,58,81.3,1019.1,1025.1,1012.9,1018.9,7.3,15.3,0.5,4.9,79,31.0,0.0,0.3,0.1,0.1,3.0,67,100,5,81.3,24.1,24.1,15.2,23.9,0
NB_HS,Huyện Hoa Lư - Ninh Bình,Ninh Bình,Hoa Lư,20.2833,105.9167,2026-03-10 15:55:58,openmeteo,high,2026-03-10T15:45,,22.9,26.1,14.0,20.1,54,99,52,80.3,1018.8,1025.4,1012.8,1019.1,7.9,15.8,0.4,5.4,43,57.5,0.0,0.0,0.0,0.0,0.0,24,100,0,80.5,24.1,24.1,24.1,24.1,0
NB_NB,Thành phố Ninh Bình - Ninh Bình,Ninh Bình,Ninh Bình,20.2539,105.975,2026-03-10 15:55:57,openmeteo,high,2026-03-10T15:45,,23.0,26.1,14.7,20.3,55,99,54,80.9,1018.8,1025.3,1013.0,1019.1,7.1,15.5,0.0,5.5,41,49.5,0.0,0.0,0.0,0.0,0.0,41,100,0,80.2,24.1,24.1,24.1,24.1,0
NB_TL,Thành phố Tam Điệp - Ninh Bình,Ninh Bình,Tam Điệp,20.15,105.9167,2026-03-10 15:55:59,openmeteo,high,2026-03-10T15:45,,23.2,26.1,14.5,20.4,54,98,52,80.9,1018.8,1025.3,1013.0,1019.0,7.4,14.5,0.7,5.2,47,54.9,0.0,0.1,0.1,0.0,0.6,24,100,0,78.7,24.1,24.1,24.1,24.1,0
NT_NA,Huyện Ninh Hải - Ninh Thuận,Ninh Thuận,Ninh Hải,11.6,109.0333,2026-03-10 15:55:37,statistical,medium,2026-03-10T15:55:37.217144,,32.5,35.9,25.8,30.6,79,84,65,73.2,1009.0,1020.0,1005.0,1013.3,5.5,5.8,1.3,3.7,246,126.9,0.0,5.5,1.2,0.5,12.1,54,76,43,57.9,12.3,15.2,9.5,12.7,10
NT_TA,Huyện Thuận Bắc - Ninh Thuận,Ninh Thuận,Thuận Bắc,11.75,108.9333,2026-03-10 15:55:24,openmeteo,high,2026-03-10T15:45,,28.3,32.5,17.5,24.8,52,90,36,63.9,1012.4,1016.6,1009.3,1013.5,18.1,24.2,0.5,8.1,43,11.7,0.0,0.0,0.0,0.0,0.0,74,100,0,48.8,23.7,24.1,23.7,24.1,5
NT_PH,Thành phố Phan Rang-Tháp Chàm - Ninh Thuận,Ninh Thuận,Phan Rang-Tháp Chàm,11.5667,108.9833,2026-03-10 15:55:32,statistical,medium,2026-03-10T15:55:32.936649,,29.2,34.1,23.7,28.3,72,85,66,74.4,1006.0,1019.0,1006.0,1012.8,4.5,6.0,1.0,3.0,165,358.3,0.0,4.4,2.1,0.7,16.1,49,71,50,59.2,14.2,15.4,11.2,13.2,5
PT_HT,Huyện Hạ Hòa - Phú Thọ,Phú Thọ,Hạ Hòa,21.55,105.0,2026-03-10 15:55:52,openmeteo,high,2026-03-10T15:45,,21.6,24.7,13.2,19.5,63,99,63,83.7,1018.7,1025.3,1012.3,1019.1,8.0,11.6,0.4,4.0,108,117.7,0.0,0.1,0.1,0.0,1.1,88,100,34,86.2,24.1,24.1,10.9,23.9,0
PT_VT,Thành phố Việt Trì - Phú Thọ,Phú Thọ,Việt Trì,21.3,105.4333,2026-03-10 15:56:00,statistical,medium,2026-03-10T15:56:00.752143,,22.0,27.7,17.2,22.0,77,90,76,82.6,1012.0,1020.0,1008.0,1014.8,1.4,5.9,1.1,3.4,120,107.6,0.0,7.2,1.3,1.6,38.6,66,79,52,65.3,10.8,14.0,9.4,11.2,0
PT_PT,Thị xã Phú Thọ - Phú Thọ,Phú Thọ,Phú Thọ,21.4,105.2333,2026-03-10 15:55:52,openmeteo,high,2026-03-10T15:45,,23.1,26.3,15.3,20.6,56,95,56,80.5,1018.5,1025.3,1011.7,1018.8,8.7,16.1,0.7,6.7,107,124.2,0.0,0.1,0.1,0.0,0.1,32,100,0,82.7,24.1,24.1,10.8,23.9,0
PY_DD,Huyện Đông Hòa - Phú Yên,Phú Yên,Đông Hòa,12.9833,109.3667,2026-03-10 15:55:20,openmeteo,high,2026-03-10T15:45,,23.2,26.2,20.9,22.8,88,98,64,88.3,1015.4,1018.3,1012.6,1015.7,11.0,18.4,1.1,7.6,19,13.0,0.2,1.4,0.1,1.9,45.5,90,97,48,87.6,16.5,24.1,5.6,18.1,35
PY_TH,Thành phố Tuy Hòa - Phú Yên,Phú Yên,Tuy Hòa,13.0833,109.3,2026-03-10 15:55:19,openmeteo,high,2026-03-10T15:45,,25.4,28.8,21.0,23.9,73,91,48,78.3,1014.8,1018.1,1012.0,1015.3,17.4,18.9,1.6,10.1,34,43.2,0.0,0.2,0.1,0.1,2.2,82,100,43,77.1,16.5,24.1,5.6,18.1,5
PY_SH,Thị xã Sông Cầu - Phú Yên,Phú Yên,Sông Cầu,13.45,109.2167,2026-03-10 15:55:19,openmeteo,high,2026-03-10T15:45,,25.2,28.5,21.2,23.9,72,93,50,77.0,1015.0,1018.3,1012.2,1015.5,17.9,22.6,2.9,9.7,25,14.7,0.0,0.4,0.1,0.2,4.2,70,100,30,77.9,24.1,24.1,4.1,20.4,5
QB_BT,Huyện Bố Trạch - Quảng Bình,Quảng Bình,Bố Trạch,17.5,106.25,2026-03-10 15:53:04,openmeteo,high,2026-03-10T15:45,,15.6,23.3,13.8,17.4,87,96,64,86.7,1019.3,1023.7,1013.5,1018.6,9.7,12.8,3.3,7.8,27,40.3,0.0,0.3,0.1,0.1,2.1,100,100,65,91.4,14.3,24.1,0.1,9.5,10
QB_LT,Huyện Lệ Thủy - Quảng Bình,Quảng Bình,Lệ Thủy,17.2167,106.8,2026-03-10 15:53:03,openmeteo,high,2026-03-10T15:45,,19.6,25.8,18.7,21.2,83,98,69,87.9,1018.8,1022.7,1012.9,1017.8,10.9,14.6,0.5,5.8,351,21.5,0.0,5.0,0.1,1.3,31.2,100,100,40,91.0,22.6,24.1,6.7,20.6,0
QB_MC,Huyện Minh Hóa - Quảng Bình,Quảng Bình,Minh Hóa,17.7833,105.9167,2026-03-10 15:53:05,openmeteo,high,2026-03-10T15:45,,17.0,24.9,13.8,18.1,82,99,61,87.5,1019.6,1024.1,1013.7,1019.0,11.0,16.5,4.9,9.5,38,42.0,0.0,0.1,0.1,0.0,0.2,91,100,51,87.3,24.1,24.1,0.1,11.1,0
QB_QN,Huyện Quảng Ninh - Quảng Bình,Quảng Bình,Quảng Ninh,17.4,106.55,2026-03-10 15:53:05,openmeteo,high,2026-03-10T15:45,,18.5,24.5,16.5,20.0,82,97,71,86.8,1019.1,1023.4,1013.6,1018.5,9.7,14.5,2.7,6.7,22,47.7,0.0,0.5,0.1,0.2,4.8,100,100,67,92.4,24.1,24.1,3.4,17.1,0
QB_QH,Huyện Quảng Trạch - Quảng Bình,Quảng Bình,Quảng Trạch,17.8333,106.4167,2026-03-10 15:53:06,openmeteo,high,2026-03-10T15:45,,19.3,24.9,17.2,20.3,79,97,72,85.5,1019.3,1023.9,1013.1,1018.3,10.1,16.9,1.4,6.1,356,354.7,0.0,0.4,0.1,0.1,2.8,98,100,47,91.9,24.1,24.1,5.1,20.2,0
QB_TN,Huyện Tuyên Hóa - Quảng Bình,Quảng Bình,Tuyên Hóa,17.9,106.0,2026-03-10 15:53:17,statistical,medium,2026-03-10T15:53:17.244899,,27.8,32.5,21.8,26.5,86,89,70,77.9,1012.0,1020.0,1005.0,1012.8,1.3,5.5,1.2,3.1,161,130.4,0.0,7.8,0.4,1.4,33.2,74,76,48,60.4,10.5,15.0,10.7,12.6,15
QB_DH,Thành phố Đồng Hới - Quảng Bình,Quảng Bình,Đồng Hới,17.4687,106.6227,2026-03-10 15:53:02,openmeteo,high,2026-03-10T15:45,,18.8,24.5,17.0,20.1,81,95,73,87.2,1019.0,1023.1,1013.4,1018.2,11.8,15.2,1.8,6.3,20,39.0,0.0,0.9,0.1,0.4,10.2,98,100,64,92.3,24.1,24.1,3.4,17.1,0
QB_BAD,Thị xã Ba Đồn - Quảng Bình,Quảng Bình,Ba Đồn,17.75,106.4167,2026-03-10 15:53:11,statistical,medium,2026-03-10T15:53:11.904696,,27.1,30.0,21.9,26.4,71,90,70,79.6,1017.0,1020.0,1005.0,1012.1,4.4,6.0,1.3,3.8,115,85.4,0.0,7.4,0.8,1.7,41.6,52,76,48,62.2,14.5,14.9,9.8,12.3,5
QN_NT,Huyện Núi Thành - Quảng Nam,Quảng Nam,Núi Thành,15.4333,108.6667,2026-03-10 15:55:16,openmeteo,high,2026-03-10T15:45,,23.6,27.5,21.6,23.6,89,98,65,87.9,1017.5,1020.6,1012.9,1017.2,7.3,12.1,0.5,4.7,20,9.0,0.2,1.4,0.1,1.4,34.7,93,100,36,88.3,11.7,24.1,3.6,17.6,35
QN_DG,Huyện Điện Bàn - Quảng Nam,Quảng Nam,Điện Bàn,15.9,108.25,2026-03-10 15:55:25,statistical,medium,2026-03-10T15:55:25.206153,,29.8,32.4,24.7,29.4,84,84,66,74.5,1016.0,1020.0,1005.0,1010.8,1.1,6.0,1.3,3.1,321,334.6,0.0,6.2,0.6,0.3,6.8,60,70,48,59.0,9.4,16.0,9.7,12.7,5
QN_HT,Thành phố Hội An - Quảng Nam,Quảng Nam,Hội An,15.8833,108.3333,2026-03-10 15:55:16,openmeteo,high,2026-03-10T15:45,,22.8,27.1,20.6,22.7,84,94,64,85.9,1017.3,1020.5,1012.7,1017.0,10.5,18.0,0.0,6.1,8,9.3,0.1,0.9,0.1,1.2,27.8,100,100,38,88.3,8.7,24.1,3.7,17.1,25
QN_TC,Thành phố Tam Kỳ - Quảng Nam,Quảng Nam,Tam Kỳ,15.5667,108.4833,2026-03-10 15:55:13,openmeteo,high,2026-03-10T15:45,,22.9,27.1,20.6,22.5,85,97,63,87.3,1017.3,1020.5,1012.7,1017.0,8.9,13.5,0.0,4.9,27,21.3,0.3,1.3,0.1,1.7,41.4,93,100,50,88.4,11.7,24.1,3.6,17.6,25
QN_BT,Huyện Bình Sơn - Quảng Ngãi,Quảng Ngãi,Bình Sơn,15.3167,108.7667,2026-03-10 15:55:37,openmeteo,high,2026-03-10T15:45,,21.2,24.8,19.2,21.2,88,98,66,89.4,1017.5,1020.6,1013.1,1017.2,8.4,11.9,0.4,5.4,10,6.7,0.2,1.5,0.1,1.8,43.7,97,100,52,91.5,7.1,24.1,4.3,17.9,35
QN_LS,Huyện Lý Sơn - Quảng Ngãi,Quảng Ngãi,Lý Sơn,15.3833,109.1167,2026-03-10 15:55:17,openmeteo,high,2026-03-10T15:45,,24.0,25.3,22.9,23.9,79,87,67,79.7,1016.5,1019.5,1012.6,1016.5,21.1,22.7,3.7,12.0,17,24.5,0.1,1.2,0.1,2.8,67.9,84,100,4,78.5,24.1,24.1,7.8,19.5,25
QN_QN,Thành phố Quảng Ngãi - Quảng Ngãi,Quảng Ngãi,Quảng Ngãi,15.1167,108.8,2026-03-10 15:55:16,openmeteo,high,2026-03-10T15:45,,23.0,26.8,21.1,22.9,86,95,59,85.1,1016.9,1020.0,1012.7,1016.8,9.8,15.2,0.5,5.4,6,343.5,0.1,1.2,0.1,1.3,31.2,89,100,47,87.3,10.1,24.1,1.1,17.5,35
QN_LS2,Đảo Lý Sơn - Quảng Ngãi,Quảng Ngãi,Lý Sơn,15.3833,109.1167,2026-03-10 15:56:37,openmeteo,high,2026-03-10T15:45,,24.0,25.3,22.9,23.9,79,87,67,79.7,1016.5,1019.5,1012.6,1016.5,21.1,22.7,3.7,12.0,17,24.5,0.1,1.2,0.1,2.8,67.9,84,100,4,78.5,24.1,24.1,7.8,19.5,25
QN_BG,Huyện Ba Chẽ - Quảng Ninh,Quảng Ninh,Ba Chẽ,21.2833,107.1833,2026-03-10 15:52:32,openmeteo,high,2026-03-10T15:45,,23.3,26.1,14.0,19.8,51,96,49,75.3,1018.7,1025.3,1013.7,1019.5,2.9,17.2,0.7,5.7,60,79.5,0.0,0.0,0.0,0.0,0.0,44,100,0,76.1,24.1,24.1,20.4,24.0,0
QN_BQ,Huyện Bình Liêu - Quảng Ninh,Quảng Ninh,Bình Liêu,21.5333,107.4333,2026-03-10 15:52:30,openmeteo,high,2026-03-10T15:45,,21.5,23.7,12.2,18.6,54,96,50,76.2,1019.2,1025.3,1014.2,1019.8,5.4,18.1,1.1,7.1,42,98.1,0.0,0.0,0.0,0.0,0.0,37,100,3,76.3,24.1,24.1,20.6,24.0,0
QN_CT,Huyện Cô Tô - Quảng Ninh,Quảng Ninh,Cô Tô,20.9681,107.7639,2026-03-10 15:52:39,statistical,medium,2026-03-10T15:52:39.789086,,31.0,34.9,24.7,29.7,70,90,70,81.0,1009.0,1020.0,1005.0,1012.6,5.0,5.9,1.0,3.4,41,226.4,0.4,7.7,0.8,1.5,35.1,56,73,53,63.5,15.2,14.3,8.6,11.9,10
QN_HD,Huyện Hải Hà - Quảng Ninh,Quảng Ninh,Hải Hà,21.4333,107.7167,2026-03-10 15:52:32,openmeteo,high,2026-03-10T15:45,,18.7,21.2,12.1,17.1,68,99,53,80.2,1019.5,1025.1,1014.9,1020.1,6.4,14.4,2.2,6.1,128,81.9,0.0,0.1,0.1,0.0,0.1,80,100,0,78.6,24.1,24.1,13.0,23.4,0
QN_TY,Huyện Tiên Yên - Quảng Ninh,Quảng Ninh,Tiên Yên,21.3833,107.3833,2026-03-10 15:52:33,openmeteo,high,2026-03-10T15:45,,21.8,24.4,13.3,19.4,57,96,47,75.5,1019.3,1025.0,1014.1,1019.6,9.2,17.9,0.7,5.8,138,94.1,0.0,0.0,0.0,0.0,0.0,64,100,0,71.9,24.1,24.1,20.6,24.0,0
QN_VD,Huyện Vân Đồn - Quảng Ninh,Quảng Ninh,Vân Đồn,20.9551,107.4764,2026-03-10 15:52:33,openmeteo,high,2026-03-10T15:45,,21.2,24.3,14.4,19.9,59,95,51,76.5,1019.4,1024.9,1014.1,1019.6,10.3,17.0,1.1,6.3,115,50.3,0.0,0.0,0.0,0.0,0.0,39,100,0,74.3,24.1,24.1,21.4,24.0,0
QN_DH,Huyện Đầm Hà - Quảng Ninh,Quảng Ninh,Đầm Hà,21.3667,107.6,2026-03-10 15:52:31,openmeteo,high,2026-03-10T15:45,,21.4,24.4,14.1,20.2,60,95,52,77.6,1019.5,1024.9,1014.4,1019.7,8.2,18.4,1.4,6.7,139,70.2,0.0,0.0,0.0,0.0,0.0,63,100,3,77.1,24.1,24.1,19.9,24.0,0
QN_CP,Thành phố Cẩm Phả - Quảng Ninh,Quảng Ninh,Cẩm Phả,21.0167,107.3167,2026-03-10 15:52:27,openmeteo,high,2026-03-10T15:45,,20.3,24.7,13.9,19.5,61,91,51,74.3,1019.5,1024.8,1014.0,1019.4,9.6,18.8,2.1,7.7,146,68.8,0.0,0.0,0.0,0.0,0.0,41,100,0,72.2,24.1,24.1,21.4,24.0,0
QN_HL,Thành phố Hạ Long - Quảng Ninh,Quảng Ninh,Hạ Long,20.9582,107.0758,2026-03-10 15:52:35,statistical,medium,2026-03-10T15:52:35.155372,,26.6,31.9,21.9,26.8,72,90,70,79.6,1005.0,1020.0,1006.0,1013.3,5.1,6.0,1.1,3.5,258,93.8,1.2,6.7,1.1,1.5,35.5,59,78,50,63.5,13.1,15.5,9.5,12.6,10
QN_MC,Thành phố Móng Cái - Quảng Ninh,Quảng Ninh,Móng Cái,21.5247,107.9664,2026-03-10 15:52:27,openmeteo,high,2026-03-10T15:45,,22.4,24.7,15.2,20.1,53,94,51,74.5,1019.2,1025.1,1014.4,1019.7,8.4,14.2,0.4,5.4,65,29.8,0.0,0.3,0.1,0.1,3.5,56,100,0,74.4,24.1,24.1,13.0,23.4,0
QN_UB,Thành phố Uông Bí - Quảng Ninh,Quảng Ninh,Uông Bí,21.0361,106.7633,2026-03-10 15:52:28,openmeteo,high,2026-03-10T15:45,,24.5,26.0,15.5,21.0,52,94,50,75.7,1018.7,1024.9,1013.3,1019.1,6.7,19.2,0.7,6.7,144,82.7,0.0,0.2,0.1,0.0,0.9,38,100,0,75.6,24.1,24.1,24.1,24.1,0
QN_QY,Thị xã Quảng Yên - Quảng Ninh,Quảng Ninh,Quảng Yên,20.9333,106.8167,2026-03-10 15:52:29,openmeteo,high,2026-03-10T15:45,,21.2,25.1,16.8,20.7,59,92,55,75.4,1019.2,1024.9,1013.6,1019.1,12.6,17.8,1.0,7.7,149,76.9,0.0,0.1,0.1,0.0,0.3,32,100,0,69.3,24.1,24.1,24.1,24.1,0
QN_DK,Thị xã Đông Triều - Quảng Ninh,Quảng Ninh,Đông Triều,21.0833,106.5,2026-03-10 15:52:38,statistical,medium,2026-03-10T15:52:38.343520,,21.9,26.8,17.0,21.7,83,90,75,81.9,1005.0,1020.0,1005.0,1013.0,4.0,6.0,1.0,3.8,36,215.6,0.0,6.4,1.1,0.7,15.9,71,78,52,64.7,12.3,14.5,9.1,11.9,0
QN_CT,Đảo Cô Tô - Quảng Ninh,Quảng Ninh,Cô Tô,20.9681,107.7639,2026-03-10 15:56:32,openmeteo,high,2026-03-10T15:45,,19.0,22.0,17.2,20.1,67,93,65,78.4,1019.7,1024.9,1014.2,1019.4,11.5,23.4,3.5,10.9,76,57.2,0.0,1.3,0.1,0.1,1.7,17,100,0,73.1,24.1,24.1,14.7,23.7,0
QN_VD,Đảo Vân Đồn - Quảng Ninh,Quảng Ninh,Vân Đồn,20.9551,107.4764,2026-03-10 15:56:36,statistical,medium,2026-03-10T15:56:36.243303,,28.9,33.0,23.1,28.3,82,89,70,78.2,1017.0,1020.0,1005.0,1012.9,2.9,5.6,1.2,3.5,55,180.0,0.0,7.1,0.8,1.6,39.5,71,78,52,63.4,11.6,14.8,10.5,12.8,5
QT_CL,Huyện Cam Lộ - Quảng Trị,Quảng Trị,Cam Lộ,16.8,106.9833,2026-03-10 15:53:01,statistical,medium,2026-03-10T15:53:01.022109,,30.2,32.2,23.7,28.5,82,90,74,81.9,1016.0,1020.0,1006.0,1013.5,2.4,5.9,1.3,3.6,141,287.6,3.2,8.0,0.3,1.4,34.7,62,78,50,64.7,12.0,14.8,9.3,12.0,15
QT_CC,Huyện Cồn Cỏ - Quảng Trị,Quảng Trị,Cồn Cỏ,17.1597,107.3408,2026-03-10 15:52:53,openmeteo,high,2026-03-10T15:45,,21.8,24.2,21.7,22.8,83,87,69,82.4,1018.1,1021.6,1012.7,1017.3,26.8,37.2,2.6,17.3,7,69.0,0.2,2.1,0.1,2.2,52.8,100,100,0,84.5,13.1,24.1,6.3,19.7,25
QT_GL,Huyện Gio Linh - Quảng Trị,Quảng Trị,Gio Linh,16.9167,107.05,2026-03-10 15:52:56,openmeteo,high,2026-03-10T15:45,,19.9,27.7,19.1,21.5,92,100,61,89.2,1018.5,1022.0,1012.7,1017.6,7.4,14.7,1.4,6.0,337,13.2,0.0,2.7,0.1,1.3,32.3,100,100,58,92.3,15.8,24.1,6.4,20.0,10
QT_HL,Huyện Hướng Hóa - Quảng Trị,Quảng Trị,Hướng Hóa,16.7,106.6667,2026-03-10 15:53:07,statistical,medium,2026-03-10T15:53:07.181006,,28.7,33.3,22.7,27.8,87,90,70,80.7,1020.0,1020.0,1006.0,1011.3,4.1,5.7,1.1,2.7,349,135.0,0.0,7.8,0.6,2.5,59.8,75,77,49,63.1,10.0,14.0,9.1,11.5,15
QT_HH,Huyện Hải Lăng - Quảng Trị,Quảng Trị,Hải Lăng,16.7,107.25,2026-03-10 15:53:06,statistical,medium,2026-03-10T15:53:06.338282,,29.9,32.4,24.1,28.6,70,89,70,79.8,1020.0,1020.0,1005.0,1013.5,5.3,5.7,1.2,3.1,337,279.8,4.6,7.5,0.3,2.0,48.4,58,78,46,61.6,12.7,15.2,9.4,12.0,10
QT_TL,Huyện Triệu Phong - Quảng Trị,Quảng Trị,Triệu Phong,16.7833,107.1667,2026-03-10 15:52:57,openmeteo,high,2026-03-10T15:45,,20.1,27.7,18.7,21.6,90,97,60,88.6,1018.3,1021.7,1012.6,1017.4,7.7,15.6,0.8,6.0,332,23.2,0.0,1.0,0.1,1.3,32.0,100,100,46,89.3,17.3,24.1,4.2,20.3,10
QT_VL,Huyện Vĩnh Linh - Quảng Trị,Quảng Trị,Vĩnh Linh,17.0,106.9333,2026-03-10 15:52:58,openmeteo,high,2026-03-10T15:45,,18.2,25.0,17.5,19.8,91,99,67,91.1,1019.1,1022.8,1013.3,1018.2,7.3,14.4,1.9,6.2,9,59.3,0.0,0.7,0.1,0.4,9.5,100,100,68,92.8,15.8,24.1,6.4,20.0,10
QT_DK,Huyện Đa Krông - Quảng Trị,Quảng Trị,Đa Krông,16.5556,106.9722,2026-03-10 15:52:57,openmeteo,high,2026-03-10T15:45,,18.6,27.2,17.7,20.4,91,97,57,86.6,1018.5,1021.9,1012.7,1017.5,10.4,17.3,5.0,9.7,56,58.5,0.0,0.7,0.1,0.1,3.5,100,100,53,85.9,0.1,24.1,0.1,14.0,10
QT_DH,Thành phố Đông Hà - Quảng Trị,Quảng Trị,Đông Hà,16.816,107.1,2026-03-10 15:52:55,openmeteo,high,2026-03-10T15:45,,19.3,27.1,18.5,20.9,92,100,61,89.2,1018.5,1022.0,1012.7,1017.6,7.4,14.7,1.4,6.0,337,13.2,0.0,2.7,0.1,1.3,32.3,100,100,58,92.3,14.1,24.1,4.1,20.7,10
QT_QH,Thị xã Quảng Trị - Quảng Trị,Quảng Trị,Quảng Trị,16.75,107.1833,2026-03-10 15:53:00,statistical,medium,2026-03-10T15:53:00.915483,,29.6,31.5,23.6,28.8,78,89,71,79.8,1009.0,1020.0,1005.0,1010.6,1.7,5.9,1.2,3.6,304,217.8,4.2,7.3,0.2,1.3,31.2,63,78,50,65.9,13.2,14.7,9.0,11.9,10
QT_CC2,Đảo Cồn Cỏ - Quảng Trị,Quảng Trị,Cồn Cỏ,17.1597,107.3408,2026-03-10 15:56:53,statistical,medium,2026-03-10T15:56:53.893857,,29.3,34.3,24.8,29.4,75,90,70,81.8,1014.0,1020.0,1005.0,1012.1,3.1,5.8,1.1,3.2,246,3.8,0.0,7.8,1.2,1.7,41.7,63,80,49,63.3,13.6,14.7,9.7,11.7,5
ST_CL,Huyện Châu Thành - Sóc Trăng,Sóc Trăng,Châu Thành,9.7,105.9,2026-03-10 15:54:51,openmeteo,high,2026-03-10T15:45,,32.0,33.3,23.4,27.5,50,92,39,70.0,1009.8,1014.5,1007.7,1011.5,15.8,26.3,6.0,13.7,90,91.4,0.0,0.1,0.1,0.0,0.3,86,100,0,52.2,24.1,24.1,18.6,24.1,10
ST_CT,Huyện Cù Lao Dung - Sóc Trăng,Sóc Trăng,Cù Lao Dung,9.6667,106.1667,2026-03-10 15:54:51,openmeteo,high,2026-03-10T15:45,,31.6,33.1,23.8,27.6,51,91,42,69.1,1010.2,1014.6,1008.0,1011.5,22.3,26.9,7.2,16.6,88,86.9,0.0,0.2,0.1,0.0,0.3,58,100,0,50.5,24.1,24.1,13.4,23.9,10
ST_KS,Huyện Kế Sách - Sóc Trăng,Sóc Trăng,Kế Sách,9.8167,105.9833,2026-03-10 15:55:02,statistical,medium,2026-03-10T15:55:02.504675,,28.7,34.1,24.0,28.8,67,85,65,74.5,1010.0,1019.0,1005.0,1010.0,5.9,5.6,1.4,3.6,332,213.3,0.0,6.0,2.9,0.5,12.3,57,76,44,61.2,14.1,15.8,9.8,12.8,5
ST_LT,Huyện Long Phú - Sóc Trăng,Sóc Trăng,Long Phú,9.6167,106.1167,2026-03-10 15:54:52,openmeteo,high,2026-03-10T15:45,,31.6,33.1,23.8,27.6,51,91,42,69.1,1010.2,1014.6,1008.0,1011.5,22.3,26.9,7.2,16.6,88,86.9,0.0,0.2,0.1,0.0,0.3,58,100,0,50.5,24.1,24.1,19.1,24.1,10
ST_MD,Huyện Mỹ Tú - Sóc Trăng,Sóc Trăng,Mỹ Tú,9.6333,105.8167,2026-03-10 15:54:53,openmeteo,high,2026-03-10T15:45,,31.8,32.8,23.4,27.4,50,92,40,70.6,1009.9,1014.5,1007.8,1011.5,18.0,25.9,6.6,14.4,90,90.1,0.0,0.2,0.1,0.0,0.5,81,100,0,51.4,24.1,24.1,6.2,23.7,10
ST_MX,Huyện Mỹ Xuyên - Sóc Trăng,Sóc Trăng,Mỹ Xuyên,9.5333,105.9833,2026-03-10 15:55:02,statistical,medium,2026-03-10T15:55:02.443535,,31.7,35.6,25.3,30.0,72,83,66,74.5,1018.0,1020.0,1005.0,1013.0,1.2,5.8,1.1,3.2,178,196.9,0.0,2.8,0.2,0.3,8.3,54,72,44,60.1,15.1,15.4,10.3,12.5,10
ST_TN,Huyện Thạnh Trị - Sóc Trăng,Sóc Trăng,Thạnh Trị,9.4667,105.7167,2026-03-10 15:54:55,openmeteo,high,2026-03-10T15:45,,31.6,33.1,23.6,27.4,54,92,38,71.0,1009.9,1014.5,1007.8,1011.5,18.7,26.0,6.6,15.3,89,88.9,0.0,0.1,0.1,0.0,0.2,86,100,0,54.8,24.1,24.1,6.7,23.8,10
ST_TP,Huyện Trần Đề - Sóc Trăng,Sóc Trăng,Trần Đề,9.5,106.0833,2026-03-10 15:54:56,openmeteo,high,2026-03-10T15:45,,30.3,31.7,24.8,27.4,59,89,48,71.5,1010.5,1014.7,1008.3,1011.6,25.6,29.0,10.1,19.6,87,86.1,0.0,0.0,0.0,0.0,0.0,52,100,0,50.7,24.1,24.1,19.1,24.1,10
ST_ST,Thành phố Sóc Trăng - Sóc Trăng,Sóc Trăng,Sóc Trăng,9.6025,105.9739,2026-03-10 15:54:48,openmeteo,high,2026-03-10T15:45,,31.7,32.8,23.7,27.5,51,91,41,69.4,1010.1,1014.5,1008.0,1011.5,22.0,27.0,7.5,16.4,90,87.4,0.0,0.2,0.1,0.0,0.4,69,100,0,51.6,24.1,24.1,19.1,24.1,10
ST_NG,Thị xã Ngã Năm - Sóc Trăng,Sóc Trăng,Ngã Năm,9.5667,105.85,2026-03-10 15:54:50,openmeteo,high,2026-03-10T15:45,,31.8,32.8,23.4,27.4,50,92,40,70.6,1009.9,1014.5,1007.8,1011.5,18.0,25.9,6.6,14.4,90,90.1,0.0,0.2,0.1,0.0,0.5,81,100,0,51.4,24.1,24.1,6.7,23.8,10
ST_VC,Thị xã Vĩnh Châu - Sóc Trăng,Sóc Trăng,Vĩnh Châu,9.3333,105.9833,2026-03-10 15:54:50,openmeteo,high,2026-03-10T15:45,,30.8,32.2,25.0,27.6,58,89,44,70.6,1010.3,1014.6,1008.2,1011.6,25.2,28.8,9.9,19.3,88,85.5,0.0,0.0,0.0,0.0,0.0,60,100,0,51.5,24.1,24.1,19.1,24.1,10
SL_ML,Huyện Mộc Châu - Sơn La,Sơn La,Mộc Châu,20.85,104.6333,2026-03-10 15:55:40,openmeteo,high,2026-03-10T15:45,,19.3,23.8,12.0,17.3,65,97,59,80.6,1018.9,1025.3,1012.7,1019.3,7.6,15.6,1.4,6.4,98,103.3,0.0,0.3,0.3,0.1,1.8,78,100,35,85.6,24.1,24.1,0.8,23.0,0
SL_YB,Huyện Yên Châu - Sơn La,Sơn La,Yên Châu,21.05,104.3,2026-03-10 15:55:50,statistical,medium,2026-03-10T15:55:50.722418,,26.2,30.9,20.8,25.9,75,90,75,84.6,1018.0,1020.0,1006.0,1013.4,5.2,5.8,1.2,3.2,236,111.3,4.2,7.9,1.0,1.3,30.8,66,75,59,67.3,12.5,13.1,9.2,11.2,10
SL_SL,Thành phố Sơn La - Sơn La,Sơn La,Sơn La,21.3256,103.9189,2026-03-10 15:55:36,openmeteo,high,2026-03-10T15:45,,23.6,25.8,14.4,19.8,54,93,52,76.4,1017.4,1024.2,1011.6,1018.0,10.3,17.9,2.3,6.8,119,135.8,0.0,2.0,0.1,0.5,12.0,67,100,0,80.2,24.1,24.1,8.1,23.3,0
HCM_BC,Huyện Bình Chánh - TP Hồ Chí Minh,TP Hồ Chí Minh,Bình Chánh,10.7269,106.5672,2026-03-10 15:51:59,openmeteo,high,2026-03-10T15:45,,31.7,35.5,23.0,28.0,57,96,31,67.5,1010.0,1014.9,1006.9,1011.3,14.2,20.9,0.5,7.6,144,111.3,0.0,0.1,0.1,0.0,0.3,69,100,0,48.0,24.1,24.1,20.0,24.1,10
HCM_CG,Huyện Cần Giờ - TP Hồ Chí Minh,TP Hồ Chí Minh,Cần Giờ,10.4111,106.9547,2026-03-10 15:52:24,statistical,medium,2026-03-10T15:52:24.086441,,31.0,35.4,25.2,30.1,77,85,66,75.0,1008.0,1019.0,1005.0,1013.7,4.7,6.0,1.1,3.7,69,71.1,0.0,6.6,0.2,1.1,26.3,52,73,45,57.8,11.4,16.0,9.5,12.6,10
HCM_CC,Huyện Củ Chi - TP Hồ Chí Minh,TP Hồ Chí Minh,Củ Chi,10.9733,106.4939,2026-03-10 15:51:57,openmeteo,high,2026-03-10T15:45,,33.3,35.2,22.7,28.0,45,94,31,66.1,1009.5,1014.9,1006.8,1011.3,11.5,19.4,0.4,5.9,136,73.4,0.0,2.3,0.1,0.2,4.0,74,100,0,46.1,24.1,24.1,14.3,24.0,10
HCM_HM,Huyện Hóc Môn - TP Hồ Chí Minh,TP Hồ Chí Minh,Hóc Môn,10.8894,106.5953,2026-03-10 15:51:57,openmeteo,high,2026-03-10T15:45,,32.4,35.8,23.0,28.1,50,95,30,66.1,1009.8,1014.8,1006.8,1011.3,12.6,20.3,0.4,6.3,143,113.8,0.0,0.1,0.1,0.0,0.2,69,100,0,47.3,24.1,24.1,14.3,24.0,10
HCM_NB,Huyện Nhà Bè - TP Hồ Chí Minh,TP Hồ Chí Minh,Nhà Bè,10.6956,106.735,2026-03-10 15:51:59,openmeteo,high,2026-03-10T15:45,,31.5,35.2,23.3,28.0,57,95,35,67.3,1010.1,1014.8,1007.2,1011.3,14.2,20.4,0.4,7.7,144,113.7,0.0,0.0,0.0,0.0,0.0,80,100,0,48.2,24.1,24.1,7.0,23.9,10
HCM_1,Quận 1 - TP Hồ Chí Minh,TP Hồ Chí Minh,Quận 1,10.7757,106.7004,2026-03-10 15:51:47,openmeteo,high,2026-03-10T15:45,,31.5,35.2,23.3,27.9,57,95,35,67.3,1010.1,1014.8,1007.2,1011.3,14.2,20.4,0.4,7.7,144,113.7,0.0,0.0,0.0,0.0,0.0,80,100,0,48.2,24.1,24.1,7.0,23.9,10
HCM_10,Quận 10 - TP Hồ Chí Minh,TP Hồ Chí Minh,Quận 10,10.7679,106.6668,2026-03-10 15:51:51,openmeteo,high,2026-03-10T15:45,,31.6,35.5,22.9,27.9,57,96,31,67.5,1010.0,1014.9,1006.9,1011.3,14.2,20.9,0.5,7.6,144,111.3,0.0,0.1,0.1,0.0,0.3,69,100,0,48.0,24.1,24.1,7.0,23.9,10
HCM_11,Quận 11 - TP Hồ Chí Minh,TP Hồ Chí Minh,Quận 11,10.7639,106.6474,2026-03-10 15:51:52,openmeteo,high,2026-03-10T15:45,,31.6,35.5,22.9,27.9,57,96,31,67.5,1010.0,1014.9,1006.9,1011.3,14.2,20.9,0.5,7.6,144,111.3,0.0,0.1,0.1,0.0,0.3,69,100,0,48.0,24.1,24.1,7.0,23.9,10
HCM_12,Quận 12 - TP Hồ Chí Minh,TP Hồ Chí Minh,Quận 12,10.8642,106.6543,2026-03-10 15:51:52,openmeteo,high,2026-03-10T15:45,,32.4,35.8,23.0,28.1,50,95,30,66.1,1009.8,1014.8,1006.8,1011.3,12.6,20.3,0.4,6.3,143,113.8,0.0,0.1,0.1,0.0,0.2,69,100,0,47.3,24.1,24.1,7.0,23.9,10
HCM_2,Quận 2 - TP Hồ Chí Minh,TP Hồ Chí Minh,Quận 2,10.7872,106.7498,2026-03-10 15:51:48,openmeteo,high,2026-03-10T15:45,,31.5,35.2,23.3,28.0,57,95,35,67.3,1010.1,1014.8,1007.2,1011.3,14.2,20.4,0.4,7.7,144,113.7,0.0,0.0,0.0,0.0,0.0,80,100,0,48.2,24.1,24.1,7.0,23.9,10
HCM_3,Quận 3 - TP Hồ Chí Minh,TP Hồ Chí Minh,Quận 3,10.7823,106.6848,2026-03-10 15:51:46,openmeteo,high,2026-03-10T15:45,,31.6,35.5,22.9,27.9,57,96,31,67.5,1010.0,1014.9,1006.9,1011.3,14.2,20.9,0.5,7.6,144,111.3,0.0,0.1,0.1,0.0,0.3,69,100,0,48.0,24.1,24.1,7.0,23.9,10
HCM_4,Quận 4 - TP Hồ Chí Minh,TP Hồ Chí Minh,Quận 4,10.7642,106.7053,2026-03-10 15:51:49,openmeteo,high,2026-03-10T15:45,,31.5,35.1,23.3,27.9,57,95,35,67.3,1010.1,1014.8,1007.2,1011.3,14.2,20.4,0.4,7.7,144,113.7,0.0,0.0,0.0,0.0,0.0,80,100,0,48.2,24.1,24.1,7.0,23.9,10
HCM_5,Quận 5 - TP Hồ Chí Minh,TP Hồ Chí Minh,Quận 5,10.754,106.669,2026-03-10 15:51:59,statistical,medium,2026-03-10T15:51:59.731772,,32.2,35.4,26.6,30.9,67,85,66,77.4,1014.0,1020.0,1005.0,1012.1,3.6,5.9,1.2,3.7,356,42.5,0.0,4.8,0.3,0.3,6.2,51,76,45,61.2,13.6,15.2,10.1,12.5,10
HCM_6,Quận 6 - TP Hồ Chí Minh,TP Hồ Chí Minh,Quận 6,10.7464,106.6492,2026-03-10 15:51:52,openmeteo,high,2026-03-10T15:45,,31.6,35.5,22.9,27.9,57,96,31,67.5,1010.0,1014.9,1006.9,1011.3,14.2,20.9,0.5,7.6,144,111.3,0.0,0.1,0.1,0.0,0.3,69,100,0,48.0,24.1,24.1,7.0,23.9,10
HCM_7,Quận 7 - TP Hồ Chí Minh,TP Hồ Chí Minh,Quận 7,10.7329,106.7269,2026-03-10 15:51:49,openmeteo,high,2026-03-10T15:45,,31.5,35.2,23.3,28.0,57,95,35,67.3,1010.1,1014.8,1007.2,1011.3,14.2,20.4,0.4,7.7,144,113.7,0.0,0.0,0.0,0.0,0.0,80,100,0,48.2,24.1,24.1,7.0,23.9,10
HCM_8,Quận 8 - TP Hồ Chí Minh,TP Hồ Chí Minh,Quận 8,10.7241,106.6286,2026-03-10 15:51:50,openmeteo,high,2026-03-10T15:45,,31.6,35.5,22.9,27.9,57,96,31,67.5,1010.0,1014.9,1006.9,1011.3,14.2,20.9,0.5,7.6,144,111.3,0.0,0.1,0.1,0.0,0.3,69,100,0,48.0,24.1,24.1,7.0,23.9,10
HCM_9,Quận 9 - TP Hồ Chí Minh,TP Hồ Chí Minh,Quận 9,10.8428,106.8287,2026-03-10 15:51:50,openmeteo,high,2026-03-10T15:45,,31.5,35.8,23.2,28.0,61,95,31,67.0,1010.1,1014.8,1007.1,1011.3,13.4,17.6,0.4,6.1,153,127.2,0.0,1.5,0.2,0.1,2.7,48,100,0,48.4,24.1,24.1,7.0,23.9,10
HCM_BT2,Quận Bình Thạnh - TP Hồ Chí Minh,TP Hồ Chí Minh,Bình Thạnh,10.801,106.6959,2026-03-10 15:51:55,openmeteo,high,2026-03-10T15:45,,31.5,35.1,23.3,27.9,57,95,35,67.3,1010.1,1014.8,1007.2,1011.3,14.2,20.4,0.4,7.7,144,113.7,0.0,0.0,0.0,0.0,0.0,80,100,0,48.2,24.1,24.1,7.0,23.9,10
HCM_BT,Quận Bình Tân - TP Hồ Chí Minh,TP Hồ Chí Minh,Bình Tân,10.7654,106.6032,2026-03-10 15:51:53,openmeteo,high,2026-03-10T15:45,,31.6,35.5,22.9,27.9,57,96,31,67.5,1010.0,1014.9,1006.9,1011.3,14.2,20.9,0.5,7.6,144,111.3,0.0,0.1,0.1,0.0,0.3,69,100,0,48.0,24.1,24.1,20.0,24.1,10
HCM_GB,Quận Gò Vấp - TP Hồ Chí Minh,TP Hồ Chí Minh,Gò Vấp,10.8383,106.6653,2026-03-10 15:51:54,openmeteo,high,2026-03-10T15:45,,32.4,35.8,23.0,28.1,50,95,30,66.1,1009.8,1014.8,1006.8,1011.3,12.6,20.3,0.4,6.3,143,113.8,0.0,0.1,0.1,0.0,0.2,69,100,0,47.3,24.1,24.1,7.0,23.9,10
HCM_PN,Quận Phú Nhuận - TP Hồ Chí Minh,TP Hồ Chí Minh,Phú Nhuận,10.7992,106.6753,2026-03-10 15:51:55,openmeteo,high,2026-03-10T15:45,,31.6,35.4,22.9,27.9,57,96,31,67.5,1010.0,1014.9,1006.9,1011.3,14.2,20.9,0.5,7.6,144,111.3,0.0,0.1,0.1,0.0,0.3,69,100,0,48.0,24.1,24.1,7.0,23.9,10
HCM_TB,Quận Tân Bình - TP Hồ Chí Minh,TP Hồ Chí Minh,Tân Bình,10.8014,106.6526,2026-03-10 15:51:56,openmeteo,high,2026-03-10T15:45,,31.6,35.5,22.9,27.9,57,96,31,67.5,1010.0,1014.9,1006.9,1011.3,14.2,20.9,0.5,7.6,144,111.3,0.0,0.1,0.1,0.0,0.3,69,100,0,48.0,24.1,24.1,7.0,23.9,10
HCM_TP,Quận Tân Phú - TP Hồ Chí Minh,TP Hồ Chí Minh,Tân Phú,10.7902,106.6289,2026-03-10 15:52:00,openmeteo,high,2026-03-10T15:45,,31.6,35.5,22.9,27.9,57,96,31,67.5,1010.0,1014.9,1006.9,1011.3,14.2,20.9,0.5,7.6,144,111.3,0.0,0.1,0.1,0.0,0.3,69,100,0,48.0,24.1,24.1,7.0,23.9,10
HCM_TD,Thành phố Thủ Đức - TP Hồ Chí Minh,TP Hồ Chí Minh,Thủ Đức,10.8494,106.7717,2026-03-10 15:52:00,openmeteo,high,2026-03-10T15:45,,32.3,35.7,22.9,28.0,50,95,30,66.1,1009.8,1014.8,1006.8,1011.3,12.6,20.3,0.4,6.3,143,113.8,0.0,0.1,0.1,0.0,0.2,69,100,0,47.3,24.1,24.1,7.0,23.9,10
TH_NC,Huyện Nghi Sơn - Thanh Hóa,Thanh Hóa,Nghi Sơn,19.45,105.7833,2026-03-10 15:55:05,openmeteo,high,2026-03-10T15:45,,21.8,25.2,14.5,20.3,61,100,58,82.6,1019.1,1025.2,1013.0,1019.0,6.7,13.7,0.5,5.0,74,30.4,0.0,0.5,0.1,0.1,3.0,72,100,0,82.1,24.1,24.1,18.2,24.0,0
TH_TH,Thành phố Thanh Hóa - Thanh Hóa,Thanh Hóa,Thanh Hóa,19.8,105.7667,2026-03-10 15:55:03,openmeteo,high,2026-03-10T15:45,,22.5,25.1,14.4,20.1,58,100,55,82.6,1018.9,1025.3,1012.9,1019.0,7.1,13.7,0.7,5.1,60,39.4,0.0,0.3,0.1,0.1,2.1,63,100,6,82.1,24.1,24.1,23.4,24.1,0
TH_BT,Thị xã Bỉm Sơn - Thanh Hóa,Thanh Hóa,Bỉm Sơn,20.0781,105.8603,2026-03-10 15:55:16,statistical,medium,2026-03-10T15:55:16.245687,,29.0,33.1,22.9,27.8,72,90,70,81.4,1006.0,1020.0,1005.0,1012.8,1.7,5.9,1.0,3.4,329,316.0,0.0,6.3,0.6,1.6,39.5,53,81,48,62.5,13.2,15.1,9.0,12.0,5
TH_SL,Thị xã Sầm Sơn - Thanh Hóa,Thanh Hóa,Sầm Sơn,19.7333,105.9,2026-03-10 15:55:14,statistical,medium,2026-03-10T15:55:14.032000,,27.7,32.0,21.5,26.9,72,90,70,79.9,1012.0,1020.0,1005.0,1012.0,4.8,5.8,1.2,3.6,124,62.2,0.0,6.3,0.2,1.1,26.8,54,75,51,63.2,12.6,15.5,9.7,12.0,5
TB_HH,Huyện Hưng Hà - Thái Bình,Thái Bình,Hưng Hà,20.6,106.2167,2026-03-10 15:52:36,openmeteo,high,2026-03-10T15:45,,23.0,25.8,15.3,20.3,58,98,55,81.1,1018.7,1025.1,1012.8,1019.0,4.7,18.0,0.5,6.8,58,85.8,0.0,0.4,0.1,0.2,4.2,79,100,3,80.5,24.1,24.1,24.1,24.1,0
TB_KL,Huyện Kiến Xương - Thái Bình,Thái Bình,Kiến Xương,20.4,106.4167,2026-03-10 15:52:38,openmeteo,high,2026-03-10T15:45,,22.3,25.6,14.9,20.1,62,98,59,82.4,1019.0,1025.1,1013.1,1019.0,4.1,19.1,0.8,7.3,75,63.8,0.0,0.4,0.1,0.1,3.3,66,100,0,76.7,24.1,24.1,24.1,24.1,0
TB_QH,Huyện Quỳnh Phụ - Thái Bình,Thái Bình,Quỳnh Phụ,20.65,106.3333,2026-03-10 15:52:49,openmeteo,high,2026-03-10T15:45,,23.1,25.7,15.2,20.0,59,99,56,81.7,1018.7,1025.1,1012.9,1019.0,4.3,19.2,0.8,7.4,66,86.7,0.0,0.3,0.1,0.1,3.0,80,100,0,79.7,24.1,24.1,24.1,24.1,0
TB_TT,Huyện Thái Thụy - Thái Bình,Thái Bình,Thái Thụy,20.5333,106.5333,2026-03-10 15:52:37,openmeteo,high,2026-03-10T15:45,,22.2,25.4,14.8,20.0,62,98,59,82.2,1019.0,1025.1,1013.1,1019.0,4.9,20.2,0.8,8.0,107,71.9,0.0,0.4,0.1,0.2,3.9,69,100,5,78.4,24.1,24.1,24.1,24.1,0
TB_VT,Huyện Vũ Thư - Thái Bình,Thái Bình,Vũ Thư,20.4333,106.2833,2026-03-10 15:52:39,openmeteo,high,2026-03-10T15:45,,22.5,26.0,14.7,20.1,61,98,57,82.2,1018.9,1025.1,1013.1,1019.0,5.5,18.4,1.1,7.1,58,58.8,0.0,0.3,0.1,0.1,1.8,62,100,0,77.3,24.1,24.1,24.1,24.1,0
TB_DH,Huyện Đông Hưng - Thái Bình,Thái Bình,Đông Hưng,20.55,106.35,2026-03-10 15:52:35,openmeteo,high,2026-03-10T15:45,,22.4,25.5,14.8,20.0,63,98,60,82.6,1018.9,1025.1,1013.0,1019.0,4.3,18.4,1.0,7.1,85,70.1,0.0,0.4,0.1,0.2,3.9,66,100,9,78.8,24.1,24.1,24.1,24.1,0
TB_TP,Thành phố Thái Bình - Thái Bình,Thái Bình,Thái Bình,20.4461,106.3366,2026-03-10 15:52:36,openmeteo,high,2026-03-10T15:45,,22.3,25.4,14.7,20.0,63,98,60,82.6,1018.9,1025.1,1013.0,1019.0,4.3,18.4,1.0,7.1,85,70.1,0.0,0.4,0.1,0.2,3.9,66,100,9,78.8,24.1,24.1,24.1,24.1,0
TN_DD,Huyện Định Hóa - Thái Nguyên,Thái Nguyên,Định Hóa,21.9,105.6333,2026-03-10 15:55:48,openmeteo,high,2026-03-10T15:45,,20.9,23.4,13.7,19.3,62,95,61,79.5,1019.0,1025.7,1012.7,1019.3,5.9,11.9,0.8,4.6,104,102.4,0.0,0.2,0.1,0.1,1.2,87,100,9,85.4,24.1,24.1,12.3,23.8,0
TN_SC,Thành phố Sông Công - Thái Nguyên,Thái Nguyên,Sông Công,21.4833,105.85,2026-03-10 15:55:45,statistical,medium,2026-03-10T15:55:45.738645,,22.2,25.5,15.9,20.9,85,90,75,83.2,1019.0,1020.0,1005.0,1013.8,2.4,5.9,1.1,3.2,281,163.7,2.6,7.1,2.2,2.3,55.5,71,80,51,64.9,9.6,13.8,9.7,11.6,5
TN_TN,Thành phố Thái Nguyên - Thái Nguyên,Thái Nguyên,Thái Nguyên,21.5928,105.8442,2026-03-10 15:55:45,openmeteo,high,2026-03-10T15:45,,23.8,25.9,15.7,20.8,53,95,50,75.6,1018.5,1025.6,1012.4,1019.1,2.1,14.7,0.4,5.0,59,113.0,0.0,0.4,0.1,0.1,1.8,73,100,0,82.7,24.1,24.1,18.0,24.0,0
TTH_AD,Huyện A Lưới - Thừa Thiên Huế,Thừa Thiên Huế,A Lưới,16.2333,107.3,2026-03-10 15:52:47,openmeteo,high,2026-03-10T15:45,,18.0,24.6,16.8,19.0,93,98,65,88.2,1018.7,1022.2,1013.1,1018.1,7.4,14.8,4.1,7.6,51,78.1,0.1,0.6,0.1,0.1,3.1,100,100,67,90.5,0.9,24.1,0.0,8.5,10
TTH_NL,Huyện Nam Đông - Thừa Thiên Huế,Thừa Thiên Huế,Nam Đông,16.1667,107.7,2026-03-10 15:52:48,openmeteo,high,2026-03-10T15:45,,21.3,28.1,18.5,21.5,89,99,56,88.4,1018.2,1021.4,1012.3,1017.4,5.2,11.7,0.4,3.8,348,12.9,0.0,1.1,0.1,1.2,28.7,100,100,32,89.5,11.2,24.1,0.3,20.2,10
TTH_PD,Huyện Phong Điền - Thừa Thiên Huế,Thừa Thiên Huế,Phong Điền,16.5833,107.35,2026-03-10 15:52:49,openmeteo,high,2026-03-10T15:45,,21.4,27.3,19.1,22.2,88,95,62,87.7,1018.0,1021.4,1012.5,1017.2,9.0,19.5,2.3,7.5,344,84.9,0.1,2.0,0.1,1.5,35.6,100,100,37,87.1,2.8,24.1,0.5,16.0,10
TTH_PL,Huyện Phú Lộc - Thừa Thiên Huế,Thừa Thiên Huế,Phú Lộc,16.2667,107.9,2026-03-10 15:52:48,openmeteo,high,2026-03-10T15:45,,22.6,28.2,19.7,22.8,85,99,60,85.9,1018.0,1021.3,1012.3,1017.2,5.4,13.7,0.4,4.5,360,62.7,0.0,1.2,0.1,0.9,22.7,100,100,19,85.0,10.9,24.1,1.0,19.3,0
TTH_QD,Huyện Quảng Điền - Thừa Thiên Huế,Thừa Thiên Huế,Quảng Điền,16.5833,107.5,2026-03-10 15:52:52,openmeteo,high,2026-03-10T15:45,,21.0,26.9,19.1,21.8,91,98,61,88.4,1018.1,1021.4,1012.5,1017.2,6.1,15.0,1.1,5.3,332,91.4,0.1,3.0,0.1,1.5,36.6,100,100,46,87.8,8.7,24.1,6.5,20.5,10
TTH_H,Thành phố Huế - Thừa Thiên Huế,Thừa Thiên Huế,Huế,16.4637,107.5909,2026-03-10 15:52:45,openmeteo,high,2026-03-10T15:45,,21.5,26.8,19.9,22.4,90,95,64,87.3,1017.9,1021.3,1012.5,1017.1,9.7,19.6,2.8,8.2,333,76.2,0.1,1.4,0.1,1.5,36.7,100,100,29,87.9,8.7,24.1,6.5,20.5,35
TTH_HL,Thị xã Hương Thủy - Thừa Thiên Huế,Thừa Thiên Huế,Hương Thủy,16.4167,107.7167,2026-03-10 15:52:46,openmeteo,high,2026-03-10T15:45,,21.5,27.8,20.0,22.4,93,97,58,87.2,1017.9,1021.2,1012.4,1017.1,6.5,16.6,0.0,5.3,326,64.8,0.2,1.5,0.1,1.4,33.7,100,100,5,87.1,9.5,24.1,6.5,20.8,35
TTH_HT,Thị xã Hương Trà - Thừa Thiên Huế,Thừa Thiên Huế,Hương Trà,16.5,107.4833,2026-03-10 15:52:46,openmeteo,high,2026-03-10T15:45,,21.0,26.9,19.2,21.8,91,98,61,88.4,1018.1,1021.4,1012.5,1017.2,6.1,15.0,1.1,5.3,332,91.4,0.1,3.0,0.1,1.5,36.6,100,100,46,87.8,8.7,24.1,6.5,20.5,10
TG_CB,Huyện Cai Lậy - Tiền Giang,Tiền Giang,Cai Lậy,10.4,106.1167,2026-03-10 15:54:33,statistical,medium,2026-03-10T15:54:33.267914,,32.0,35.7,26.7,31.3,81,84,66,73.9,1007.0,1020.0,1005.0,1012.3,3.9,5.8,1.2,3.4,76,324.8,0.0,6.3,1.6,0.8,19.9,55,64,47,55.8,13.1,15.9,10.6,13.0,10
TG_CL,Huyện Châu Thành - Tiền Giang,Tiền Giang,Châu Thành,10.45,106.25,2026-03-10 15:54:17,openmeteo,high,2026-03-10T15:45,,32.0,34.6,22.7,27.6,53,95,36,70.1,1009.9,1014.9,1007.2,1011.4,11.3,19.1,0.4,8.6,121,93.3,0.0,0.1,0.1,0.0,0.3,80,100,0,49.3,24.1,24.1,11.8,24.0,10
TG_CL2,Huyện Chợ Gạo - Tiền Giang,Tiền Giang,Chợ Gạo,10.35,106.4667,2026-03-10 15:54:21,openmeteo,high,2026-03-10T15:45,,31.2,34.2,23.9,27.8,57,92,39,69.7,1010.2,1014.8,1007.8,1011.5,15.1,23.6,1.5,12.1,108,92.2,0.0,0.1,0.1,0.0,0.1,75,100,0,52.2,24.1,24.1,24.1,24.1,10
TG_CT,Huyện Cái Bè - Tiền Giang,Tiền Giang,Cái Bè,10.3333,105.95,2026-03-10 15:54:15,openmeteo,high,2026-03-10T15:45,,32.7,34.8,22.9,27.9,50,94,37,68.9,1009.8,1014.7,1007.3,1011.4,11.0,20.6,0.4,9.2,113,90.1,0.0,0.2,0.1,0.0,0.4,66,90,0,52.6,24.1,24.1,16.5,24.0,10
TG_GC,Huyện Gò Công Tây - Tiền Giang,Tiền Giang,Gò Công Tây,10.35,106.6,2026-03-10 15:54:18,openmeteo,high,2026-03-10T15:45,,30.8,33.9,23.7,27.6,58,93,40,70.2,1010.4,1014.8,1008.0,1011.5,16.2,24.2,1.3,12.0,111,92.8,0.0,0.1,0.1,0.0,0.7,56,100,0,49.7,24.1,24.1,24.1,24.1,10
TG_GD,Huyện Gò Công Đông - Tiền Giang,Tiền Giang,Gò Công Đông,10.3667,106.7167,2026-03-10 15:54:25,openmeteo,high,2026-03-10T15:45,,29.7,32.6,23.7,27.3,64,93,47,71.2,1010.6,1014.9,1008.3,1011.5,19.7,26.4,0.4,14.2,114,91.5,0.0,0.0,0.0,0.0,0.0,31,100,0,47.3,24.1,24.1,24.1,24.1,5
TG_TP,Huyện Tân Phú Đông - Tiền Giang,Tiền Giang,Tân Phú Đông,10.25,106.6,2026-03-10 15:54:21,openmeteo,high,2026-03-10T15:45,,30.1,33.1,24.5,27.6,62,89,44,70.6,1010.6,1014.9,1008.4,1011.6,20.1,26.1,2.2,15.8,100,89.1,0.0,0.1,0.1,0.0,0.3,33,100,0,48.8,24.1,24.1,24.1,24.1,10
TG_TL,Huyện Tân Phước - Tiền Giang,Tiền Giang,Tân Phước,10.5,106.15,2026-03-10 15:54:20,openmeteo,high,2026-03-10T15:45,,32.2,34.4,22.5,27.6,52,95,39,70.5,1009.8,1014.8,1007.1,1011.4,9.8,18.0,1.3,8.2,114,82.2,0.0,0.1,0.1,0.0,0.3,64,98,0,46.1,24.1,24.1,11.8,24.0,10
TG_MT,Thành phố Mỹ Tho - Tiền Giang,Tiền Giang,Mỹ Tho,10.35,106.35,2026-03-10 15:54:16,openmeteo,high,2026-03-10T15:45,,31.6,34.3,23.2,27.7,54,94,37,70.0,1010.1,1014.8,1007.6,1011.4,13.2,21.7,1.5,10.7,112,92.1,0.0,0.1,0.1,0.0,0.5,69,100,0,52.2,24.1,24.1,9.5,24.0,10
TG_GL,Thị xã Gò Công - Tiền Giang,Tiền Giang,Gò Công,10.3667,106.6667,2026-03-10 15:54:26,statistical,medium,2026-03-10T15:54:26.515960,,29.8,33.9,23.8,28.5,72,84,65,74.9,1017.0,1020.0,1005.0,1013.6,2.8,5.9,1.1,3.4,61,109.9,0.0,7.9,1.8,0.8,18.4,62,75,42,60.0,14.7,16.2,10.3,12.9,5
TV_CL,Huyện Càng Long - Trà Vinh,Trà Vinh,Càng Long,9.9667,106.2,2026-03-10 15:56:20,openmeteo,high,2026-03-10T15:45,,31.1,33.5,23.6,27.6,55,91,40,69.8,1010.2,1014.7,1008.0,1011.5,17.3,26.3,4.2,14.4,95,90.7,0.0,0.1,0.1,0.0,0.1,77,100,0,54.2,24.1,24.1,18.3,24.0,10
TV_CN,Huyện Cầu Ngang - Trà Vinh,Trà Vinh,Cầu Ngang,9.8,106.4333,2026-03-10 15:56:24,openmeteo,high,2026-03-10T15:45,,30.3,32.5,23.9,27.3,59,90,47,70.9,1010.5,1014.8,1008.3,1011.6,23.8,28.8,7.6,17.6,87,86.8,0.0,0.1,0.1,0.0,0.1,38,92,0,48.8,24.1,24.1,19.4,24.1,10
TV_TV,Thành phố Trà Vinh - Trà Vinh,Trà Vinh,Trà Vinh,9.9347,106.3453,2026-03-10 15:56:25,openmeteo,high,2026-03-10T15:45,,30.6,32.8,24.1,27.5,58,89,45,70.1,1010.5,1014.7,1008.3,1011.6,22.0,28.0,7.6,17.0,91,88.5,0.0,0.2,0.2,0.0,0.2,35,100,0,51.1,24.1,24.1,18.3,24.0,10
TQ_LB,Huyện Lâm Bình - Tuyên Quang,Tuyên Quang,Lâm Bình,22.4667,105.2167,2026-03-10 15:55:49,openmeteo,high,2026-03-10T15:45,,21.6,22.5,14.7,19.1,67,96,63,84.9,1018.5,1025.4,1012.9,1019.3,5.1,6.9,0.5,2.8,184,157.8,0.0,1.0,0.1,0.1,1.7,86,100,50,93.9,24.1,24.1,15.0,23.7,0
TQ_NH,Huyện Na Hang - Tuyên Quang,Tuyên Quang,Na Hang,22.35,105.3833,2026-03-10 15:55:51,openmeteo,high,2026-03-10T15:45,,22.0,23.5,14.9,20.3,69,94,64,83.1,1018.8,1025.4,1012.9,1019.3,6.8,9.1,0.0,3.3,162,157.5,0.0,0.2,0.1,0.0,1.1,94,100,47,91.4,24.1,24.1,18.1,23.9,0
TQ_TQ,Thành phố Tuyên Quang - Tuyên Quang,Tuyên Quang,Tuyên Quang,21.8181,105.2144,2026-03-10 15:55:47,openmeteo,high,2026-03-10T15:45,,23.5,25.5,16.4,21.1,60,96,59,79.9,1018.5,1025.4,1012.1,1018.9,7.4,14.8,0.4,5.2,119,149.7,0.0,0.4,0.1,0.1,2.8,74,100,24,88.6,24.1,24.1,14.3,24.0,0
TN_TB,Huyện Tân Biên - Tây Ninh,Tây Ninh,Tân Biên,11.55,105.9667,2026-03-10 15:56:27,statistical,medium,2026-03-10T15:56:27.542904,,29.0,30.8,23.3,27.6,82,84,65,75.2,1018.0,1020.0,1005.0,1012.1,5.0,5.7,1.3,3.6,276,110.0,4.5,5.8,2.5,0.6,13.6,73,75,52,61.4,9.9,16.2,10.2,12.8,10
TN_TC,Huyện Tân Châu - Tây Ninh,Tây Ninh,Tân Châu,11.3333,106.1667,2026-03-10 15:56:19,openmeteo,high,2026-03-10T15:45,,34.3,36.0,21.7,28.5,43,93,29,63.5,1009.3,1014.9,1006.7,1011.3,10.1,19.7,1.0,7.0,84,38.3,0.0,0.2,0.2,0.0,0.4,59,100,0,40.5,24.1,24.1,20.4,24.1,10
TN_TN2,Thành phố Tây Ninh - Tây Ninh,Tây Ninh,Tây Ninh,11.3131,106.0963,2026-03-10 15:56:16,openmeteo,high,2026-03-10T15:45,,34.4,36.1,21.7,28.5,43,93,29,63.5,1009.3,1014.9,1006.7,1011.3,10.1,19.7,1.0,7.0,84,38.3,0.0,0.2,0.2,0.0,0.4,59,100,0,40.5,24.1,24.1,19.1,24.0,10
VL_BT,Huyện Bình Tân - Vĩnh Long,Vĩnh Long,Bình Tân,10.0833,105.7667,2026-03-10 15:54:31,openmeteo,high,2026-03-10T15:45,,32.2,34.6,23.1,27.9,52,93,40,69.3,1009.9,1014.6,1007.4,1011.4,10.6,22.7,1.3,10.0,125,95.8,0.0,0.4,0.1,0.0,0.5,75,94,0,51.2,24.1,24.1,14.7,24.0,10
VL_LH,Huyện Long Hồ - Vĩnh Long,Vĩnh Long,Long Hồ,10.2,106.0167,2026-03-10 15:54:35,openmeteo,high,2026-03-10T15:45,,32.1,34.5,22.9,27.7,51,94,38,69.9,1009.9,1014.6,1007.4,1011.4,11.2,22.7,1.6,9.7,123,95.8,0.0,0.2,0.1,0.0,0.9,71,97,0,51.2,24.1,24.1,16.5,24.0,10
VL_MT,Huyện Mang Thít - Vĩnh Long,Vĩnh Long,Mang Thít,10.1833,106.1,2026-03-10 15:54:40,openmeteo,high,2026-03-10T15:45,,31.7,34.4,23.5,27.8,52,92,37,68.6,1010.1,1014.7,1007.5,1011.4,13.8,24.9,1.1,12.1,110,91.6,0.0,0.1,0.1,0.0,0.1,80,99,0,54.0,24.1,24.1,16.5,24.0,10
VL_TL,Huyện Tam Bình - Vĩnh Long,Vĩnh Long,Tam Bình,10.0667,105.9833,2026-03-10 15:54:36,openmeteo,high,2026-03-10T15:45,,31.7,34.5,23.2,27.8,52,93,37,69.1,1010.0,1014.6,1007.4,1011.4,12.7,24.5,1.1,10.9,119,95.0,0.0,0.1,0.1,0.0,0.1,81,91,0,51.6,24.1,24.1,8.2,23.8,10
