station_id,station_name,province,district,latitude,longitude,timestamp,data_source,data_quality,data_time,error_reason,temperature_current,temperature_max,temperature_min,temperature_avg,humidity_current,humidity_max,humidity_min,humidity_avg,pressure_current,pressure_max,pressure_min,pressure_avg,wind_speed_current,wind_speed_max,wind_speed_min,wind_speed_avg,wind_direction_current,wind_direction_avg,rain_current,rain_max,rain_min,rain_avg,rain_total,cloud_cover_current,cloud_cover_max,cloud_cover_min,cloud_cover_avg,visibility_current,visibility_max,visibility_min,visibility_avg,thunder_probability
AG_AT,Huyện An Phú - An Giang,An Giang,An Phú,10.8333,105.0833,2026-03-10 16:20:44,openmeteo,high,2026-03-10T16:15,,33.5,34.8,22.3,28.2,43,92,36,66.7,1009.3,1015.0,1007.2,1011.4,14.1,18.1,0.4,6.8,52,84.6,0.0,0.3,0.1,0.0,1.0,76,100,0,49.9,24.1,24.1,3.2,23.8,10
AG_CL,Huyện Châu Phú - An Giang,An Giang,Châu Phú,10.5667,105.1667,2026-03-10 16:20:44,openmeteo,high,2026-03-10T16:15,,33.3,34.7,22.3,28.1,44,92,39,67.3,1009.3,1014.9,1007.4,1011.5,9.8,15.3,0.4,6.8,73,89.1,0.0,0.2,0.1,0.0,0.7,78,95,4,54.1,24.1,24.1,6.3,23.8,10
AG_CP,Huyện Châu Thành - An Giang,An Giang,Châu Thành,10.45,105.25,2026-03-10 16:20:45,openmeteo,high,2026-03-10T16:15,,32.7,34.1,22.0,27.6,47,94,41,71.2,1009.4,1014.8,1007.4,1011.5,9.1,17.7,0.4,6.9,99,92.6,0.0,0.3,0.1,0.0,1.0,67,89,6,52.4,24.1,24.1,6.3,23.8,10
AG_CT,Huyện Chợ Mới - An Giang,An Giang,Chợ Mới,10.5333,105.3833,2026-03-10 16:20:46,openmeteo,high,2026-03-10T16:15,,32.9,34.2,22.0,27.8,47,95,41,70.3,1009.3,1014.8,1007.3,1011.4,8.4,16.2,0.4,6.6,97,94.4,0.0,0.6,0.1,0.1,1.5,75,91,0,53.0,24.1,24.1,10.8,23.8,10
AG_PT,Huyện Phú Tân - An Giang,An Giang,Phú Tân,10.65,105.2833,2026-03-10 16:20:45,openmeteo,high,2026-03-10T16:15,,33.3,34.7,21.9,28.0,44,94,39,68.3,1009.2,1014.8,1007.3,1011.4,9.2,13.8,0.0,6.3,69,89.6,0.0,0.2,0.1,0.0,0.9,63,94,5,54.8,24.1,24.1,4.5,23.7,10
AG_TV,Huyện Thoại Sơn - An Giang,An Giang,Thoại Sơn,10.2667,105.2667,2026-03-10 16:20:46,openmeteo,high,2026-03-10T16:15,,32.2,34.2,22.6,27.6,52,94,43,70.9,1009.5,1014.7,1007.4,1011.4,7.8,19.6,1.5,7.8,124,94.1,0.0,1.4,0.1,0.1,3.2,79,89,7,55.7,24.1,24.1,6.0,23.8,10
AG_TX,Huyện Tri Tôn - An Giang,An Giang,Tri Tôn,10.4167,105.0,2026-03-10 16:20:46,openmeteo,high,2026-03-10T16:15,,32.7,34.4,22.9,28.1,47,90,40,68.9,1009.5,1014.8,1007.4,1011.5,10.1,17.7,0.4,7.4,94,92.9,0.0,0.4,0.1,0.0,1.0,76,93,4,56.3,24.1,24.1,4.6,23.8,10
AG_TN,Huyện Tịnh Biên - An Giang,An Giang,Tịnh Biên,10.55,105.0,2026-03-10 16:20:46,openmeteo,high,2026-03-10T16:15,,33.4,34.8,22.7,28.5,44,91,39,66.7,1009.4,1014.9,1007.5,1011.5,10.2,17.5,0.7,7.6,82,88.6,0.0,0.2,0.1,0.0,0.4,81,90,0,56.4,24.1,24.1,4.6,23.8,10
AG_CD,Thành phố Châu Đốc - An Giang,An Giang,Châu Đốc,10.7,105.1167,2026-03-10 16:20:44,openmeteo,high,2026-03-10T16:15,,33.8,34.6,22.5,28.2,41,91,38,66.5,1009.2,1014.9,1007.3,1011.4,14.5,17.3,0.4,7.0,60,83.1,0.0,0.3,0.1,0.0,0.8,67,100,5,54.1,24.1,24.1,3.2,23.8,10
AG_LX,Thành phố Long Xuyên - An Giang,An Giang,Long Xuyên,10.3865,105.4351,2026-03-10 16:20:44,openmeteo,high,2026-03-10T16:15,,32.8,34.4,22.4,27.7,49,94,40,70.0,1009.4,1014.7,1007.3,1011.4,8.4,19.1,0.8,7.3,115,92.2,0.0,0.3,0.1,0.0,1.1,61,96,2,55.7,24.1,24.1,10.8,23.8,10
AG_AP,Thị xã Tân Châu - An Giang,An Giang,Tân Châu,10.8,105.2167,2026-03-10 16:20:45,openmeteo,high,2026-03-10T16:15,,33.6,34.9,21.8,28.1,41,94,37,67.7,1009.2,1014.9,1007.2,1011.4,10.6,14.5,0.8,6.6,62,88.2,0.0,0.2,0.1,0.0,0.6,71,100,10,51.9,24.1,24.1,4.5,23.7,10
BR_CH,Huyện Châu Đức - Bà Rịa - Vũng Tàu,Bà Rịa - Vũng Tàu,Châu Đức,10.65,107.25,2026-03-10 16:20:44,openmeteo,high,2026-03-10T16:15,,29.2,34.3,21.7,27.0,67,96,36,68.0,1010.8,1014.9,1007.7,1011.6,16.3,25.5,0.0,11.6,104,91.9,0.1,0.4,0.1,0.1,2.8,70,100,0,48.8,24.1,24.1,9.6,23.9,30
BR_CD,Huyện Côn Đảo - Bà Rịa - Vũng Tàu,Bà Rịa - Vũng Tàu,Côn Đảo,8.6822,106.6089,2026-03-10 16:20:44,openmeteo,high,2026-03-10T16:15,,26.7,27.1,25.9,26.4,79,83,74,79.2,1010.6,1014.4,1008.6,1011.6,27.1,36.0,22.1,29.1,67,70.6,0.0,0.0,0.0,0.0,0.0,35,100,10,47.5,24.1,24.1,24.1,24.1,5
BR_LD,Huyện Long Điền - Bà Rịa - Vũng Tàu,Bà Rịa - Vũng Tàu,Long Điền,10.4667,107.2333,2026-03-10 16:20:44,openmeteo,high,2026-03-10T16:15,,29.8,33.6,23.2,27.6,65,92,44,68.5,1010.8,1014.9,1008.2,1011.6,19.4,28.0,0.0,14.7,101,90.0,0.1,0.3,0.1,0.1,1.3,65,100,0,48.3,24.1,24.1,22.2,24.1,30
BR_XM,Huyện Xuyên Mộc - Bà Rịa - Vũng Tàu,Bà Rịa - Vũng Tàu,Xuyên Mộc,10.6333,107.4333,2026-03-10 16:20:43,openmeteo,high,2026-03-10T16:15,,29.0,34.1,22.2,26.7,69,96,37,70.4,1010.8,1015.1,1007.8,1011.7,15.8,24.2,0.5,10.1,102,85.2,0.2,0.6,0.1,0.1,3.0,58,100,0,49.1,24.1,24.1,13.6,24.0,30
BR_DD,Huyện Đất Đỏ - Bà Rịa - Vũng Tàu,Bà Rịa - Vũng Tàu,Đất Đỏ,10.5,107.2833,2026-03-10 16:20:43,openmeteo,high,2026-03-10T16:15,,29.7,33.6,23.1,27.6,65,92,44,68.5,1010.8,1014.9,1008.2,1011.6,19.4,28.0,0.0,14.7,101,90.0,0.1,0.3,0.1,0.1,1.3,65,100,0,48.3,24.1,24.1,22.2,24.1,30
BR_BR,Thành phố Bà Rịa - Bà Rịa - Vũng Tàu,Bà Rịa - Vũng Tàu,Bà Rịa,10.5,107.1833,2026-03-10 16:20:42,openmeteo,high,2026-03-10T16:15,,29.9,32.5,24.8,27.8,66,89,48,69.2,1010.5,1014.9,1008.1,1011.5,13.1,21.0,0.7,10.4,111,98.9,0.0,0.3,0.1,0.0,1.0,66,100,0,45.2,24.1,24.1,22.2,24.1,5
BR_VT,Thành phố Vũng Tàu - Bà Rịa - Vũng Tàu,Bà Rịa - Vũng Tàu,Vũng Tàu,10.346,107.0843,2026-03-10 16:20:42,openmeteo,high,2026-03-10T16:15,,29.9,32.5,24.8,27.8,66,89,48,69.2,1010.5,1014.9,1008.1,1011.5,13.1,21.0,0.7,10.4,111,98.9,0.0,0.3,0.1,0.0,1.0,66,100,0,45.2,24.1,24.1,22.2,24.1,5
BR_PT,Thị xã Phú Mỹ - Bà Rịa - Vũng Tàu,Bà Rịa - Vũng Tàu,Phú Mỹ,10.6,107.05,2026-03-10 16:20:43,openmeteo,high,2026-03-10T16:15,,30.8,34.3,24.2,27.8,62,93,37,68.7,1010.3,1014.9,1007.6,1011.4,13.5,21.3,0.4,8.3,132,107.1,0.0,0.4,0.1,0.0,0.7,29,100,0,46.3,24.1,24.1,8.0,24.0,10
BR_CD2,Đảo Côn Sơn - Bà Rịa - Vũng Tàu,Bà Rịa - Vũng Tàu,Côn Đảo,8.6822,106.6089,2026-03-10 16:21:39,openmeteo,high,2026-03-10T16:15,,26.7,27.1,25.9,26.4,79,83,74,79.2,1010.6,1014.4,1008.6,1011.6,27.1,36.0,22.1,29.1,67,70.6,0.0,0.0,0.0,0.0,0.0,35,100,10,47.5,24.1,24.1,24.1,24.1,5
BD_BA,Huyện Bàu Bàng - Bình Dương,Bình Dương,Bàu Bàng,11.25,106.8,2026-03-10 16:20:38,openmeteo,high,2026-03-10T16:15,,33.1,35.4,21.7,28.1,44,91,30,62.4,1009.6,1014.9,1006.6,1011.3,8.0,17.8,0.7,5.7,126,66.0,0.0,1.1,0.1,0.1,2.2,82,100,0,46.9,24.1,24.1,16.8,24.1,10
BD_BC,Huyện Bắc Tân Uyên - Bình Dương,Bình Dương,Bắc Tân Uyên,11.1667,106.8667,2026-03-10 16:20:38,openmeteo,high,2026-03-10T16:15,,30.9,35.6,22.0,28.0,58,94,30,63.4,1010.1,1014.9,1006.8,1011.3,16.3,18.4,0.0,5.6,155,125.3,0.1,1.1,0.2,0.1,2.9,91,100,0,47.7,24.1,24.1,16.8,24.1,10
BD_DH,Huyện Dầu Tiếng - Bình Dương,Bình Dương,Dầu Tiếng,11.2667,106.3667,2026-03-10 16:20:39,openmeteo,high,2026-03-10T16:15,,33.9,35.5,22.4,28.2,44,95,31,64.6,1009.3,1014.8,1006.8,1011.3,6.8,16.8,0.5,6.1,93,43.6,0.0,1.4,0.1,0.1,3.3,53,100,0,40.7,24.1,24.1,20.4,24.1,10
BD_PG,Huyện Phú Giáo - Bình Dương,Bình Dương,Phú Giáo,11.3333,106.7667,2026-03-10 16:20:40,openmeteo,high,2026-03-10T16:15,,33.1,35.5,21.5,28.1,45,91,31,61.9,1009.5,1014.9,1006.6,1011.3,7.0,18.9,0.8,5.5,102,52.7,0.0,0.5,0.1,0.1,1.9,84,100,0,45.5,24.1,24.1,16.8,24.1,10
BD_TDM,Thành phố Thủ Dầu Một - Bình Dương,Bình Dương,Thủ Dầu Một,10.9804,106.6519,2026-03-10 16:20:38,openmeteo,high,2026-03-10T16:15,,32.8,35.3,22.8,28.1,48,94,31,66.1,1009.6,1014.9,1006.8,1011.3,12.6,19.4,0.4,5.9,143,73.4,0.0,2.3,0.1,0.2,4.0,79,100,0,46.1,24.1,24.1,5.8,23.9,10
BD_BG,Thị xã Bến Cát - Bình Dương,Bình Dương,Bến Cát,11.15,106.6,2026-03-10 16:20:37,openmeteo,high,2026-03-10T16:15,,32.5,35.3,22.1,28.1,49,94,31,65.2,1009.7,1014.9,1006.7,1011.3,12.3,18.1,0.0,5.6,142,78.4,0.0,0.7,0.1,0.1,2.0,72,100,0,47.1,24.1,24.1,13.0,24.0,10
BD_DT,Thị xã Dĩ An - Bình Dương,Bình Dương,Dĩ An,10.9,106.7667,2026-03-10 16:20:38,openmeteo,high,2026-03-10T16:15,,31.8,35.7,22.9,28.0,53,95,30,66.1,1009.9,1014.8,1006.8,1011.3,12.7,20.3,0.4,6.3,145,113.8,0.0,0.1,0.1,0.0,0.2,42,100,0,47.3,24.1,24.1,5.8,23.9,10
BD_TN,Thị xã Thuận An - Bình Dương,Bình Dương,Thuận An,10.9333,106.7,2026-03-10 16:20:38,openmeteo,high,2026-03-10T16:15,,32.0,35.9,23.1,28.2,53,95,30,66.1,1009.9,1014.8,1006.8,1011.3,12.7,20.3,0.4,6.3,145,113.8,0.0,0.1,0.1,0.0,0.2,42,100,0,47.3,24.1,24.1,5.8,23.9,10
BD_TU,Thị xã Tân Uyên - Bình Dương,Bình Dương,Tân Uyên,11.0667,106.8,2026-03-10 16:20:37,openmeteo,high,2026-03-10T16:15,,32.7,35.5,22.3,28.3,49,94,31,65.2,1009.7,1014.9,1006.7,1011.3,12.3,18.1,0.0,5.6,142,78.4,0.0,0.7,0.1,0.1,2.0,72,100,0,47.1,24.1,24.1,5.8,23.9,10
BP_DX,Thành phố Đồng Xoài - Bình Phước,Bình Phước,Đồng Xoài,11.5349,106.8823,2026-03-10 16:21:30,openmeteo,high,2026-03-10T16:15,,33.0,36.1,21.5,28.4,44,91,29,59.3,1009.5,1014.9,1006.7,1011.3,9.5,18.0,0.4,5.4,79,56.8,0.0,0.4,0.1,0.0,0.9,92,100,0,42.2,24.1,24.1,23.8,24.1,10
BP_BL,Thị xã Bình Long - Bình Phước,Bình Phước,Bình Long,11.65,106.6,2026-03-10 16:21:30,openmeteo,high,2026-03-10T16:15,,33.7,36.3,20.4,28.3,41,92,30,59.8,1009.3,1014.8,1006.7,1011.3,10.2,15.7,1.1,5.5,58,40.1,0.0,0.1,0.1,0.0,0.1,88,100,0,41.6,24.1,24.1,21.1,24.1,10
BP_PL,Thị xã Phước Long - Bình Phước,Bình Phước,Phước Long,11.8333,106.9667,2026-03-10 16:21:30,openmeteo,high,2026-03-10T16:15,,32.9,35.7,20.2,27.8,43,90,27,58.8,1009.8,1015.1,1006.8,1011.5,13.6,16.6,0.4,5.1,53,51.4,0.0,0.2,0.2,0.0,0.6,60,89,0,36.7,24.1,24.1,24.1,24.1,10
BT_HD,Huyện Hàm Thuận Bắc - Bình Thuận,Bình Thuận,Hàm Thuận Bắc,11.0833,108.1167,2026-03-10 16:21:17,openmeteo,high,2026-03-10T16:15,,28.9,31.8,19.5,25.1,57,95,35,71.2,1011.0,1016.2,1008.5,1012.8,12.7,20.6,0.4,7.2,83,68.7,0.0,0.3,0.1,0.1,1.9,76,100,0,50.2,24.1,24.1,24.1,24.1,5
BT_PH,Huyện Phú Quý - Bình Thuận,Bình Thuận,Phú Quý,10.5,108.9333,2026-03-10 16:21:16,openmeteo,high,2026-03-10T16:15,,25.3,25.8,24.7,25.3,86,88,75,83.0,1011.6,1015.5,1009.4,1012.4,40.0,44.5,28.9,36.8,42,43.2,0.0,0.0,0.0,0.0,0.0,74,100,6,52.5,24.1,24.1,24.1,24.1,15
BT_PT,Thành phố Phan Thiết - Bình Thuận,Bình Thuận,Phan Thiết,10.9333,108.1,2026-03-10 16:21:16,openmeteo,high,2026-03-10T16:15,,30.6,33.7,20.6,26.6,52,98,35,66.9,1010.4,1015.4,1008.1,1012.0,29.9,30.2,0.4,11.2,81,62.4,0.0,0.0,0.0,0.0,0.0,48,100,0,49.1,24.1,24.1,24.1,24.1,10
BT_LC,Thị xã La Gi - Bình Thuận,Bình Thuận,La Gi,10.6667,107.7667,2026-03-10 16:21:16,openmeteo,high,2026-03-10T16:15,,28.9,32.7,21.2,26.5,66,96,43,69.5,1010.8,1015.2,1008.5,1012.0,22.0,26.3,1.8,13.3,87,78.3,0.1,0.5,0.1,0.0,1.2,56,100,0,49.8,24.1,24.1,21.4,24.1,30
BT_PQ2,Đảo Phú Quý - Bình Thuận,Bình Thuận,Phú Quý,10.5,108.9333,2026-03-10 16:21:39,openmeteo,high,2026-03-10T16:15,,25.3,25.8,24.7,25.3,86,88,75,83.0,1011.6,1015.5,1009.4,1012.4,40.0,44.5,28.9,36.8,42,43.2,0.0,0.0,0.0,0.0,0.0,74,100,6,52.5,24.1,24.1,24.1,24.1,15
BD_AL,Huyện An Lão - Bình Định,Bình Định,An Lão,14.5667,108.9,2026-03-10 16:21:12,openmeteo,high,2026-03-10T16:15,,22.1,26.2,19.4,21.7,87,100,64,88.8,1017.5,1020.4,1013.6,1017.5,10.5,14.8,1.8,7.0,22,14.3,0.0,0.8,0.1,0.5,11.1,98,100,59,91.2,11.8,24.1,6.8,20.0,10
BD_HV,Huyện Hoài Ân - Bình Định,Bình Định,Hoài Ân,14.35,108.9,2026-03-10 16:21:13,openmeteo,high,2026-03-10T16:15,,21.6,25.5,18.2,20.9,80,93,57,80.8,1016.6,1019.6,1013.3,1016.8,14.3,21.5,3.5,9.9,34,27.8,0.0,0.3,0.1,0.1,2.1,96,100,45,84.3,13.0,24.1,8.3,21.2,0
BD_QN,Thành phố Quy Nhơn - Bình Định,Bình Định,Quy Nhơn,13.7667,109.2333,2026-03-10 16:21:13,openmeteo,high,2026-03-10T16:15,,24.7,28.9,22.0,24.2,80,93,55,80.9,1015.4,1018.3,1012.4,1015.6,20.3,23.5,2.5,11.4,17,4.6,0.1,0.9,0.1,1.1,25.7,85,100,24,81.3,8.2,24.1,4.3,21.6,0
BL_HH,Huyện Hòa Bình - Bạc Liêu,Bạc Liêu,Hòa Bình,9.2833,105.6333,2026-03-10 16:21:08,openmeteo,high,2026-03-10T16:15,,31.2,33.1,24.3,27.6,55,92,40,70.1,1010.0,1014.5,1008.0,1011.5,22.0,27.4,8.3,17.0,95,90.0,0.0,0.1,0.1,0.0,0.1,42,100,0,54.5,24.1,24.1,18.4,24.1,10
BL_HB,Huyện Hồng Dân - Bạc Liêu,Bạc Liêu,Hồng Dân,9.55,105.4167,2026-03-10 16:21:07,openmeteo,high,2026-03-10T16:15,,31.2,33.8,23.0,27.5,59,94,38,71.6,1009.9,1014.4,1007.5,1011.4,10.1,22.3,2.9,11.9,90,91.8,0.0,0.4,0.1,0.0,0.8,75,100,0,58.5,24.1,24.1,12.3,23.9,10
BL_PT,Huyện Phước Long - Bạc Liêu,Bạc Liêu,Phước Long,9.4333,105.4667,2026-03-10 16:21:07,openmeteo,high,2026-03-10T16:15,,31.7,33.4,23.8,27.6,53,93,38,70.3,1009.9,1014.4,1007.7,1011.4,16.6,24.6,4.7,14.4,95,90.3,0.0,0.1,0.1,0.0,0.1,79,96,0,55.5,24.1,24.1,12.3,23.9,10
BL_VL,Huyện Vĩnh Lợi - Bạc Liêu,Bạc Liêu,Vĩnh Lợi,9.35,105.5667,2026-03-10 16:21:07,openmeteo,high,2026-03-10T16:15,,31.2,33.1,24.3,27.6,55,92,40,70.1,1010.0,1014.5,1008.0,1011.5,22.0,27.4,8.3,17.0,95,90.0,0.0,0.1,0.1,0.0,0.1,42,100,0,54.5,24.1,24.1,18.4,24.1,10
BL_DD,Huyện Đông Hải - Bạc Liêu,Bạc Liêu,Đông Hải,9.1667,105.4333,2026-03-10 16:21:08,openmeteo,high,2026-03-10T16:15,,29.8,32.5,24.3,27.3,66,92,47,73.5,1010.3,1014.5,1008.0,1011.5,19.7,30.0,6.2,17.5,105,92.2,0.0,1.6,0.1,0.2,4.3,66,100,7,54.9,24.1,24.1,18.4,24.1,5
BL_BL,Thành phố Bạc Liêu - Bạc Liêu,Bạc Liêu,Bạc Liêu,9.2833,105.7167,2026-03-10 16:21:06,openmeteo,high,2026-03-10T16:15,,30.7,32.9,25.0,27.8,58,89,42,69.5,1010.3,1014.6,1008.2,1011.6,25.9,30.3,11.4,20.6,88,87.3,0.0,0.0,0.0,0.0,0.0,47,100,0,52.8,24.1,24.1,18.4,24.1,10
BL_GD,Thị xã Giá Rai - Bạc Liêu,Bạc Liêu,Giá Rai,9.2333,105.4667,2026-03-10 16:21:06,openmeteo,high,2026-03-10T16:15,,30.9,33.5,23.5,27.4,59,94,40,72.3,1010.0,1014.4,1007.7,1011.4,15.4,23.8,4.3,13.7,111,91.5,0.0,0.5,0.1,0.0,0.8,78,100,4,55.5,24.1,24.1,18.4,24.1,10
BG_LN,Huyện Lạng Giang - Bắc Giang,Bắc Giang,Lạng Giang,21.35,106.25,2026-03-10 16:21:29,openmeteo,high,2026-03-10T16:15,,24.0,26.2,15.4,20.9,49,94,49,76.0,1018.4,1025.5,1012.7,1019.0,7.7,13.9,0.4,4.8,49,133.2,0.0,0.2,0.1,0.1,1.3,26,100,0,79.7,24.1,24.1,19.3,24.1,0
BG_YL,Huyện Yên Thế - Bắc Giang,Bắc Giang,Yên Thế,21.5167,106.1167,2026-03-10 16:21:29,openmeteo,high,2026-03-10T16:15,,23.7,25.8,14.8,20.7,50,95,49,76.6,1018.4,1025.5,1012.6,1019.1,7.0,13.1,0.4,4.5,55,110.6,0.0,0.2,0.1,0.1,1.5,44,100,0,80.1,24.1,24.1,16.2,24.0,0
BG_BG,Thành phố Bắc Giang - Bắc Giang,Bắc Giang,Bắc Giang,21.2667,106.2,2026-03-10 16:21:29,openmeteo,high,2026-03-10T16:15,,23.9,25.9,16.0,20.9,52,94,52,77.6,1018.4,1025.5,1012.6,1019.0,7.1,13.2,0.0,5.5,49,122.8,0.0,0.2,0.1,0.1,1.6,12,100,6,81.0,24.1,24.1,19.3,24.1,0
BK_BB,Huyện Ba Bể - Bắc Kạn,Bắc Kạn,Ba Bể,22.4167,105.75,2026-03-10 16:21:22,openmeteo,high,2026-03-10T16:15,,20.7,22.7,13.3,18.8,68,92,60,81.1,1019.0,1025.8,1013.3,1019.6,3.7,10.5,0.0,4.5,151,151.1,0.0,0.0,0.0,0.0,0.0,85,100,32,88.9,24.1,24.1,20.1,24.0,0
BK_PT,Huyện Pác Nặm - Bắc Kạn,Bắc Kạn,Pác Nặm,22.6333,105.6667,2026-03-10 16:21:22,openmeteo,high,2026-03-10T16:15,,20.7,21.4,13.1,18.3,64,94,56,81.9,1018.6,1025.8,1013.3,1019.5,6.8,11.9,1.3,4.0,177,161.0,0.0,0.0,0.0,0.0,0.0,70,100,38,91.2,24.1,24.1,20.5,24.0,0
BK_BK,Thành phố Bắc Kạn - Bắc Kạn,Bắc Kạn,Bắc Kạn,22.15,105.8333,2026-03-10 16:21:22,openmeteo,high,2026-03-10T16:15,,19.5,22.3,12.5,18.7,72,93,66,81.5,1019.3,1025.8,1013.4,1019.7,4.7,10.1,0.4,4.2,148,128.4,0.0,0.1,0.1,0.0,0.3,92,100,17,88.0,24.1,24.1,18.6,24.0,0
BN_YL,Huyện Yên Phong - Bắc Ninh,Bắc Ninh,Yên Phong,21.2,105.95,2026-03-10 16:21:26,openmeteo,high,2026-03-10T16:15,,23.5,25.7,15.8,20.6,52,97,52,78.2,1018.5,1025.5,1012.4,1019.0,6.8,15.0,0.5,5.6,58,109.1,0.0,0.3,0.1,0.1,1.8,37,100,5,83.5,24.1,24.1,16.7,24.0,0
BN_BN,Thành phố Bắc Ninh - Bắc Ninh,Bắc Ninh,Bắc Ninh,21.1861,106.0764,2026-03-10 16:21:25,openmeteo,high,2026-03-10T16:15,,23.6,25.7,15.9,20.6,52,95,52,77.8,1018.5,1025.5,1012.6,1019.0,6.6,14.0,0.5,6.3,45,120.1,0.0,0.2,0.1,0.1,1.7,25,100,7,81.5,24.1,24.1,16.7,24.0,0
BN_TS,Thành phố Từ Sơn - Bắc Ninh,Bắc Ninh,Từ Sơn,21.1167,105.9667,2026-03-10 16:21:27,openmeteo,high,2026-03-10T16:15,,23.6,25.7,15.9,20.6,52,95,52,77.8,1018.5,1025.5,1012.6,1019.0,6.6,14.0,0.5,6.3,45,120.1,0.0,0.2,0.1,0.1,1.7,25,100,7,81.5,24.1,24.1,23.3,24.1,0
BT_BL,Huyện Ba Tri - Bến Tre,Bến Tre,Ba Tri,10.0667,106.6,2026-03-10 16:20:55,openmeteo,high,2026-03-10T16:15,,30.0,33.8,23.7,27.6,61,91,41,70.2,1010.5,1014.9,1008.3,1011.6,19.3,25.0,2.4,14.8,99,90.7,0.0,0.1,0.1,0.0,0.1,37,98,0,50.9,24.1,24.1,23.5,24.1,5
BT_BH,Huyện Bình Đại - Bến Tre,Bến Tre,Bình Đại,10.1833,106.7,2026-03-10 16:20:55,openmeteo,high,2026-03-10T16:15,,30.0,33.8,23.7,27.6,61,91,41,70.2,1010.5,1014.9,1008.3,1011.6,19.3,25.0,2.4,14.8,99,90.7,0.0,0.1,0.1,0.0,0.1,37,98,0,50.9,24.1,24.1,24.1,24.1,5
BT_CL,Huyện Châu Thành - Bến Tre,Bến Tre,Châu Thành,10.3,106.2667,2026-03-10 16:20:55,openmeteo,high,2026-03-10T16:15,,31.2,34.0,24.1,27.9,54,91,39,69.0,1010.1,1014.7,1007.6,1011.5,13.4,24.1,0.8,12.4,110,91.6,0.0,0.1,0.1,0.0,0.1,57,100,0,53.1,24.1,24.1,9.5,24.0,10
BT_CT,Huyện Chợ Lách - Bến Tre,Bến Tre,Chợ Lách,10.2667,106.15,2026-03-10 16:20:55,openmeteo,high,2026-03-10T16:15,,31.3,34.5,23.6,27.9,54,92,35,68.7,1010.0,1014.7,1007.4,1011.4,13.5,24.1,1.1,11.1,119,93.4,0.1,0.2,0.2,0.0,0.2,74,95,0,53.7,24.1,24.1,9.5,24.0,10
BT_GD,Huyện Giồng Trôm - Bến Tre,Bến Tre,Giồng Trôm,10.1667,106.4667,2026-03-10 16:20:56,openmeteo,high,2026-03-10T16:15,,30.5,33.9,24.1,27.8,59,90,40,69.8,1010.3,1014.8,1007.9,1011.5,16.2,24.2,1.8,13.1,103,91.2,0.0,0.1,0.1,0.0,0.1,64,100,0,52.4,24.1,24.1,24.1,24.1,10
BT_MB,Huyện Mỏ Cày Bắc - Bến Tre,Bến Tre,Mỏ Cày Bắc,10.1333,106.3,2026-03-10 16:20:56,openmeteo,high,2026-03-10T16:15,,31.2,34.4,23.5,27.8,54,92,37,68.6,1010.1,1014.7,1007.5,1011.4,14.2,24.9,1.1,12.1,111,91.6,0.0,0.1,0.1,0.0,0.1,59,99,0,54.0,24.1,24.1,9.5,24.0,10
BT_MN,Huyện Mỏ Cày Nam - Bến Tre,Bến Tre,Mỏ Cày Nam,10.0667,106.3333,2026-03-10 16:20:56,openmeteo,high,2026-03-10T16:15,,30.6,34.1,23.7,27.8,57,91,39,69.2,1010.3,1014.7,1007.8,1011.5,15.7,24.4,2.1,13.2,101,91.7,0.0,0.1,0.1,0.0,0.3,91,100,0,53.4,24.1,24.1,18.3,24.0,10
BT_TP,Huyện Thạnh Phú - Bến Tre,Bến Tre,Thạnh Phú,9.9333,106.5333,2026-03-10 16:20:57,openmeteo,high,2026-03-10T16:15,,29.8,32.6,24.9,27.7,62,86,47,69.6,1010.6,1014.8,1008.3,1011.6,23.0,27.6,8.6,18.4,89,87.7,0.0,0.1,0.1,0.0,0.1,32,89,0,50.0,24.1,24.1,23.5,24.1,5
BT_BT,Thành phố Bến Tre - Bến Tre,Bến Tre,Bến Tre,10.2333,106.3833,2026-03-10 16:20:54,openmeteo,high,2026-03-10T16:15,,31.2,34.0,24.1,27.9,54,91,39,69.0,1010.1,1014.7,1007.6,1011.5,13.4,24.1,0.8,12.4,110,91.6,0.0,0.1,0.1,0.0,0.1,57,100,0,53.1,24.1,24.1,24.1,24.1,10
CB_BL,Huyện Bảo Lâm - Cao Bằng,Cao Bằng,Bảo Lâm,22.8667,105.5,2026-03-10 16:21:21,openmeteo,high,2026-03-10T16:15,,21.1,21.9,12.6,18.5,59,94,56,81.5,1018.3,1026.2,1012.8,1019.3,5.1,13.5,0.4,4.3,172,169.4,0.0,0.1,0.1,0.0,0.7,77,100,30,92.9,24.1,24.1,24.1,24.1,0
CB_BC,Huyện Bảo Lạc - Cao Bằng,Cao Bằng,Bảo Lạc,22.95,105.7333,2026-03-10 16:21:21,openmeteo,high,2026-03-10T16:15,,21.6,22.4,12.9,19.0,58,91,57,77.8,1018.3,1026.4,1012.6,1019.3,2.2,17.7,0.4,4.5,261,139.6,0.0,0.1,0.1,0.0,0.4,56,100,9,90.7,24.1,24.1,23.3,24.1,0
CB_CB,Thành phố Cao Bằng - Cao Bằng,Cao Bằng,Cao Bằng,22.6667,106.25,2026-03-10 16:21:21,openmeteo,high,2026-03-10T16:15,,19.4,23.3,12.2,18.6,65,94,55,79.5,1019.4,1026.4,1012.7,1019.7,7.7,11.9,0.5,4.1,118,138.6,0.0,0.0,0.0,0.0,0.0,98,100,19,88.7,24.1,24.1,24.1,24.1,0
CM_CM,Huyện Cái Nước - Cà Mau,Cà Mau,Cái Nước,9.0,105.0333,2026-03-10 16:20:50,openmeteo,high,2026-03-10T16:15,,30.2,32.7,23.9,27.1,62,96,47,75.0,1010.3,1014.3,1008.0,1011.4,17.4,25.2,4.3,14.2,96,92.6,0.0,1.2,0.1,0.1,3.6,49,100,6,56.3,24.1,24.1,18.8,24.1,10
CM_NG,Huyện Ngọc Hiển - Cà Mau,Cà Mau,Ngọc Hiển,8.6667,105.05,2026-03-10 16:20:51,openmeteo,high,2026-03-10T16:15,,29.2,30.9,25.2,27.4,65,87,55,73.8,1010.5,1014.4,1008.4,1011.6,24.2,31.2,10.8,20.8,85,85.7,0.0,0.0,0.0,0.0,0.0,30,100,6,50.6,24.1,24.1,24.1,24.1,5
CM_NC,Huyện Năm Căn - Cà Mau,Cà Mau,Năm Căn,8.75,105.0,2026-03-10 16:20:51,openmeteo,high,2026-03-10T16:15,,30.3,31.6,24.8,27.5,58,92,48,73.4,1010.2,1014.2,1008.0,1011.4,22.8,31.1,8.0,18.8,85,87.8,0.0,0.0,0.0,0.0,0.0,40,100,11,51.3,24.1,24.1,24.1,24.1,10
CM_PT,Huyện Phú Tân - Cà Mau,Cà Mau,Phú Tân,8.8833,104.8833,2026-03-10 16:20:51,openmeteo,high,2026-03-10T16:15,,29.2,30.9,25.5,27.5,67,91,54,75.7,1010.3,1014.2,1008.0,1011.5,12.0,36.4,5.7,23.1,74,88.3,0.2,0.8,0.1,0.2,5.0,61,100,8,53.9,24.1,24.1,18.8,24.1,30
CM_TV,Huyện Thới Bình - Cà Mau,Cà Mau,Thới Bình,9.35,105.1,2026-03-10 16:20:51,openmeteo,high,2026-03-10T16:15,,28.8,33.4,22.7,27.0,76,96,42,75.0,1010.2,1014.4,1007.6,1011.4,9.2,21.0,0.8,10.4,154,96.6,1.3,5.2,0.1,0.5,12.3,100,100,0,60.5,24.1,24.1,6.8,23.5,70
CM_TR,Huyện Trần Văn Thời - Cà Mau,Cà Mau,Trần Văn Thời,9.0833,104.9667,2026-03-10 16:20:52,openmeteo,high,2026-03-10T16:15,,29.6,32.8,23.7,27.1,74,95,45,76.6,1010.3,1014.3,1007.9,1011.4,4.7,27.0,1.1,14.6,94,92.8,0.1,4.7,0.1,0.5,11.0,100,100,4,59.3,24.1,24.1,18.8,24.1,30
CM_UM,Huyện U Minh - Cà Mau,Cà Mau,U Minh,9.4,104.9833,2026-03-10 16:20:52,openmeteo,high,2026-03-10T16:15,,28.5,32.8,23.7,27.3,76,94,48,76.1,1010.4,1014.4,1007.8,1011.5,5.4,24.2,1.3,12.7,217,94.4,0.6,3.0,0.1,0.7,17.4,100,100,0,57.5,24.1,24.1,4.9,23.6,70
CM_DH,Huyện Đầm Dơi - Cà Mau,Cà Mau,Đầm Dơi,8.9833,105.2,2026-03-10 16:20:51,openmeteo,high,2026-03-10T16:15,,29.9,32.0,24.6,27.3,62,92,51,74.0,1010.4,1014.5,1008.2,1011.5,21.7,31.3,6.6,18.2,95,89.2,0.0,0.3,0.1,0.0,1.0,27,100,11,56.5,24.1,24.1,19.1,24.1,5
CM_TP,Thành phố Cà Mau - Cà Mau,Cà Mau,Cà Mau,9.1769,105.1521,2026-03-10 16:20:50,openmeteo,high,2026-03-10T16:15,,29.3,33.1,23.6,27.0,68,94,44,75.2,1010.4,1014.4,1008.0,1011.4,15.1,24.1,3.7,13.4,108,94.5,0.1,3.1,0.1,0.2,6.0,81,100,8,58.4,24.1,24.1,18.7,24.0,30
CT_CC,Huyện Cờ Đỏ - Cần Thơ,Cần Thơ,Cờ Đỏ,10.1,105.4333,2026-03-10 16:20:10,statistical,medium,2026-03-10T16:20:10.238604,,31.8,36.9,26.2,31.2,65,85,66,74.4,1019.0,1020.0,1006.0,1013.6,1.9,5.8,1.1,3.8,7,37.0,0.0,4.6,1.5,0.5,12.4,50,75,48,59.6,14.3,15.4,10.3,13.1,10
CT_PT,Huyện Phong Điền - Cần Thơ,Cần Thơ,Phong Điền,10.25,105.6667,2026-03-10 16:20:11,statistical,medium,2026-03-10T16:20:11.018267,,30.4,35.7,25.5,30.2,75,85,65,77.1,1018.0,1020.0,1005.0,1013.2,5.0,6.0,1.2,3.4,43,319.8,0.0,7.2,4.1,0.7,16.7,66,76,43,61.7,11.0,15.3,9.4,12.3,10
CT_TN,Huyện Thới Lai - Cần Thơ,Cần Thơ,Thới Lai,10.0667,105.55,2026-03-10 16:20:11,openmeteo,high,2026-03-10T16:15,,31.9,33.9,22.5,27.4,53,96,43,71.5,1009.7,1014.6,1007.4,1011.4,9.5,23.1,0.4,8.7,115,97.6,0.0,0.7,0.1,0.1,2.6,71,95,0,55.9,24.1,24.1,8.0,23.8,10
CT_VT,Huyện Vĩnh Thạnh - Cần Thơ,Cần Thơ,Vĩnh Thạnh,10.2167,105.4,2026-03-10 16:20:06,openmeteo,high,2026-03-10T16:15,,32.4,34.1,22.6,27.7,52,94,42,70.5,1009.5,1014.7,1007.4,1011.4,9.3,19.5,1.0,7.6,103,92.8,0.0,1.1,0.1,0.1,3.2,66,94,0,55.6,24.1,24.1,2.9,23.8,10
CT_BT,Quận Bình Thủy - Cần Thơ,Cần Thơ,Bình Thủy,10.0816,105.7378,2026-03-10 16:19:59,openmeteo,high,2026-03-10T16:15,,31.6,34.6,23.1,27.9,55,93,40,69.3,1009.9,1014.6,1007.4,1011.4,11.3,22.7,1.3,10.0,127,95.8,0.0,0.4,0.1,0.0,0.5,77,94,0,51.2,24.1,24.1,14.7,24.0,10
CT_CR,Quận Cái Răng - Cần Thơ,Cần Thơ,Cái Răng,10.0,105.7667,2026-03-10 16:19:59,openmeteo,high,2026-03-10T16:15,,31.3,34.3,23.0,27.7,56,95,38,69.9,1009.9,1014.5,1007.4,1011.4,10.8,24.5,1.0,10.4,111,94.7,0.1,0.3,0.2,0.0,0.5,67,95,0,52.9,24.1,24.1,14.7,24.0,10
CT_NK,Quận Ninh Kiều - Cần Thơ,Cần Thơ,Ninh Kiều,10.0452,105.7469,2026-03-10 16:19:59,openmeteo,high,2026-03-10T16:15,,31.3,34.3,23.0,27.7,56,95,38,69.9,1009.9,1014.5,1007.4,1011.4,10.8,24.5,1.0,10.4,111,94.7,0.1,0.3,0.2,0.0,0.5,67,95,0,52.9,24.1,24.1,14.7,24.0,10
CT_TL,Quận Thốt Nốt - Cần Thơ,Cần Thơ,Thốt Nốt,10.2667,105.5333,2026-03-10 16:20:11,openmeteo,high,2026-03-10T16:15,,32.5,34.4,22.5,27.7,51,95,41,69.9,1009.6,1014.6,1007.3,1011.4,9.3,22.0,1.3,8.5,118,96.4,0.0,0.3,0.1,0.1,1.3,70,98,0,56.6,24.1,24.1,2.9,23.8,10
CT_OT,Quận Ô Môn - Cần Thơ,Cần Thơ,Ô Môn,10.1167,105.6333,2026-03-10 16:20:10,openmeteo,high,2026-03-10T16:15,,31.8,34.4,22.7,27.7,54,95,40,69.9,1009.8,1014.6,1007.4,1011.4,10.5,24.1,1.5,9.7,117,96.7,0.0,0.2,0.1,0.0,0.8,81,100,0,55.3,24.1,24.1,14.7,24.0,10
GL_CP,Huyện Chư Prông - Gia Lai,Gia Lai,Chư Prông,13.5833,107.8333,2026-03-10 16:20:31,openmeteo,high,2026-03-10T16:15,,29.5,33.3,19.1,25.6,48,84,34,61.9,1012.7,1016.7,1009.3,1013.7,23.2,25.0,2.2,15.2,77,84.9,0.0,0.0,0.0,0.0,0.0,57,94,0,28.1,24.1,24.1,24.1,24.1,5
GL_CH,Huyện Chư Păh - Gia Lai,Gia Lai,Chư Păh,14.1667,107.9333,2026-03-10 16:20:31,openmeteo,high,2026-03-10T16:15,,24.4,28.4,17.9,22.1,57,81,39,64.4,1014.1,1017.8,1010.3,1014.9,21.6,25.1,5.6,12.0,62,48.2,0.0,0.0,0.0,0.0,0.0,48,100,17,54.2,24.1,24.1,24.1,24.1,0
GL_CS,Huyện Chư Sê - Gia Lai,Gia Lai,Chư Sê,13.75,108.0833,2026-03-10 16:20:31,openmeteo,high,2026-03-10T16:15,,24.8,28.3,17.5,22.1,58,86,42,68.4,1014.3,1017.8,1011.1,1014.9,25.6,30.1,6.1,16.8,62,71.6,0.0,0.0,0.0,0.0,0.0,64,93,0,36.2,24.1,24.1,24.1,24.1,0
GL_IA,Huyện Ia Grai - Gia Lai,Gia Lai,Ia Grai,13.9833,107.75,2026-03-10 16:20:32,openmeteo,high,2026-03-10T16:15,,30.2,33.7,19.5,26.2,45,85,32,58.8,1012.3,1016.8,1009.0,1013.5,21.7,22.1,0.8,8.4,69,85.7,0.0,0.0,0.0,0.0,0.0,21,98,0,38.6,24.1,24.1,24.1,24.1,10
GL_KB,Huyện KBang - Gia Lai,Gia Lai,KBang,14.35,108.5,2026-03-10 16:20:32,openmeteo,high,2026-03-10T16:15,,19.2,24.1,16.2,19.0,84,92,56,81.8,1017.0,1020.0,1013.3,1017.3,17.7,23.7,6.0,12.8,52,52.9,0.0,0.0,0.0,0.0,0.0,93,100,26,76.4,24.1,24.1,0.1,19.9,0
GL_KR,Huyện Krông Pa - Gia Lai,Gia Lai,Krông Pa,13.2167,108.6667,2026-03-10 16:20:33,openmeteo,high,2026-03-10T16:15,,24.1,27.4,18.5,22.2,69,92,50,77.3,1015.2,1018.3,1011.8,1015.6,19.4,23.6,3.0,10.4,55,81.5,0.0,0.2,0.1,0.0,1.0,94,98,44,77.9,24.1,24.1,16.9,24.1,0
GL_KN,Huyện Kông Chro - Gia Lai,Gia Lai,Kông Chro,13.7167,108.5167,2026-03-10 16:20:33,openmeteo,high,2026-03-10T16:15,,24.8,29.0,19.1,22.9,64,82,43,69.4,1014.6,1017.8,1011.4,1015.0,22.2,27.0,5.0,16.1,58,68.5,0.0,0.0,0.0,0.0,0.0,58,100,10,49.8,24.1,24.1,24.1,24.1,0
GL_MY,Huyện Mang Yang - Gia Lai,Gia Lai,Mang Yang,13.9833,108.25,2026-03-10 16:20:33,openmeteo,high,2026-03-10T16:15,,25.2,29.1,17.3,22.7,59,89,43,68.2,1014.8,1018.0,1011.4,1015.3,21.9,28.1,2.5,12.4,54,60.6,0.0,0.0,0.0,0.0,0.0,63,89,0,42.0,24.1,24.1,8.6,23.6,5
GL_PG,Huyện Phú Thiện - Gia Lai,Gia Lai,Phú Thiện,13.5333,108.3,2026-03-10 16:20:33,openmeteo,high,2026-03-10T16:15,,26.8,31.7,20.4,24.6,59,86,38,66.5,1013.9,1017.2,1010.2,1014.4,27.9,30.4,11.6,21.8,66,72.1,0.0,0.0,0.0,0.0,0.0,63,100,0,41.0,24.1,24.1,24.1,24.1,5
GL_DP,Huyện Đăk Pơ - Gia Lai,Gia Lai,Đăk Pơ,14.0,108.5,2026-03-10 16:20:32,openmeteo,high,2026-03-10T16:15,,22.1,26.3,17.6,20.9,74,88,51,75.8,1015.5,1018.7,1012.4,1016.0,25.1,29.0,9.8,16.9,52,57.6,0.0,0.0,0.0,0.0,0.0,68,96,35,67.5,24.1,24.1,5.0,23.7,0
GL_DC,Huyện Đăk Đoa - Gia Lai,Gia Lai,Đăk Đoa,14.1167,108.1167,2026-03-10 16:20:32,openmeteo,high,2026-03-10T16:15,,24.4,28.9,18.2,22.5,60,87,40,65.6,1014.8,1017.9,1010.9,1015.2,22.2,27.4,3.1,12.7,54,52.5,0.0,0.0,0.0,0.0,0.0,51,98,0,50.4,24.1,24.1,24.1,24.1,0
GL_DA,Huyện Đức Cơ - Gia Lai,Gia Lai,Đức Cơ,13.7833,107.6667,2026-03-10 16:20:32,openmeteo,high,2026-03-10T16:15,,30.8,33.9,17.7,25.8,43,95,31,61.0,1011.7,1016.5,1008.7,1013.2,19.2,19.6,2.4,9.3,77,104.5,0.0,0.0,0.0,0.0,0.0,39,98,0,34.1,24.1,24.1,24.1,24.1,10
GL_PC,Thành phố Pleiku - Gia Lai,Gia Lai,Pleiku,13.9833,108.0,2026-03-10 16:20:30,openmeteo,high,2026-03-10T16:15,,25.6,29.9,18.5,23.0,53,82,38,62.6,1014.0,1017.5,1010.5,1014.6,26.6,30.3,7.0,16.0,60,62.8,0.0,0.0,0.0,0.0,0.0,45,95,0,36.0,24.1,24.1,24.1,24.1,5
GL_AD,Thị xã An Khê - Gia Lai,Gia Lai,An Khê,14.0,108.6833,2026-03-10 16:20:31,openmeteo,high,2026-03-10T16:15,,23.1,27.2,18.3,21.7,71,88,48,74.5,1015.6,1018.9,1012.5,1016.2,25.3,29.6,6.6,15.3,49,51.1,0.0,0.0,0.0,0.0,0.0,66,94,22,65.5,24.1,24.1,0.6,22.3,0
GL_AY,Thị xã Ayun Pa - Gia Lai,Gia Lai,Ayun Pa,13.3833,108.4333,2026-03-10 16:20:31,openmeteo,high,2026-03-10T16:15,,26.9,31.7,21.2,25.2,62,90,40,68.0,1014.4,1017.5,1010.6,1014.7,21.8,24.2,4.6,14.1,59,65.8,0.0,0.0,0.0,0.0,0.0,70,100,2,64.2,24.1,24.1,24.1,24.1,5
HG_MK,Huyện Mèo Vạc - Hà Giang,Hà Giang,Mèo Vạc,23.1528,105.4069,2026-03-10 16:21:32,openmeteo,high,2026-03-10T16:15,,15.0,16.3,8.5,12.8,68,100,62,85.6,1018.6,1026.4,1013.2,1019.7,7.4,11.4,0.7,4.5,141,134.4,0.0,0.1,0.1,0.0,0.7,57,100,29,93.0,24.1,24.1,1.6,23.4,0
HG_DV,Huyện Đồng Văn - Hà Giang,Hà Giang,Đồng Văn,23.2547,105.25,2026-03-10 16:21:32,openmeteo,high,2026-03-10T16:15,,14.0,15.9,7.0,11.4,72,99,69,88.8,1018.8,1027.1,1013.9,1020.1,9.0,20.1,2.8,8.2,185,175.6,0.0,0.2,0.1,0.0,0.9,61,100,30,92.8,24.1,24.1,0.1,21.6,0
HG_HG,Thành phố Hà Giang - Hà Giang,Hà Giang,Hà Giang,22.8233,104.9836,2026-03-10 16:21:31,openmeteo,high,2026-03-10T16:15,,18.2,20.1,13.5,16.6,79,99,75,90.5,1018.9,1026.2,1013.3,1019.8,9.7,11.0,0.4,5.6,112,141.3,0.0,0.6,0.1,0.1,2.0,94,100,58,95.1,24.1,24.1,22.3,24.1,0
HNA_DT,Huyện Duy Tiên - Hà Nam,Hà Nam,Duy Tiên,20.6333,105.9667,2026-03-10 16:21:32,openmeteo,high,2026-03-10T16:15,,23.0,26.5,15.4,20.4,55,99,54,81.0,1018.6,1025.4,1012.4,1019.0,6.6,15.9,0.0,6.4,41,122.7,0.0,0.2,0.1,0.1,1.6,19,100,10,80.7,24.1,24.1,21.3,24.1,0
HNA_KB,Huyện Kim Bảng - Hà Nam,Hà Nam,Kim Bảng,20.5667,105.85,2026-03-10 16:21:32,openmeteo,high,2026-03-10T16:15,,22.8,26.9,15.1,20.3,54,97,53,78.9,1018.6,1025.5,1012.4,1019.0,6.9,15.9,0.4,5.7,43,131.7,0.0,0.1,0.1,0.0,0.4,12,100,4,80.6,24.1,24.1,24.1,24.1,0
HNA_PL,Thành phố Phủ Lý - Hà Nam,Hà Nam,Phủ Lý,20.5411,105.9139,2026-03-10 16:21:32,openmeteo,high,2026-03-10T16:15,,23.2,27.2,15.4,20.8,54,97,52,78.2,1018.7,1025.5,1012.6,1019.1,6.6,14.6,0.4,4.9,45,135.4,0.0,0.0,0.0,0.0,0.0,35,100,0,81.0,24.1,24.1,24.1,24.1,0
HN_BG,Huyện Ba Vì - Hà Nội,Hà Nội,Ba Vì,21.1992,105.4239,2026-03-10 16:19:48,openmeteo,high,2026-03-10T16:15,,22.8,26.7,15.9,20.9,58,96,57,79.3,1018.5,1025.4,1011.7,1018.8,7.2,15.2,0.5,7.3,108,119.7,0.0,0.3,0.1,0.0,0.4,17,100,5,83.8,24.1,24.1,8.9,23.9,0
HN_CM,Huyện Chương Mỹ - Hà Nội,Hà Nội,Chương Mỹ,20.8964,105.7039,2026-03-10 16:19:44,openmeteo,high,2026-03-10T16:15,,22.7,26.9,15.2,20.5,58,96,55,78.2,1018.6,1025.7,1012.1,1019.0,7.1,18.7,0.4,6.5,66,129.8,0.0,0.0,0.0,0.0,0.0,13,100,0,81.9,24.1,24.1,18.6,24.1,0
HN_GL,Huyện Gia Lâm - Hà Nội,Hà Nội,Gia Lâm,21.0408,105.95,2026-03-10 16:19:46,openmeteo,high,2026-03-10T16:15,,23.4,25.8,16.3,20.7,53,96,53,77.9,1018.5,1025.5,1012.5,1019.0,6.6,15.9,0.4,7.0,45,122.1,0.0,0.1,0.1,0.0,1.0,23,100,0,82.4,24.1,24.1,23.3,24.1,0
HN_HĐ,Huyện Hoài Đức - Hà Nội,Hà Nội,Hoài Đức,21.0392,105.7108,2026-03-10 16:19:44,openmeteo,high,2026-03-10T16:15,,23.2,26.7,15.8,20.8,57,97,54,78.4,1018.5,1025.6,1012.2,1019.0,6.0,17.2,0.5,7.0,57,132.4,0.0,0.1,0.1,0.0,0.1,23,100,0,82.7,24.1,24.1,18.6,24.1,0
HN_MT,Huyện Mê Linh - Hà Nội,Hà Nội,Mê Linh,21.1753,105.7219,2026-03-10 16:19:47,openmeteo,high,2026-03-10T16:15,,23.1,26.4,15.8,20.7,59,97,57,79.4,1018.5,1025.6,1012.0,1018.9,6.2,17.9,1.5,7.9,83,124.4,0.0,0.3,0.2,0.0,0.5,28,100,0,83.1,24.1,24.1,19.5,24.1,0
HN_MD,Huyện Mỹ Đức - Hà Nội,Hà Nội,Mỹ Đức,20.6472,105.7194,2026-03-10 16:19:46,openmeteo,high,2026-03-10T16:15,,21.4,25.4,13.8,19.3,55,98,54,78.5,1018.8,1025.7,1012.6,1019.3,7.9,15.2,0.4,5.3,51,132.8,0.0,0.1,0.1,0.0,0.4,23,100,0,82.9,24.1,24.1,24.1,24.1,0
HN_ML,Huyện Mỹ Đức - Hà Nội,Hà Nội,Mỹ Đức,20.6472,105.7194,2026-03-10 16:19:47,openmeteo,high,2026-03-10T16:15,,21.4,25.4,13.8,19.3,55,98,54,78.5,1018.8,1025.7,1012.6,1019.3,7.9,15.2,0.4,5.3,51,132.8,0.0,0.1,0.1,0.0,0.4,23,100,0,82.9,24.1,24.1,24.1,24.1,0
HN_PX,Huyện Phú Xuyên - Hà Nội,Hà Nội,Phú Xuyên,20.7392,105.9139,2026-03-10 16:19:45,openmeteo,high,2026-03-10T16:15,,23.0,26.5,15.4,20.4,55,98,55,80.4,1018.5,1025.6,1012.3,1019.0,6.9,17.3,0.4,6.8,43,145.8,0.0,0.1,0.1,0.0,0.7,22,100,7,80.1,24.1,24.1,21.3,24.1,0
HN_PH,Huyện Phú Xuyên - Hà Nội,Hà Nội,Phú Xuyên,20.7392,105.9139,2026-03-10 16:19:47,openmeteo,high,2026-03-10T16:15,,23.0,26.5,15.4,20.4,55,98,55,80.4,1018.5,1025.6,1012.3,1019.0,6.9,17.3,0.4,6.8,43,145.8,0.0,0.1,0.1,0.0,0.7,22,100,7,80.1,24.1,24.1,21.3,24.1,0
HN_PT,Huyện Phúc Thọ - Hà Nội,Hà Nội,Phúc Thọ,21.1031,105.5514,2026-03-10 16:19:47,openmeteo,high,2026-03-10T16:15,,22.4,26.0,15.6,20.4,59,95,57,79.1,1018.5,1025.6,1011.9,1018.9,7.6,16.1,0.7,7.2,90,122.0,0.0,0.7,0.1,0.1,2.3,21,100,8,83.9,24.1,24.1,12.2,23.9,0
HN_QO,Huyện Quốc Oai - Hà Nội,Hà Nội,Quốc Oai,20.9956,105.6119,2026-03-10 16:19:44,openmeteo,high,2026-03-10T16:15,,22.0,26.2,14.4,19.9,59,97,57,79.4,1018.6,1025.7,1012.0,1019.0,8.4,17.0,1.1,6.9,80,122.3,0.0,0.2,0.1,0.0,0.9,22,100,0,84.4,24.1,24.1,12.2,23.9,0
HN_SL,Huyện Sóc Sơn - Hà Nội,Hà Nội,Sóc Sơn,21.2578,105.8489,2026-03-10 16:19:46,openmeteo,high,2026-03-10T16:15,,23.4,25.7,16.0,20.7,53,96,53,78.3,1018.4,1025.5,1012.4,1019.0,6.8,15.6,0.0,6.5,65,115.4,0.0,0.3,0.1,0.1,1.7,37,100,7,83.9,24.1,24.1,19.5,24.1,0
HN_TO,Huyện Thanh Oai - Hà Nội,Hà Nội,Thanh Oai,20.8556,105.7722,2026-03-10 16:19:45,openmeteo,high,2026-03-10T16:15,,22.7,26.9,15.2,20.5,58,96,55,78.2,1018.6,1025.7,1012.1,1019.0,7.1,18.7,0.4,6.5,66,129.8,0.0,0.0,0.0,0.0,0.0,13,100,0,81.9,24.1,24.1,24.1,24.1,0
HN_TT2,Huyện Thường Tín - Hà Nội,Hà Nội,Thường Tín,20.87,105.8583,2026-03-10 16:19:45,openmeteo,high,2026-03-10T16:15,,23.4,26.6,15.7,20.6,54,97,53,78.8,1018.5,1025.5,1012.3,1019.0,6.9,16.8,0.4,7.0,47,137.8,0.0,0.1,0.1,0.0,0.4,5,100,5,81.6,24.1,24.1,24.1,24.1,0
HN_TT,Huyện Thạch Thất - Hà Nội,Hà Nội,Thạch Thất,21.0278,105.5564,2026-03-10 16:19:44,openmeteo,high,2026-03-10T16:15,,23.4,27.7,14.3,21.0,55,100,53,78.5,1018.6,1025.7,1011.9,1019.0,8.8,14.7,0.7,5.8,78,119.4,0.0,0.1,0.1,0.0,0.4,17,100,0,82.7,24.1,24.1,12.2,23.9,0
HN_DP,Huyện Đan Phượng - Hà Nội,Hà Nội,Đan Phượng,21.1394,105.6736,2026-03-10 16:19:42,openmeteo,high,2026-03-10T16:15,,23.2,26.5,15.9,20.8,59,97,57,79.4,1018.5,1025.6,1012.0,1018.9,6.2,17.9,1.5,7.9,83,124.4,0.0,0.3,0.2,0.0,0.5,28,100,0,83.1,24.1,24.1,19.5,24.1,0
HN_DH,Huyện Đông Anh - Hà Nội,Hà Nội,Đông Anh,21.1467,105.8464,2026-03-10 16:19:46,openmeteo,high,2026-03-10T16:15,,23.2,25.9,16.2,20.7,54,95,54,78.3,1018.5,1025.5,1012.4,1019.0,6.8,16.6,0.4,7.2,58,121.2,0.0,0.1,0.1,0.0,0.8,32,100,4,83.7,24.1,24.1,19.5,24.1,0
HN_UH,Huyện Ứng Hòa - Hà Nội,Hà Nội,Ứng Hòa,20.7292,105.8236,2026-03-10 16:19:45,openmeteo,high,2026-03-10T16:15,,23.0,26.5,15.4,20.4,55,98,55,80.4,1018.5,1025.6,1012.3,1019.0,6.9,17.3,0.4,6.8,43,145.8,0.0,0.1,0.1,0.0,0.7,22,100,7,80.1,24.1,24.1,24.1,24.1,0
HN_BD,Quận Ba Đình - Hà Nội,Hà Nội,Ba Đình,21.0338,105.8142,2026-03-10 16:19:40,openmeteo,high,2026-03-10T16:15,,23.2,26.6,15.8,20.7,57,97,54,78.4,1018.5,1025.6,1012.2,1019.0,6.0,17.2,0.5,7.0,57,132.4,0.0,0.1,0.1,0.0,0.1,23,100,0,82.7,24.1,24.1,18.6,24.1,0
HN_BTL,Quận Bắc Từ Liêm - Hà Nội,Hà Nội,Bắc Từ Liêm,21.0772,105.773,2026-03-10 16:19:42,openmeteo,high,2026-03-10T16:15,,23.1,26.4,15.8,20.7,59,97,57,79.4,1018.5,1025.6,1012.0,1018.9,6.2,17.9,1.5,7.9,83,124.4,0.0,0.3,0.2,0.0,0.5,28,100,0,83.1,24.1,24.1,18.6,24.1,0
HN_CG,Quận Cầu Giấy - Hà Nội,Hà Nội,Cầu Giấy,21.0301,105.8022,2026-03-10 16:19:41,openmeteo,high,2026-03-10T16:15,,23.2,26.7,15.8,20.8,57,97,54,78.4,1018.5,1025.6,1012.2,1019.0,6.0,17.2,0.5,7.0,57,132.4,0.0,0.1,0.1,0.0,0.1,23,100,0,82.7,24.1,24.1,18.6,24.1,0
HN_HBT,Quận Hai Bà Trưng - Hà Nội,Hà Nội,Hai Bà Trưng,21.0091,105.8606,2026-03-10 16:19:41,openmeteo,high,2026-03-10T16:15,,23.2,26.6,15.8,20.7,57,97,54,78.4,1018.5,1025.6,1012.2,1019.0,6.0,17.2,0.5,7.0,57,132.4,0.0,0.1,0.1,0.0,0.1,23,100,0,82.7,24.1,24.1,18.6,24.1,0
HN_HK,Quận Hoàn Kiếm - Hà Nội,Hà Nội,Hoàn Kiếm,21.0285,105.8542,2026-03-10 16:19:40,openmeteo,high,2026-03-10T16:15,,23.1,26.6,15.7,20.7,57,97,54,78.4,1018.5,1025.6,1012.2,1019.0,6.0,17.2,0.5,7.0,57,132.4,0.0,0.1,0.1,0.0,0.1,23,100,0,82.7,24.1,24.1,18.6,24.1,0
HN_HM,Quận Hoàng Mai - Hà Nội,Hà Nội,Hoàng Mai,20.9837,105.8636,2026-03-10 16:19:42,openmeteo,high,2026-03-10T16:15,,23.2,26.6,15.8,20.7,57,97,54,78.4,1018.5,1025.6,1012.2,1019.0,6.0,17.2,0.5,7.0,57,132.4,0.0,0.1,0.1,0.0,0.1,23,100,0,82.7,24.1,24.1,18.6,24.1,0
HN_HD,Quận Hà Đông - Hà Nội,Hà Nội,Hà Đông,20.9714,105.7788,2026-03-10 16:19:43,openmeteo,high,2026-03-10T16:15,,23.2,26.6,15.8,20.7,57,97,54,78.4,1018.5,1025.6,1012.2,1019.0,6.0,17.2,0.5,7.0,57,132.4,0.0,0.1,0.1,0.0,0.1,23,100,0,82.7,24.1,24.1,18.6,24.1,0
HN_LB,Quận Long Biên - Hà Nội,Hà Nội,Long Biên,21.054,105.8959,2026-03-10 16:19:41,openmeteo,high,2026-03-10T16:15,,23.2,26.7,15.8,20.8,57,97,54,78.4,1018.5,1025.6,1012.2,1019.0,6.0,17.2,0.5,7.0,57,132.4,0.0,0.1,0.1,0.0,0.1,23,100,0,82.7,24.1,24.1,23.3,24.1,0
HN_NTL,Quận Nam Từ Liêm - Hà Nội,Hà Nội,Nam Từ Liêm,21.0113,105.7547,2026-03-10 16:19:42,openmeteo,high,2026-03-10T16:15,,23.2,26.7,15.8,20.8,57,97,54,78.4,1018.5,1025.6,1012.2,1019.0,6.0,17.2,0.5,7.0,57,132.4,0.0,0.1,0.1,0.0,0.1,23,100,0,82.7,24.1,24.1,18.6,24.1,0
HN_TX,Quận Thanh Xuân - Hà Nội,Hà Nội,Thanh Xuân,21.001,105.8093,2026-03-10 16:19:42,openmeteo,high,2026-03-10T16:15,,23.2,26.6,15.8,20.7,57,97,54,78.4,1018.5,1025.6,1012.2,1019.0,6.0,17.2,0.5,7.0,57,132.4,0.0,0.1,0.1,0.0,0.1,23,100,0,82.7,24.1,24.1,18.6,24.1,0
HN_DD,Quận Đống Đa - Hà Nội,Hà Nội,Đống Đa,21.019,105.8315,2026-03-10 16:19:41,openmeteo,high,2026-03-10T16:15,,23.1,26.6,15.8,20.7,57,97,54,78.4,1018.5,1025.6,1012.2,1019.0,6.0,17.2,0.5,7.0,57,132.4,0.0,0.1,0.1,0.0,0.1,23,100,0,82.7,24.1,24.1,18.6,24.1,0
HN_ST,Thị xã Sơn Tây - Hà Nội,Hà Nội,Sơn Tây,21.1376,105.507,2026-03-10 16:19:43,openmeteo,high,2026-03-10T16:15,,22.4,26.0,15.6,20.4,59,95,57,79.1,1018.5,1025.6,1011.9,1018.9,7.6,16.1,0.7,7.2,90,122.0,0.0,0.7,0.1,0.1,2.3,21,100,8,83.9,24.1,24.1,8.9,23.9,0
HT_HT,Thành phố Hà Tĩnh - Hà Tĩnh,Hà Tĩnh,Hà Tĩnh,18.3333,105.9,2026-03-10 16:21:10,openmeteo,high,2026-03-10T16:15,,20.2,25.8,17.3,20.7,75,100,68,86.1,1019.4,1024.7,1012.7,1018.6,6.4,12.5,0.4,5.6,27,337.5,0.0,0.2,0.1,0.1,2.2,87,100,31,88.4,24.1,24.1,4.0,21.8,0
HT_HK,Thị xã Hồng Lĩnh - Hà Tĩnh,Hà Tĩnh,Hồng Lĩnh,18.5333,105.7167,2026-03-10 16:21:11,openmeteo,high,2026-03-10T16:15,,20.4,25.5,17.0,20.5,73,98,65,84.3,1019.3,1024.8,1012.9,1018.6,6.0,13.4,0.4,5.1,33,357.3,0.0,0.1,0.1,0.0,0.8,78,100,20,85.9,24.1,24.1,7.3,22.8,0
HT_KL,Thị xã Kỳ Anh - Hà Tĩnh,Hà Tĩnh,Kỳ Anh,18.0833,106.3,2026-03-10 16:21:10,openmeteo,high,2026-03-10T16:15,,19.3,26.1,17.5,20.7,80,100,66,86.3,1019.4,1024.2,1012.8,1018.4,9.8,16.0,0.8,6.0,8,340.0,0.0,0.4,0.1,0.2,4.1,98,100,25,89.7,24.1,24.1,2.8,21.5,0
HB_KB,Huyện Kim Bôi - Hòa Bình,Hòa Bình,Kim Bôi,20.6667,105.5333,2026-03-10 16:21:20,openmeteo,high,2026-03-10T16:15,,21.6,25.1,13.8,19.1,58,100,55,81.4,1018.8,1025.7,1012.9,1019.4,5.6,12.4,1.1,5.5,63,138.8,0.0,0.1,0.1,0.0,1.0,23,100,0,84.2,24.1,24.1,13.6,23.9,0
HB_ML,Huyện Mai Châu - Hòa Bình,Hòa Bình,Mai Châu,20.6667,105.0833,2026-03-10 16:21:20,openmeteo,high,2026-03-10T16:15,,24.6,28.9,15.9,21.9,56,99,55,80.1,1018.6,1025.6,1012.3,1019.2,5.4,10.0,0.4,4.1,90,112.4,0.0,0.1,0.1,0.0,0.3,33,100,13,85.3,24.1,24.1,16.3,24.0,0
HB_HB,Thành phố Hòa Bình - Hòa Bình,Hòa Bình,Hòa Bình,20.8133,105.3383,2026-03-10 16:21:19,openmeteo,high,2026-03-10T16:15,,21.4,25.7,14.5,19.3,61,98,60,83.0,1018.8,1025.8,1012.4,1019.3,7.6,11.3,1.3,4.8,87,127.8,0.0,0.1,0.1,0.0,0.6,27,100,0,85.3,24.1,24.1,20.2,24.0,0
HY_ML,Huyện Mỹ Hào - Hưng Yên,Hưng Yên,Mỹ Hào,20.9333,106.0667,2026-03-10 16:21:28,openmeteo,high,2026-03-10T16:15,,23.3,25.6,15.6,20.4,52,97,51,79.3,1018.5,1025.4,1012.6,1019.0,6.9,14.4,0.4,6.7,43,121.7,0.0,0.2,0.1,0.1,1.5,11,100,7,79.9,24.1,24.1,23.3,24.1,0
HY_VD,Huyện Văn Lâm - Hưng Yên,Hưng Yên,Văn Lâm,20.9833,106.0333,2026-03-10 16:21:28,openmeteo,high,2026-03-10T16:15,,23.4,25.8,16.3,20.7,53,96,53,77.9,1018.5,1025.5,1012.5,1019.0,6.6,15.9,0.4,7.0,45,122.1,0.0,0.1,0.1,0.0,1.0,23,100,0,82.4,24.1,24.1,23.3,24.1,0
HY_HY,Thành phố Hưng Yên - Hưng Yên,Hưng Yên,Hưng Yên,20.6461,106.0511,2026-03-10 16:21:28,openmeteo,high,2026-03-10T16:15,,22.9,26.4,15.3,20.3,55,99,54,81.0,1018.6,1025.4,1012.4,1019.0,6.6,15.9,0.0,6.4,41,122.7,0.0,0.2,0.1,0.1,1.6,19,100,10,80.7,24.1,24.1,21.3,24.1,0
HD_CM,Huyện Cẩm Giàng - Hải Dương,Hải Dương,Cẩm Giàng,20.95,106.2167,2026-03-10 16:21:27,openmeteo,high,2026-03-10T16:15,,23.7,25.7,15.9,20.7,51,96,50,78.9,1018.5,1025.4,1012.7,1019.0,7.4,14.2,0.4,6.6,39,120.6,0.0,0.3,0.1,0.1,2.4,24,100,9,80.8,24.1,24.1,20.9,24.1,0
HD_HD,Thành phố Hải Dương - Hải Dương,Hải Dương,Hải Dương,20.9397,106.3308,2026-03-10 16:21:27,openmeteo,high,2026-03-10T16:15,,23.8,25.8,15.8,20.6,53,97,49,78.6,1018.4,1025.3,1012.8,1019.0,6.8,15.3,0.4,6.8,32,110.4,0.0,0.3,0.1,0.1,1.8,23,100,6,80.0,24.1,24.1,20.9,24.1,0
HD_CL,Thị xã Kinh Môn - Hải Dương,Hải Dương,Kinh Môn,21.0167,106.5,2026-03-10 16:21:27,openmeteo,high,2026-03-10T16:15,,24.1,25.8,15.9,20.5,51,95,50,76.1,1018.4,1025.1,1013.0,1019.0,3.1,15.8,0.8,6.2,54,91.5,0.0,0.2,0.1,0.1,1.8,31,100,0,78.3,24.1,24.1,24.1,24.1,0
HP_AC,Huyện An Dương - Hải Phòng,Hải Phòng,An Dương,20.8667,106.6167,2026-03-10 16:19:55,openmeteo,high,2026-03-10T16:15,,23.1,25.3,16.0,20.5,57,96,53,76.3,1018.7,1025.0,1013.3,1019.1,9.7,19.7,0.5,7.1,138,85.0,0.0,0.2,0.1,0.0,0.9,55,100,0,73.8,24.1,24.1,24.1,24.1,0
HP_AL,Huyện An Lão - Hải Phòng,Hải Phòng,An Lão,20.8167,106.55,2026-03-10 16:19:56,openmeteo,high,2026-03-10T16:15,,23.7,25.5,15.6,20.2,54,98,53,78.9,1018.5,1025.1,1013.0,1019.0,3.7,18.9,0.4,7.8,61,92.5,0.0,0.2,0.1,0.1,2.1,44,100,0,77.0,24.1,24.1,24.1,24.1,0
HP_BH,Huyện Bạch Long Vĩ - Hải Phòng,Hải Phòng,Bạch Long Vĩ,20.1333,107.7333,2026-03-10 16:19:57,openmeteo,high,2026-03-10T16:15,,18.8,22.6,17.8,20.9,75,92,70,81.6,1019.5,1024.4,1013.9,1018.7,31.8,51.1,5.4,23.9,46,62.7,0.0,0.1,0.1,0.0,0.4,70,100,6,70.0,24.1,24.1,23.4,24.1,0
HP_CH,Huyện Cát Hải - Hải Phòng,Hải Phòng,Cát Hải,20.7264,107.0489,2026-03-10 16:19:57,openmeteo,high,2026-03-10T16:15,,20.0,24.5,16.2,20.1,61,92,55,75.4,1019.1,1024.9,1013.6,1019.1,13.1,17.8,1.0,7.7,148,76.9,0.0,0.1,0.1,0.0,0.3,6,100,0,69.3,24.1,24.1,24.1,24.1,0
HP_KL,Huyện Kiến Thụy - Hải Phòng,Hải Phòng,Kiến Thụy,20.75,106.6667,2026-03-10 16:19:56,openmeteo,high,2026-03-10T16:15,,22.2,25.2,16.4,20.5,59,96,55,77.4,1018.9,1025.0,1013.3,1019.0,11.0,19.2,1.1,7.2,142,80.0,0.0,0.1,0.1,0.0,0.6,60,100,0,72.6,24.1,24.1,24.1,24.1,0
HP_TL,Huyện Thủy Nguyên - Hải Phòng,Hải Phòng,Thủy Nguyên,20.9583,106.6667,2026-03-10 16:19:56,openmeteo,high,2026-03-10T16:15,,24.3,25.9,16.1,20.7,51,95,50,76.1,1018.4,1025.1,1013.0,1019.0,3.1,15.8,0.8,6.2,54,91.5,0.0,0.2,0.1,0.1,1.8,31,100,0,78.3,24.1,24.1,24.1,24.1,0
HP_TH,Huyện Tiên Lãng - Hải Phòng,Hải Phòng,Tiên Lãng,20.7333,106.55,2026-03-10 16:19:56,openmeteo,high,2026-03-10T16:15,,23.3,25.5,15.6,20.1,57,98,54,80.0,1018.5,1025.1,1013.1,1019.0,4.0,20.3,0.0,8.0,95,89.9,0.0,0.2,0.1,0.1,1.8,50,100,0,75.9,24.1,24.1,24.1,24.1,0
HP_VB,Huyện Vĩnh Bảo - Hải Phòng,Hải Phòng,Vĩnh Bảo,20.7,106.4667,2026-03-10 16:19:57,openmeteo,high,2026-03-10T16:15,,23.3,25.5,15.6,20.1,57,98,54,80.0,1018.5,1025.1,1013.1,1019.0,4.0,20.3,0.0,8.0,95,89.9,0.0,0.2,0.1,0.1,1.8,50,100,0,75.9,24.1,24.1,24.1,24.1,0
HP_DS,Quận Dương Kinh - Hải Phòng,Hải Phòng,Dương Kinh,20.8025,106.6669,2026-03-10 16:19:55,openmeteo,high,2026-03-10T16:15,,22.2,25.2,16.4,20.5,59,96,55,77.4,1018.9,1025.0,1013.3,1019.0,11.0,19.2,1.1,7.2,142,80.0,0.0,0.1,0.1,0.0,0.6,60,100,0,72.6,24.1,24.1,24.1,24.1,0
HP_HA,Quận Hải An - Hải Phòng,Hải Phòng,Hải An,20.8378,106.7377,2026-03-10 16:19:54,openmeteo,high,2026-03-10T16:15,,22.2,25.3,16.2,20.5,59,94,52,75.6,1018.9,1024.9,1013.3,1019.1,12.3,18.2,1.0,6.6,142,83.0,0.0,0.1,0.1,0.0,0.6,45,100,0,73.8,24.1,24.1,24.1,24.1,0
HP_KS,Quận Kiến An - Hải Phòng,Hải Phòng,Kiến An,20.8075,106.6264,2026-03-10 16:19:55,openmeteo,high,2026-03-10T16:15,,22.2,25.1,16.3,20.4,59,96,55,77.4,1018.9,1025.0,1013.3,1019.0,11.0,19.2,1.1,7.2,142,80.0,0.0,0.1,0.1,0.0,0.6,60,100,0,72.6,24.1,24.1,24.1,24.1,0
HP_LC,Quận Lê Chân - Hải Phòng,Hải Phòng,Lê Chân,20.8516,106.6822,2026-03-10 16:19:54,openmeteo,high,2026-03-10T16:15,,23.1,25.3,16.0,20.5,57,96,53,76.3,1018.7,1025.0,1013.3,1019.1,9.7,19.7,0.5,7.1,138,85.0,0.0,0.2,0.1,0.0,0.9,55,100,0,73.8,24.1,24.1,24.1,24.1,0
HP_NQ,Quận Ngô Quyền - Hải Phòng,Hải Phòng,Ngô Quyền,20.858,106.7053,2026-03-10 16:19:54,openmeteo,high,2026-03-10T16:15,,22.2,25.3,16.2,20.5,59,94,52,75.6,1018.9,1024.9,1013.3,1019.1,12.3,18.2,1.0,6.6,142,83.0,0.0,0.1,0.1,0.0,0.6,45,100,0,73.8,24.1,24.1,24.1,24.1,0
HP_DK,Quận Đồ Sơn - Hải Phòng,Hải Phòng,Đồ Sơn,20.7278,106.7733,2026-03-10 16:19:55,openmeteo,high,2026-03-10T16:15,,20.5,24.9,16.4,20.5,60,94,56,77.5,1019.2,1024.9,1013.7,1019.1,13.6,18.8,1.4,8.4,143,78.6,0.0,0.1,0.1,0.0,0.3,4,100,0,70.5,24.1,24.1,24.1,24.1,0
HP_CB,Đảo Cát Bà - Hải Phòng,Hải Phòng,Cát Hải,20.7264,107.0489,2026-03-10 16:21:36,openmeteo,high,2026-03-10T16:15,,20.0,24.5,16.2,20.1,61,92,55,75.4,1019.1,1024.9,1013.6,1019.1,13.1,17.8,1.0,7.7,148,76.9,0.0,0.1,0.1,0.0,0.3,6,100,0,69.3,24.1,24.1,24.1,24.1,0
HG_CL,Huyện Châu Thành - Hậu Giang,Hậu Giang,Châu Thành,9.9333,105.6833,2026-03-10 16:21:01,openmeteo,high,2026-03-10T16:15,,31.1,33.7,22.7,27.4,60,96,41,71.5,1009.9,1014.4,1007.4,1011.4,8.6,24.1,0.7,10.4,112,95.3,0.0,0.6,0.1,0.0,0.8,82,99,0,53.2,24.1,24.1,14.7,24.0,10
HG_CT,Huyện Châu Thành A - Hậu Giang,Hậu Giang,Châu Thành A,9.9333,105.6333,2026-03-10 16:21:02,openmeteo,high,2026-03-10T16:15,,31.1,33.7,22.7,27.4,60,96,41,71.5,1009.9,1014.4,1007.4,1011.4,8.6,24.1,0.7,10.4,112,95.3,0.0,0.6,0.1,0.0,0.8,82,99,0,53.2,24.1,24.1,14.7,24.0,10
HG_LT,Huyện Long Mỹ - Hậu Giang,Hậu Giang,Long Mỹ,9.6833,105.5667,2026-03-10 16:21:03,openmeteo,high,2026-03-10T16:15,,31.7,33.3,23.1,27.4,52,93,38,71.0,1009.8,1014.4,1007.6,1011.4,10.9,24.5,4.7,13.0,98,91.3,0.0,0.2,0.2,0.0,0.2,77,95,0,53.8,24.1,24.1,6.3,23.5,10
HG_PB,Huyện Phụng Hiệp - Hậu Giang,Hậu Giang,Phụng Hiệp,9.7833,105.7167,2026-03-10 16:21:03,openmeteo,high,2026-03-10T16:15,,31.5,33.3,23.0,27.4,53,94,39,70.9,1009.7,1014.4,1007.6,1011.4,10.8,24.5,3.4,12.1,90,92.4,0.0,0.2,0.1,0.0,0.4,84,100,0,51.4,24.1,24.1,6.2,23.7,10
HG_VT2,Huyện Vị Thủy - Hậu Giang,Hậu Giang,Vị Thủy,9.7667,105.4667,2026-03-10 16:21:03,openmeteo,high,2026-03-10T16:15,,31.1,33.6,22.8,27.4,63,95,40,71.2,1009.9,1014.5,1007.5,1011.4,7.1,23.4,1.4,11.1,105,93.9,0.0,0.1,0.1,0.0,0.5,85,100,0,54.6,24.1,24.1,6.3,23.5,10
HG_VT,Thành phố Vị Thanh - Hậu Giang,Hậu Giang,Vị Thanh,9.7833,105.4667,2026-03-10 16:21:01,openmeteo,high,2026-03-10T16:15,,31.1,33.6,22.8,27.4,63,95,40,71.2,1009.9,1014.5,1007.5,1011.4,7.1,23.4,1.4,11.1,105,93.9,0.0,0.1,0.1,0.0,0.5,85,100,0,54.6,24.1,24.1,6.3,23.5,10
HG_NM,Thị xã Ngã Bảy - Hậu Giang,Hậu Giang,Ngã Bảy,9.8167,105.8167,2026-03-10 16:21:01,openmeteo,high,2026-03-10T16:15,,31.2,33.7,23.0,27.5,55,94,39,70.1,1009.9,1014.4,1007.5,1011.4,12.3,25.2,1.3,11.7,93,92.6,0.0,0.1,0.1,0.0,0.5,81,100,0,53.6,24.1,24.1,6.2,23.7,10
KH_TS,Huyện Trường Sa - Khánh Hòa,Khánh Hòa,Trường Sa,8.65,111.9167,2026-03-10 16:21:15,openmeteo,high,2026-03-10T16:15,,27.0,27.8,26.2,26.9,82,87,67,80.0,1010.4,1014.1,1008.3,1011.4,29.5,37.1,23.0,30.8,39,46.9,0.0,0.5,0.1,0.4,9.4,100,100,9,58.9,24.1,24.1,7.0,22.8,5
KH_CT,Thành phố Cam Ranh - Khánh Hòa,Khánh Hòa,Cam Ranh,11.9,109.1333,2026-03-10 16:21:14,openmeteo,high,2026-03-10T16:15,,24.5,28.9,20.7,23.6,70,82,45,70.9,1014.0,1017.8,1011.2,1014.8,21.1,28.2,5.8,13.8,37,28.6,0.0,0.2,0.1,0.0,0.9,83,100,25,66.9,20.1,24.1,12.8,23.8,0
KH_NT,Thành phố Nha Trang - Khánh Hòa,Khánh Hòa,Nha Trang,12.25,109.1833,2026-03-10 16:21:14,openmeteo,high,2026-03-10T16:15,,26.9,31.2,20.8,24.8,67,92,43,76.0,1014.1,1017.8,1011.4,1014.8,11.8,17.8,1.1,6.7,31,346.3,0.0,0.2,0.1,0.0,0.7,64,100,0,61.6,24.1,24.1,13.9,23.7,5
KH_NH,Thị xã Ninh Hòa - Khánh Hòa,Khánh Hòa,Ninh Hòa,12.5,109.15,2026-03-10 16:21:14,openmeteo,high,2026-03-10T16:15,,26.6,30.3,20.8,24.3,69,97,42,80.9,1014.1,1017.9,1011.0,1014.8,9.0,17.8,0.0,5.3,74,127.2,0.1,1.0,0.1,0.6,13.6,79,98,0,76.8,24.1,24.1,13.3,23.1,5
KH_HS,Đảo Hoàng Sa - Khánh Hòa,Khánh Hòa,Hoàng Sa,16.5322,111.6156,2026-03-10 16:21:37,openmeteo,high,2026-03-10T17:15,,24.5,26.0,23.3,24.6,78,85,65,75.0,1015.9,1018.9,1013.2,1016.1,39.4,43.8,22.7,34.3,39,52.6,0.0,1.0,0.1,0.6,15.0,53,92,18,62.1,24.1,24.1,13.4,23.4,0
KH_TS,Đảo Trường Sa - Khánh Hòa,Khánh Hòa,Trường Sa,8.65,111.9167,2026-03-10 16:21:37,openmeteo,high,2026-03-10T16:15,,27.0,27.8,26.2,26.9,82,87,67,80.0,1010.4,1014.1,1008.3,1011.4,29.5,37.1,23.0,30.8,39,46.9,0.0,0.5,0.1,0.4,9.4,100,100,9,58.9,24.1,24.1,7.0,22.8,5
KG_AT,Huyện An Biên - Kiên Giang,Kiên Giang,An Biên,9.8167,105.0667,2026-03-10 16:20:47,openmeteo,high,2026-03-10T16:15,,27.9,31.4,25.1,27.5,75,88,54,74.7,1010.1,1014.6,1007.7,1011.5,1.8,25.6,0.4,13.2,11,88.5,0.0,0.8,0.1,0.1,3.3,87,93,0,47.6,24.1,24.1,3.0,23.9,5
KG_AM,Huyện An Minh - Kiên Giang,Kiên Giang,An Minh,9.6667,104.95,2026-03-10 16:20:47,openmeteo,high,2026-03-10T16:15,,28.0,32.3,24.2,27.3,78,91,49,76.4,1010.2,1014.5,1007.9,1011.5,4.0,27.0,4.0,13.9,280,92.4,0.2,1.5,0.1,0.5,11.5,97,100,0,54.4,24.1,24.1,3.0,23.9,60
KG_CL,Huyện Châu Thành - Kiên Giang,Kiên Giang,Châu Thành,9.9333,105.1667,2026-03-10 16:20:48,openmeteo,high,2026-03-10T16:15,,28.0,31.5,25.1,27.6,75,88,54,74.7,1010.1,1014.6,1007.7,1011.5,1.8,25.6,0.4,13.2,11,88.5,0.0,0.8,0.1,0.1,3.3,87,93,0,47.6,24.1,24.1,10.5,24.0,5
KG_GT,Huyện Giang Thành - Kiên Giang,Kiên Giang,Giang Thành,10.4833,104.6333,2026-03-10 16:20:48,openmeteo,high,2026-03-10T16:15,,33.6,34.6,23.0,28.3,42,90,40,68.8,1009.2,1014.8,1007.5,1011.5,11.1,17.6,0.4,7.0,77,103.0,0.0,0.4,0.1,0.1,1.9,85,100,9,56.4,24.1,24.1,4.8,23.3,10
KG_GD,Huyện Gò Quao - Kiên Giang,Kiên Giang,Gò Quao,9.7333,105.2667,2026-03-10 16:20:49,openmeteo,high,2026-03-10T16:15,,31.5,34.2,22.8,27.6,57,93,42,71.4,1009.8,1014.5,1007.4,1011.4,10.7,23.4,2.3,10.2,110,94.5,0.0,2.0,0.1,0.2,5.6,85,91,7,57.6,24.1,24.1,4.0,23.8,10
KG_HG,Huyện Hòn Đất - Kiên Giang,Kiên Giang,Hòn Đất,10.2333,104.9333,2026-03-10 16:20:48,openmeteo,high,2026-03-10T16:15,,29.2,31.6,25.1,28.0,72,86,53,72.5,1010.0,1014.7,1007.9,1011.5,10.1,20.3,3.1,10.5,186,117.6,0.0,1.0,0.1,0.2,4.6,85,93,4,58.5,24.1,24.1,4.9,23.6,5
KG_KT,Huyện Kiên Hải - Kiên Giang,Kiên Giang,Kiên Hải,9.71,104.33,2026-03-10 16:20:48,openmeteo,high,2026-03-10T16:15,,28.5,30.1,26.6,27.8,73,83,62,75.0,1010.2,1014.8,1008.1,1011.6,2.7,25.2,1.1,15.3,203,97.8,0.0,1.5,0.1,0.4,10.0,19,95,0,43.0,24.1,24.1,8.6,23.4,5
KG_LS,Huyện Kiên Lương - Kiên Giang,Kiên Giang,Kiên Lương,10.25,104.6333,2026-03-10 16:20:49,openmeteo,high,2026-03-10T16:15,,28.8,30.4,26.0,28.2,75,83,59,72.7,1009.9,1014.8,1008.0,1011.6,14.9,22.1,0.5,11.3,188,130.7,0.0,1.5,0.1,0.4,9.3,11,100,0,44.0,24.1,24.1,5.9,23.6,5
KG_PQ,Huyện Phú Quốc - Kiên Giang,Kiên Giang,Phú Quốc,10.227,103.9679,2026-03-10 16:20:47,openmeteo,high,2026-03-10T16:15,,32.3,32.3,26.1,28.3,50,87,50,74.7,1009.7,1014.8,1008.0,1011.6,2.9,19.5,0.8,8.4,60,117.7,0.0,2.4,0.1,1.9,44.5,70,100,0,49.3,24.1,24.1,4.2,22.3,10
KG_TG,Huyện Tân Hiệp - Kiên Giang,Kiên Giang,Tân Hiệp,10.1,105.2833,2026-03-10 16:20:50,openmeteo,high,2026-03-10T16:15,,32.0,34.5,22.4,27.6,54,95,43,71.2,1009.7,1014.7,1007.5,1011.4,7.9,21.7,0.7,8.4,150,96.6,0.0,1.4,0.1,0.2,5.6,75,96,5,56.8,24.1,24.1,10.5,24.0,10
KG_UM,Huyện U Minh Thượng - Kiên Giang,Kiên Giang,U Minh Thượng,9.6,105.1,2026-03-10 16:20:50,openmeteo,high,2026-03-10T16:15,,31.2,33.7,22.4,27.2,58,95,43,74.0,1010.0,1014.5,1007.5,1011.4,6.6,22.0,1.6,9.6,139,96.8,0.0,1.9,0.1,0.4,9.1,96,100,0,60.4,24.1,24.1,4.9,23.6,10
KG_VT,Huyện Vĩnh Thuận - Kiên Giang,Kiên Giang,Vĩnh Thuận,9.5333,105.25,2026-03-10 16:20:49,openmeteo,high,2026-03-10T16:15,,30.9,33.8,22.5,27.2,62,95,41,73.4,1010.0,1014.5,1007.5,1011.4,8.0,21.7,1.1,10.7,126,96.1,0.0,1.5,0.1,0.2,5.4,100,100,0,58.8,24.1,24.1,12.2,23.8,10
KG_HN,Thành phố Hà Tiên - Kiên Giang,Kiên Giang,Hà Tiên,10.3833,104.4833,2026-03-10 16:20:47,openmeteo,high,2026-03-10T16:15,,30.2,32.1,25.8,28.2,65,83,49,72.3,1009.7,1014.9,1008.0,1011.6,11.1,18.2,1.5,9.6,167,137.3,0.0,2.5,0.1,0.8,19.1,93,100,0,47.1,24.1,24.1,6.0,23.1,10
KG_RG,Thành phố Rạch Giá - Kiên Giang,Kiên Giang,Rạch Giá,10.0317,105.0809,2026-03-10 16:20:47,openmeteo,high,2026-03-10T16:15,,29.7,32.2,24.5,27.8,65,90,50,72.3,1009.9,1014.6,1007.6,1011.5,6.5,22.8,0.5,10.2,183,100.3,0.0,1.3,0.1,0.2,6.0,87,87,0,55.2,24.1,24.1,10.5,24.0,5
KG_ND,Đảo Nam Du - Kiên Giang,Kiên Giang,Kiên Hải,9.71,104.33,2026-03-10 16:21:37,openmeteo,high,2026-03-10T16:15,,28.5,30.1,26.6,27.8,73,83,62,75.0,1010.2,1014.8,1008.1,1011.6,2.7,25.2,1.1,15.3,203,97.8,0.0,1.5,0.1,0.4,10.0,19,95,0,43.0,24.1,24.1,8.6,23.4,5
KG_PQ2,Đảo Phú Quốc - Kiên Giang,Kiên Giang,Phú Quốc,10.227,103.9679,2026-03-10 16:21:38,openmeteo,high,2026-03-10T16:15,,32.3,32.3,26.1,28.3,50,87,50,74.7,1009.7,1014.8,1008.0,1011.6,2.9,19.5,0.8,8.4,60,117.7,0.0,2.4,0.1,1.9,44.5,70,100,0,49.3,24.1,24.1,4.2,22.3,10
KG_TC,Đảo Thổ Chu - Kiên Giang,Kiên Giang,Phú Quốc,9.3,103.4833,2026-03-10 16:21:38,openmeteo,high,2026-03-10T16:15,,27.3,28.0,26.0,26.9,76,84,69,76.8,1010.6,1014.5,1008.3,1011.6,8.8,28.3,4.7,17.6,99,100.7,0.0,1.7,0.1,0.9,21.5,30,100,0,49.2,24.1,24.1,6.8,23.7,5
KT_NH,Huyện Ngọc Hồi - Kon Tum,Kon Tum,Ngọc Hồi,14.7,107.8333,2026-03-10 16:21:33,openmeteo,high,2026-03-10T16:15,,27.2,29.9,15.6,22.8,49,89,38,64.9,1013.3,1017.9,1010.2,1014.9,17.0,17.7,0.8,6.2,58,67.5,0.0,0.0,0.0,0.0,0.0,86,100,0,47.9,24.1,24.1,24.1,24.1,5
KT_DG,Huyện Đắk Glei - Kon Tum,Kon Tum,Đắk Glei,15.0167,107.75,2026-03-10 16:21:33,openmeteo,high,2026-03-10T16:15,,23.9,28.8,17.8,22.3,65,85,44,69.6,1015.8,1019.2,1012.1,1016.5,14.2,18.4,6.6,9.8,27,26.5,0.0,0.0,0.0,0.0,0.0,35,97,0,46.2,18.1,24.1,0.7,17.1,0
KT_KT,Thành phố Kon Tum - Kon Tum,Kon Tum,Kon Tum,14.3833,107.9833,2026-03-10 16:21:33,openmeteo,high,2026-03-10T16:15,,26.8,31.2,18.4,24.2,52,84,37,61.7,1014.0,1017.5,1010.1,1014.8,26.3,29.3,0.5,11.5,67,67.8,0.0,0.0,0.0,0.0,0.0,48,100,0,34.8,24.1,24.1,24.1,24.1,5
LC_PT,Huyện Phong Thổ - Lai Châu,Lai Châu,Phong Thổ,22.5333,103.3333,2026-03-10 16:21:19,openmeteo,high,2026-03-10T16:15,,23.0,25.8,13.3,18.5,52,95,50,77.1,1016.1,1023.4,1011.4,1017.6,11.2,11.5,1.0,4.6,159,172.6,0.0,1.0,0.1,0.5,12.2,60,100,0,88.0,24.1,24.1,8.2,22.2,0
LC_TN,Huyện Tam Đường - Lai Châu,Lai Châu,Tam Đường,22.3667,103.6167,2026-03-10 16:21:18,openmeteo,high,2026-03-10T16:15,,15.6,19.2,8.8,12.6,63,97,55,79.1,1017.6,1024.2,1012.5,1018.4,8.8,10.0,3.6,6.2,199,125.8,0.0,1.6,0.1,0.7,16.4,54,100,6,87.5,24.1,24.1,6.9,22.8,0
LC_LC,Thành phố Lai Châu - Lai Châu,Lai Châu,Lai Châu,22.4,103.45,2026-03-10 16:21:19,openmeteo,high,2026-03-10T16:15,,22.4,25.4,14.7,18.8,57,95,55,78.7,1017.1,1023.8,1012.0,1018.0,8.0,8.5,2.0,4.9,190,152.6,0.0,1.7,0.1,1.0,22.9,46,100,0,86.9,24.1,24.1,2.7,18.1,0
LA_DH,Huyện Đức Hòa - Long An,Long An,Đức Hòa,10.8833,106.4167,2026-03-10 16:21:34,openmeteo,high,2026-03-10T16:15,,32.3,35.5,22.6,28.0,50,96,30,67.1,1009.6,1014.9,1006.9,1011.3,13.0,20.3,0.4,6.7,134,69.1,0.0,1.1,0.1,0.1,2.9,70,97,0,42.4,24.1,24.1,14.3,24.0,10
LA_TA,Thành phố Tân An - Long An,Long An,Tân An,10.5333,106.4167,2026-03-10 16:21:34,openmeteo,high,2026-03-10T16:15,,31.1,34.5,22.7,27.5,57,95,36,70.7,1010.1,1014.8,1007.4,1011.4,13.5,19.9,0.4,9.3,119,94.8,0.0,0.2,0.1,0.0,0.5,66,100,0,49.6,24.1,24.1,21.2,24.1,10
LA_KT,Thị xã Kiến Tường - Long An,Long An,Kiến Tường,10.7667,105.9,2026-03-10 16:21:34,openmeteo,high,2026-03-10T16:15,,32.8,34.6,22.4,27.9,47,95,35,68.7,1009.4,1014.8,1007.0,1011.4,9.8,18.6,0.8,7.4,98,82.3,0.0,1.0,0.1,0.0,1.2,50,95,0,40.5,24.1,24.1,14.3,23.9,10
LC_BT,Huyện Bát Xát - Lào Cai,Lào Cai,Bát Xát,22.5333,103.8833,2026-03-10 16:21:34,openmeteo,high,2026-03-10T16:15,,18.9,21.0,10.1,14.1,64,100,59,89.5,1018.2,1026.2,1013.5,1019.8,3.2,9.6,0.0,4.9,243,138.3,0.0,1.0,0.1,0.3,6.3,75,100,30,91.7,24.1,24.1,7.1,22.5,0
LC_SM,Huyện Sa Pa - Lào Cai,Lào Cai,Sa Pa,22.3367,103.84,2026-03-10 16:21:33,openmeteo,high,2026-03-10T16:15,,19.2,22.7,12.6,16.2,66,100,58,81.2,1018.0,1024.6,1013.0,1018.9,10.8,11.7,3.1,6.7,201,111.7,0.0,2.2,0.1,1.0,24.1,78,100,22,89.4,24.1,24.1,2.6,15.5,0
LC_LC2,Thành phố Lào Cai - Lào Cai,Lào Cai,Lào Cai,22.4833,103.95,2026-03-10 16:21:33,openmeteo,high,2026-03-10T16:15,,22.7,23.5,16.4,19.2,64,97,61,84.8,1017.4,1024.8,1012.2,1018.9,9.7,11.8,0.4,3.9,105,93.1,0.0,0.2,0.1,0.1,1.7,49,100,31,92.5,24.1,24.1,7.1,22.5,0
LD_BD,Huyện Bảo Lâm - Lâm Đồng,Lâm Đồng,Bảo Lâm,11.7,107.7167,2026-03-10 16:20:35,openmeteo,high,2026-03-10T16:15,,26.2,30.8,17.5,23.0,55,90,33,67.0,1011.9,1016.5,1008.7,1013.2,19.9,22.2,0.4,9.2,44,58.4,0.0,2.2,0.1,0.4,8.4,95,97,0,31.5,24.1,24.1,0.4,22.6,5
LD_CD,Huyện Cát Tiên - Lâm Đồng,Lâm Đồng,Cát Tiên,11.5833,107.35,2026-03-10 16:20:35,openmeteo,high,2026-03-10T16:15,,29.5,34.0,20.9,26.9,60,93,32,62.3,1010.8,1015.3,1007.3,1011.9,8.9,16.9,1.1,5.5,117,56.5,0.1,0.2,0.1,0.0,0.3,72,100,0,39.8,24.1,24.1,19.4,24.1,30
LD_DD,Huyện Di Linh - Lâm Đồng,Lâm Đồng,Di Linh,11.5833,108.0667,2026-03-10 16:20:36,openmeteo,high,2026-03-10T16:15,,23.9,27.6,14.1,20.5,64,98,38,73.6,1012.4,1017.3,1009.2,1014.2,5.2,14.2,1.8,6.0,282,61.6,0.0,0.3,0.1,0.1,1.4,100,100,0,53.8,19.5,24.1,19.5,24.0,0
LD_LH,Huyện Lâm Hà - Lâm Đồng,Lâm Đồng,Lâm Hà,11.8333,108.2,2026-03-10 16:20:37,openmeteo,high,2026-03-10T16:15,,25.3,28.2,15.1,21.4,59,94,43,72.7,1012.8,1017.7,1010.0,1014.7,14.2,15.8,1.3,6.0,24,27.3,0.0,0.5,0.1,0.1,2.4,59,100,0,46.1,21.3,24.1,21.1,24.1,5
LD_LC,Huyện Lạc Dương - Lâm Đồng,Lâm Đồng,Lạc Dương,12.0,108.4333,2026-03-10 16:20:37,openmeteo,high,2026-03-10T16:15,,19.6,23.4,13.7,17.7,71,89,50,74.3,1014.4,1018.3,1011.0,1015.6,15.3,19.6,3.5,9.3,47,49.9,0.0,1.2,0.1,0.2,5.4,55,100,0,44.2,24.0,24.1,0.3,17.9,0
LD_DT2,Huyện Đam Rông - Lâm Đồng,Lâm Đồng,Đam Rông,12.0833,108.1667,2026-03-10 16:20:36,openmeteo,high,2026-03-10T16:15,,26.6,31.6,16.4,23.3,59,100,41,72.4,1012.8,1017.3,1009.4,1014.0,23.3,25.7,1.8,9.0,22,10.7,0.0,0.0,0.0,0.0,0.0,30,99,0,33.8,10.5,24.1,10.5,23.8,5
LD_DL2,Huyện Đơn Dương - Lâm Đồng,Lâm Đồng,Đơn Dương,11.75,108.55,2026-03-10 16:20:36,openmeteo,high,2026-03-10T16:15,,24.5,27.3,14.7,20.7,57,91,39,68.8,1013.0,1017.7,1010.0,1014.8,19.0,21.9,2.1,10.3,65,70.1,0.0,0.5,0.1,0.1,3.1,55,100,0,51.2,24.1,24.1,24.1,24.1,0
LD_DH,Huyện Đạ Huoai - Lâm Đồng,Lâm Đồng,Đạ Huoai,11.4167,107.6333,2026-03-10 16:20:34,openmeteo,high,2026-03-10T16:15,,29.2,33.5,19.1,26.6,69,98,39,74.6,1010.9,1015.4,1007.8,1011.9,1.0,14.3,0.4,4.3,135,117.5,0.1,1.4,0.2,0.1,2.9,81,99,0,42.5,24.1,24.1,10.6,24.0,30
LD_DT,Huyện Đạ Tẻh - Lâm Đồng,Lâm Đồng,Đạ Tẻh,11.5,107.5167,2026-03-10 16:20:35,openmeteo,high,2026-03-10T16:15,,29.5,35.5,19.9,27.3,68,92,29,65.1,1010.7,1015.2,1007.2,1011.6,6.6,10.5,0.4,4.0,151,55.5,0.0,0.4,0.1,0.0,0.5,71,99,0,36.2,24.1,24.1,4.7,24.0,5
LD_DR,Huyện Đức Trọng - Lâm Đồng,Lâm Đồng,Đức Trọng,11.7333,108.3,2026-03-10 16:20:36,openmeteo,high,2026-03-10T16:15,,25.4,28.3,14.2,21.2,58,99,40,74.0,1012.1,1017.4,1009.3,1014.2,12.6,14.4,0.0,5.4,13,67.5,0.0,1.3,0.1,0.2,4.2,93,100,0,56.1,21.3,24.1,21.1,24.1,5
LD_BA,Thành phố Bảo Lộc - Lâm Đồng,Lâm Đồng,Bảo Lộc,11.55,107.8,2026-03-10 16:20:34,openmeteo,high,2026-03-10T16:15,,24.8,29.7,18.3,23.6,83,95,42,71.9,1011.6,1015.9,1008.4,1012.6,5.0,9.4,0.4,6.2,150,96.2,0.2,1.0,0.1,0.1,2.4,100,100,0,39.6,24.1,24.1,10.6,24.0,25
LD_DL,Thành phố Đà Lạt - Lâm Đồng,Lâm Đồng,Đà Lạt,11.9404,108.4587,2026-03-10 16:20:34,openmeteo,high,2026-03-10T16:15,,20.2,24.0,14.3,18.3,71,89,50,74.3,1014.4,1018.3,1011.0,1015.6,15.3,19.6,3.5,9.3,47,49.9,0.0,1.2,0.1,0.2,5.4,55,100,0,44.2,24.0,24.1,0.3,17.9,0
LS_CL,Huyện Cao Lộc - Lạng Sơn,Lạng Sơn,Cao Lộc,21.9,106.8,2026-03-10 16:21:20,openmeteo,high,2026-03-10T16:15,,19.7,24.2,11.8,18.3,59,95,53,76.8,1019.5,1026.4,1013.3,1019.7,9.9,18.4,0.5,6.3,46,90.2,0.0,0.1,0.1,0.0,0.6,57,100,0,78.9,24.1,24.1,19.2,24.0,0
LS_LL,Huyện Lộc Bình - Lạng Sơn,Lạng Sơn,Lộc Bình,21.75,106.9333,2026-03-10 16:21:21,openmeteo,high,2026-03-10T16:15,,20.2,24.1,12.0,18.5,54,95,49,74.8,1019.3,1025.9,1013.4,1019.6,8.7,16.3,0.7,6.0,45,88.9,0.0,0.1,0.1,0.0,0.6,56,100,0,77.9,24.1,24.1,24.1,24.1,0
LS_LS,Thành phố Lạng Sơn - Lạng Sơn,Lạng Sơn,Lạng Sơn,21.8478,106.7578,2026-03-10 16:21:20,openmeteo,high,2026-03-10T16:15,,19.8,24.3,11.9,18.4,59,95,53,76.8,1019.5,1026.4,1013.3,1019.7,9.9,18.4,0.5,6.3,46,90.2,0.0,0.1,0.1,0.0,0.6,57,100,0,78.9,24.1,24.1,23.9,24.1,0
ND_GL,Huyện Giao Thủy - Nam Định,Nam Định,Giao Thủy,20.2333,106.45,2026-03-10 16:20:19,openmeteo,high,2026-03-10T16:15,,21.9,25.5,14.9,20.1,61,99,58,83.0,1019.1,1025.1,1013.4,1019.0,8.7,22.1,2.6,8.8,107,57.0,0.0,0.3,0.1,0.1,2.1,63,100,0,75.7,24.1,24.1,24.1,24.1,0
ND_HH,Huyện Hải Hậu - Nam Định,Nam Định,Hải Hậu,20.1833,106.3,2026-03-10 16:20:19,openmeteo,high,2026-03-10T16:15,,22.5,25.9,15.7,20.4,61,99,57,81.6,1018.9,1025.1,1013.2,1019.0,5.8,16.6,1.1,6.3,83,43.4,0.0,0.2,0.2,0.1,1.2,61,100,0,76.4,24.1,24.1,24.1,24.1,0
ND_ML,Huyện Mỹ Lộc - Nam Định,Nam Định,Mỹ Lộc,20.4667,106.1167,2026-03-10 16:20:19,openmeteo,high,2026-03-10T16:15,,22.9,26.5,15.7,20.6,57,97,54,79.0,1018.7,1025.3,1012.7,1019.1,5.1,15.1,0.4,5.6,51,101.2,0.0,0.1,0.1,0.1,1.2,41,100,10,81.5,24.1,24.1,24.1,24.1,0
ND_NC,Huyện Nam Trực - Nam Định,Nam Định,Nam Trực,20.3333,106.2,2026-03-10 16:20:19,openmeteo,high,2026-03-10T16:15,,22.3,26.0,14.7,20.1,61,98,57,82.2,1018.8,1025.1,1013.1,1019.0,5.2,18.4,1.1,7.1,74,58.8,0.0,0.3,0.1,0.1,1.8,50,100,0,77.3,24.1,24.1,24.1,24.1,0
ND_TK,Huyện Trực Ninh - Nam Định,Nam Định,Trực Ninh,20.25,106.25,2026-03-10 16:20:20,openmeteo,high,2026-03-10T16:15,,22.4,26.0,14.8,20.2,59,98,57,82.3,1018.8,1025.1,1013.1,1019.0,5.9,20.5,1.1,7.6,76,52.8,0.0,0.3,0.1,0.1,1.5,61,100,0,76.4,24.1,24.1,24.1,24.1,0
ND_VB,Huyện Vụ Bản - Nam Định,Nam Định,Vụ Bản,20.3667,106.1,2026-03-10 16:20:20,openmeteo,high,2026-03-10T16:15,,22.8,26.3,15.4,20.3,59,98,55,81.0,1018.7,1025.2,1012.9,1019.0,4.5,16.7,0.0,6.2,61,63.8,0.0,0.3,0.1,0.1,1.8,54,100,16,79.6,24.1,24.1,24.1,24.1,0
ND_XT,Huyện Xuân Trường - Nam Định,Nam Định,Xuân Trường,20.3,106.35,2026-03-10 16:20:20,openmeteo,high,2026-03-10T16:15,,21.9,25.5,14.9,20.1,61,99,58,83.0,1019.1,1025.1,1013.4,1019.0,8.7,22.1,2.6,8.8,107,57.0,0.0,0.3,0.1,0.1,2.1,63,100,0,75.7,24.1,24.1,24.1,24.1,0
ND_YN,Huyện Ý Yên - Nam Định,Nam Định,Ý Yên,20.3167,106.0167,2026-03-10 16:20:21,openmeteo,high,2026-03-10T16:15,,22.9,26.4,14.9,20.4,56,99,55,80.1,1018.7,1025.2,1012.8,1019.1,6.1,16.4,0.0,5.6,45,69.7,0.0,0.1,0.1,0.0,0.9,44,100,11,81.8,24.1,24.1,24.1,24.1,0
ND_TP,Thành phố Nam Định - Nam Định,Nam Định,Nam Định,20.42,106.1683,2026-03-10 16:20:18,openmeteo,high,2026-03-10T16:15,,22.7,26.3,15.4,20.3,59,98,55,81.0,1018.7,1025.2,1012.9,1019.0,4.5,16.7,0.0,6.2,61,63.8,0.0,0.3,0.1,0.1,1.8,54,100,16,79.6,24.1,24.1,24.1,24.1,0
NA_HH,Huyện Hoàng Mai - Nghệ An,Nghệ An,Hoàng Mai,19.2667,105.7167,2026-03-10 16:21:10,openmeteo,high,2026-03-10T16:15,,20.7,25.0,15.6,20.4,66,97,62,83.5,1019.3,1024.9,1013.2,1018.9,6.5,14.9,0.4,5.9,87,24.5,0.0,0.2,0.1,0.1,1.8,80,100,14,82.9,24.1,24.1,17.2,24.0,0
NA_VH,Thành phố Vinh - Nghệ An,Nghệ An,Vinh,18.6733,105.6811,2026-03-10 16:21:09,openmeteo,high,2026-03-10T16:15,,20.9,25.8,16.8,20.8,72,99,66,83.4,1019.3,1024.9,1012.8,1018.6,3.7,13.0,0.5,4.7,29,357.9,0.0,0.1,0.1,0.0,0.9,78,100,30,86.1,24.1,24.1,8.5,22.8,0
NA_CT,Thị xã Cửa Lò - Nghệ An,Nghệ An,Cửa Lò,18.8167,105.7167,2026-03-10 16:21:09,openmeteo,high,2026-03-10T16:15,,20.8,25.5,17.3,20.9,70,97,64,83.9,1019.4,1024.8,1013.0,1018.7,6.0,13.2,0.7,4.8,57,11.1,0.0,0.3,0.1,0.1,2.2,66,100,25,84.2,24.1,24.1,8.5,22.8,0
NA_TH,Thị xã Thái Hòa - Nghệ An,Nghệ An,Thái Hòa,19.3,105.4667,2026-03-10 16:21:10,openmeteo,high,2026-03-10T16:15,,21.7,25.3,15.3,20.4,61,96,58,81.3,1019.0,1025.1,1012.9,1018.9,7.2,15.3,0.5,4.9,87,31.0,0.0,0.3,0.1,0.1,3.0,67,100,5,81.3,24.1,24.1,15.2,23.9,0
NB_HS,Huyện Hoa Lư - Ninh Bình,Ninh Bình,Hoa Lư,20.2833,105.9167,2026-03-10 16:21:29,openmeteo,high,2026-03-10T16:15,,22.7,26.1,14.0,20.1,54,99,52,80.3,1018.7,1025.4,1012.8,1019.1,7.4,15.8,0.4,5.4,51,57.5,0.0,0.0,0.0,0.0,0.0,23,100,0,80.5,24.1,24.1,24.1,24.1,0
NB_NB,Thành phố Ninh Bình - Ninh Bình,Ninh Bình,Ninh Bình,20.2539,105.975,2026-03-10 16:21:28,openmeteo,high,2026-03-10T16:15,,22.8,26.1,14.7,20.3,55,99,54,80.9,1018.7,1025.3,1013.0,1019.1,6.6,15.5,0.0,5.5,49,49.5,0.0,0.0,0.0,0.0,0.0,35,100,0,80.2,24.1,24.1,24.1,24.1,0
NB_TL,Thành phố Tam Điệp - Ninh Bình,Ninh Bình,Tam Điệp,20.15,105.9167,2026-03-10 16:21:28,openmeteo,high,2026-03-10T16:15,,22.9,26.1,14.5,20.4,55,98,52,80.9,1018.7,1025.3,1013.0,1019.0,6.8,14.5,0.7,5.2,58,54.9,0.0,0.1,0.1,0.0,0.6,32,100,0,78.7,24.1,24.1,24.1,24.1,0
NT_NA,Huyện Ninh Hải - Ninh Thuận,Ninh Thuận,Ninh Hải,11.6,109.0333,2026-03-10 16:21:16,openmeteo,high,2026-03-10T16:15,,28.6,33.4,19.1,25.9,58,92,37,67.0,1012.3,1016.5,1009.3,1013.2,21.6,27.0,0.0,10.1,44,23.6,0.0,0.0,0.0,0.0,0.0,88,100,0,43.6,24.1,24.1,24.1,24.1,5
NT_TA,Huyện Thuận Bắc - Ninh Thuận,Ninh Thuận,Thuận Bắc,11.75,108.9333,2026-03-10 16:21:15,openmeteo,high,2026-03-10T16:15,,27.9,32.5,17.5,24.8,53,90,36,63.9,1012.4,1016.6,1009.3,1013.5,17.1,24.2,0.5,8.1,44,11.7,0.0,0.0,0.0,0.0,0.0,80,100,0,48.8,24.1,24.1,23.7,24.1,5
NT_PH,Thành phố Phan Rang-Tháp Chàm - Ninh Thuận,Ninh Thuận,Phan Rang-Tháp Chàm,11.5667,108.9833,2026-03-10 16:21:15,openmeteo,high,2026-03-10T16:15,,28.6,33.4,19.1,25.9,58,92,37,67.0,1012.3,1016.5,1009.3,1013.2,21.6,27.0,0.0,10.1,44,23.6,0.0,0.0,0.0,0.0,0.0,88,100,0,43.6,24.1,24.1,24.1,24.1,5
PT_HT,Huyện Hạ Hòa - Phú Thọ,Phú Thọ,Hạ Hòa,21.55,105.0,2026-03-10 16:21:25,openmeteo,high,2026-03-10T16:15,,21.5,24.7,13.2,19.5,63,99,63,83.7,1018.6,1025.3,1012.3,1019.1,8.0,11.6,0.4,4.0,108,117.7,0.0,0.1,0.1,0.0,1.1,88,100,34,86.2,24.1,24.1,10.9,23.9,0
PT_VT,Thành phố Việt Trì - Phú Thọ,Phú Thọ,Việt Trì,21.3,105.4333,2026-03-10 16:21:24,openmeteo,high,2026-03-10T16:15,,22.8,26.7,15.9,20.9,58,96,57,79.3,1018.5,1025.4,1011.7,1018.8,7.2,15.2,0.5,7.3,108,119.7,0.0,0.3,0.1,0.0,0.4,17,100,5,83.8,24.1,24.1,8.9,23.9,0
PT_PT,Thị xã Phú Thọ - Phú Thọ,Phú Thọ,Phú Thọ,21.4,105.2333,2026-03-10 16:21:24,openmeteo,high,2026-03-10T16:15,,22.9,26.3,15.3,20.6,56,95,56,80.5,1018.4,1025.3,1011.7,1018.8,9.0,16.1,0.7,6.7,106,124.2,0.0,0.1,0.1,0.0,0.1,24,100,0,82.7,24.1,24.1,10.8,23.9,0
PY_DD,Huyện Đông Hòa - Phú Yên,Phú Yên,Đông Hòa,12.9833,109.3667,2026-03-10 16:21:14,openmeteo,high,2026-03-10T16:15,,23.1,26.2,20.9,22.8,88,98,64,88.3,1015.4,1018.3,1012.6,1015.7,11.0,18.4,1.1,7.6,19,13.0,0.2,1.4,0.1,1.9,45.5,93,97,48,87.6,14.8,24.1,5.6,18.1,35
PY_TH,Thành phố Tuy Hòa - Phú Yên,Phú Yên,Tuy Hòa,13.0833,109.3,2026-03-10 16:21:14,openmeteo,high,2026-03-10T16:15,,25.0,28.8,21.0,23.9,74,91,48,78.3,1014.8,1018.1,1012.0,1015.3,17.2,18.9,1.6,10.1,33,43.2,0.0,0.2,0.1,0.1,2.2,71,100,43,77.1,14.8,24.1,5.6,18.1,0
PY_SH,Thị xã Sông Cầu - Phú Yên,Phú Yên,Sông Cầu,13.45,109.2167,2026-03-10 16:21:13,openmeteo,high,2026-03-10T16:15,,24.8,28.5,21.2,23.9,74,93,50,77.0,1015.2,1018.3,1012.2,1015.5,16.9,22.6,2.9,9.7,24,14.7,0.0,0.4,0.1,0.2,4.2,65,100,30,77.9,20.6,24.1,4.1,20.4,0
QB_BT,Huyện Bố Trạch - Quảng Bình,Quảng Bình,Bố Trạch,17.5,106.25,2026-03-10 16:20:26,openmeteo,high,2026-03-10T16:15,,15.5,23.3,13.8,17.4,87,96,64,86.7,1019.3,1023.7,1013.5,1018.6,9.7,12.8,3.3,7.8,27,40.3,0.0,0.3,0.1,0.1,2.1,100,100,65,91.4,14.4,24.1,0.1,9.5,10
QB_LT,Huyện Lệ Thủy - Quảng Bình,Quảng Bình,Lệ Thủy,17.2167,106.8,2026-03-10 16:20:26,openmeteo,high,2026-03-10T16:15,,19.6,25.8,18.7,21.2,83,98,69,87.9,1018.8,1022.7,1012.9,1017.8,10.4,14.6,0.5,5.8,346,21.5,0.0,5.0,0.1,1.3,31.2,100,100,40,91.0,24.1,24.1,6.7,20.6,0
QB_MC,Huyện Minh Hóa - Quảng Bình,Quảng Bình,Minh Hóa,17.7833,105.9167,2026-03-10 16:20:27,openmeteo,high,2026-03-10T16:15,,16.9,24.9,13.8,18.1,82,99,61,87.5,1019.5,1024.1,1013.7,1019.0,10.7,16.5,4.9,9.5,40,42.0,0.0,0.1,0.1,0.0,0.2,76,100,51,87.3,24.1,24.1,0.1,11.1,0
QB_QN,Huyện Quảng Ninh - Quảng Bình,Quảng Bình,Quảng Ninh,17.4,106.55,2026-03-10 16:20:27,openmeteo,high,2026-03-10T16:15,,18.3,24.5,16.5,20.0,82,97,71,86.8,1019.1,1023.4,1013.6,1018.5,9.0,14.5,2.7,6.7,23,47.7,0.0,0.5,0.1,0.2,4.8,100,100,67,92.4,24.1,24.1,3.4,17.1,0
QB_QH,Huyện Quảng Trạch - Quảng Bình,Quảng Bình,Quảng Trạch,17.8333,106.4167,2026-03-10 16:20:28,openmeteo,high,2026-03-10T16:15,,19.2,24.9,17.2,20.3,79,97,72,85.5,1019.2,1023.9,1013.1,1018.3,9.0,16.9,1.4,6.1,355,354.7,0.0,0.4,0.1,0.1,2.8,96,100,47,91.9,24.1,24.1,5.1,20.2,0
QB_TN,Huyện Tuyên Hóa - Quảng Bình,Quảng Bình,Tuyên Hóa,17.9,106.0,2026-03-10 16:20:27,openmeteo,high,2026-03-10T16:15,,18.1,26.1,16.7,20.0,85,99,70,89.2,1019.7,1024.5,1013.0,1018.8,5.0,12.2,0.4,4.7,339,339.6,0.0,0.1,0.1,0.1,2.3,100,100,47,92.0,24.1,24.1,0.2,21.1,0
QB_DH,Thành phố Đồng Hới - Quảng Bình,Quảng Bình,Đồng Hới,17.4687,106.6227,2026-03-10 16:20:26,openmeteo,high,2026-03-10T16:15,,18.6,24.5,17.0,20.1,81,95,73,87.2,1019.0,1023.1,1013.4,1018.2,11.2,15.2,1.8,6.3,21,39.0,0.0,0.9,0.1,0.4,10.2,100,100,64,92.3,24.1,24.1,3.4,17.1,0
QB_BAD,Thị xã Ba Đồn - Quảng Bình,Quảng Bình,Ba Đồn,17.75,106.4167,2026-03-10 16:20:26,openmeteo,high,2026-03-10T16:15,,20.4,25.4,17.9,21.4,75,96,71,84.7,1019.1,1023.6,1013.0,1018.1,9.0,15.6,1.1,5.3,5,6.6,0.0,0.6,0.1,0.3,6.7,93,100,44,89.9,24.1,24.1,5.1,20.2,0
QN_NT,Huyện Núi Thành - Quảng Nam,Quảng Nam,Núi Thành,15.4333,108.6667,2026-03-10 16:21:11,openmeteo,high,2026-03-10T16:15,,23.6,27.5,21.6,23.6,89,98,65,87.9,1017.5,1020.6,1012.9,1017.2,5.7,12.1,0.5,4.7,18,9.0,0.2,1.4,0.1,1.4,34.7,95,100,36,88.3,7.8,24.1,3.6,17.6,35
QN_DG,Huyện Điện Bàn - Quảng Nam,Quảng Nam,Điện Bàn,15.9,108.25,2026-03-10 16:21:11,openmeteo,high,2026-03-10T16:15,,22.9,27.3,20.8,22.9,84,94,64,85.9,1017.4,1020.5,1012.7,1017.0,10.2,18.0,0.0,6.1,8,9.3,0.0,0.9,0.1,1.2,27.8,98,100,38,88.3,22.0,24.1,3.7,17.1,0
QN_HT,Thành phố Hội An - Quảng Nam,Quảng Nam,Hội An,15.8833,108.3333,2026-03-10 16:21:11,openmeteo,high,2026-03-10T16:15,,22.7,27.1,20.6,22.7,84,94,64,85.9,1017.4,1020.5,1012.7,1017.0,10.2,18.0,0.0,6.1,8,9.3,0.0,0.9,0.1,1.2,27.8,98,100,38,88.3,22.0,24.1,3.7,17.1,0
QN_TC,Thành phố Tam Kỳ - Quảng Nam,Quảng Nam,Tam Kỳ,15.5667,108.4833,2026-03-10 16:21:11,openmeteo,high,2026-03-10T16:15,,22.8,27.1,20.6,22.5,85,97,63,87.3,1017.3,1020.5,1012.7,1017.0,7.2,13.5,0.0,4.9,27,21.3,0.1,1.3,0.1,1.7,41.4,93,100,50,88.4,7.8,24.1,3.6,17.6,25
QN_BT,Huyện Bình Sơn - Quảng Ngãi,Quảng Ngãi,Bình Sơn,15.3167,108.7667,2026-03-10 16:21:12,openmeteo,high,2026-03-10T16:15,,21.2,24.8,19.2,21.2,88,98,66,89.4,1017.5,1020.6,1013.1,1017.2,7.6,11.9,0.4,5.4,8,6.7,0.2,1.5,0.1,1.8,43.7,94,100,52,91.5,9.0,24.1,4.3,17.9,35
QN_LS,Huyện Lý Sơn - Quảng Ngãi,Quảng Ngãi,Lý Sơn,15.3833,109.1167,2026-03-10 16:21:12,openmeteo,high,2026-03-10T16:15,,24.1,25.3,22.9,23.9,77,87,67,79.7,1016.5,1019.5,1012.6,1016.5,20.6,22.7,3.7,12.0,16,24.5,0.1,1.2,0.1,2.8,67.9,79,100,4,78.5,20.9,24.1,7.8,19.5,25
QN_QN,Thành phố Quảng Ngãi - Quảng Ngãi,Quảng Ngãi,Quảng Ngãi,15.1167,108.8,2026-03-10 16:21:12,openmeteo,high,2026-03-10T16:15,,22.9,26.8,21.1,22.9,86,95,59,85.1,1017.1,1020.0,1012.7,1016.8,9.4,15.2,0.5,5.4,4,343.5,0.2,1.2,0.1,1.3,31.2,93,100,47,87.3,12.4,24.1,1.1,17.5,35
QN_LS2,Đảo Lý Sơn - Quảng Ngãi,Quảng Ngãi,Lý Sơn,15.3833,109.1167,2026-03-10 16:21:38,openmeteo,high,2026-03-10T16:15,,24.1,25.3,22.9,23.9,77,87,67,79.7,1016.5,1019.5,1012.6,1016.5,20.6,22.7,3.7,12.0,16,24.5,0.1,1.2,0.1,2.8,67.9,79,100,4,78.5,20.9,24.1,7.8,19.5,25
QN_BG,Huyện Ba Chẽ - Quảng Ninh,Quảng Ninh,Ba Chẽ,21.2833,107.1833,2026-03-10 16:20:15,openmeteo,high,2026-03-10T16:15,,23.0,26.1,14.0,19.8,52,96,49,75.3,1018.7,1025.3,1013.7,1019.5,2.9,17.2,0.7,5.7,83,79.5,0.0,0.0,0.0,0.0,0.0,61,100,0,76.1,24.1,24.1,20.4,24.0,0
QN_BQ,Huyện Bình Liêu - Quảng Ninh,Quảng Ninh,Bình Liêu,21.5333,107.4333,2026-03-10 16:20:15,openmeteo,high,2026-03-10T16:15,,21.2,23.7,12.2,18.6,55,96,50,76.2,1019.2,1025.3,1014.2,1019.8,4.8,18.1,1.1,7.1,48,98.1,0.0,0.0,0.0,0.0,0.0,52,100,3,76.3,24.1,24.1,20.6,24.0,0
QN_CT,Huyện Cô Tô - Quảng Ninh,Quảng Ninh,Cô Tô,20.9681,107.7639,2026-03-10 16:20:15,openmeteo,high,2026-03-10T16:15,,19.1,22.0,17.2,20.1,67,93,65,78.4,1019.6,1024.9,1014.2,1019.4,11.8,23.4,3.5,10.9,78,57.2,0.0,1.3,0.1,0.1,1.7,0,100,0,73.1,24.1,24.1,14.7,23.7,0
QN_HD,Huyện Hải Hà - Quảng Ninh,Quảng Ninh,Hải Hà,21.4333,107.7167,2026-03-10 16:20:16,openmeteo,high,2026-03-10T16:15,,18.3,21.2,12.1,17.1,69,99,53,80.2,1019.5,1025.1,1014.9,1020.1,6.7,14.4,2.2,6.1,126,81.9,0.0,0.1,0.1,0.0,0.1,91,100,0,78.6,24.1,24.1,13.0,23.4,0
QN_TY,Huyện Tiên Yên - Quảng Ninh,Quảng Ninh,Tiên Yên,21.3833,107.3833,2026-03-10 16:20:16,openmeteo,high,2026-03-10T16:15,,21.2,24.4,13.3,19.4,59,96,47,75.5,1019.3,1025.0,1014.1,1019.6,9.7,17.9,0.7,5.8,135,94.1,0.0,0.0,0.0,0.0,0.0,50,100,0,71.9,24.1,24.1,20.6,24.0,0
QN_VD,Huyện Vân Đồn - Quảng Ninh,Quảng Ninh,Vân Đồn,20.9551,107.4764,2026-03-10 16:20:16,openmeteo,high,2026-03-10T16:15,,20.8,24.3,14.4,19.9,60,95,51,76.5,1019.4,1024.9,1014.1,1019.6,10.2,17.0,1.1,6.3,113,50.3,0.0,0.0,0.0,0.0,0.0,28,100,0,74.3,24.1,24.1,21.4,24.0,0
QN_DH,Huyện Đầm Hà - Quảng Ninh,Quảng Ninh,Đầm Hà,21.3667,107.6,2026-03-10 16:20:15,openmeteo,high,2026-03-10T16:15,,21.2,24.4,14.1,20.2,60,95,52,77.6,1019.4,1024.9,1014.4,1019.7,7.6,18.4,1.4,6.7,135,70.2,0.0,0.0,0.0,0.0,0.0,70,100,3,77.1,24.1,24.1,19.9,24.0,0
QN_CP,Thành phố Cẩm Phả - Quảng Ninh,Quảng Ninh,Cẩm Phả,21.0167,107.3167,2026-03-10 16:20:13,openmeteo,high,2026-03-10T16:15,,20.0,24.7,13.9,19.5,61,91,51,74.3,1019.4,1024.8,1014.0,1019.4,9.2,18.8,2.1,7.7,138,68.8,0.0,0.0,0.0,0.0,0.0,43,100,0,72.2,24.1,24.1,21.4,24.0,0
QN_HL,Thành phố Hạ Long - Quảng Ninh,Quảng Ninh,Hạ Long,20.9582,107.0758,2026-03-10 16:20:13,openmeteo,high,2026-03-10T16:15,,21.0,25.6,16.9,21.3,64,90,53,73.4,1019.3,1024.8,1013.8,1019.2,10.2,20.7,1.6,8.3,141,73.0,0.0,0.0,0.0,0.0,0.0,16,100,0,71.9,24.1,24.1,24.1,24.1,0
QN_MC,Thành phố Móng Cái - Quảng Ninh,Quảng Ninh,Móng Cái,21.5247,107.9664,2026-03-10 16:20:14,openmeteo,high,2026-03-10T16:15,,22.1,24.7,15.2,20.1,54,94,51,74.5,1019.1,1025.1,1014.4,1019.7,8.4,14.2,0.4,5.4,70,29.8,0.0,0.3,0.1,0.1,3.5,83,100,0,74.4,24.1,24.1,13.0,23.4,0
QN_UB,Thành phố Uông Bí - Quảng Ninh,Quảng Ninh,Uông Bí,21.0361,106.7633,2026-03-10 16:20:14,openmeteo,high,2026-03-10T16:15,,23.9,26.0,15.5,21.0,55,94,50,75.7,1018.7,1024.9,1013.3,1019.1,9.6,19.2,0.7,6.7,146,82.7,0.0,0.2,0.1,0.0,0.9,55,100,0,75.6,24.1,24.1,24.1,24.1,0
QN_QY,Thị xã Quảng Yên - Quảng Ninh,Quảng Ninh,Quảng Yên,20.9333,106.8167,2026-03-10 16:20:15,openmeteo,high,2026-03-10T16:15,,20.6,25.1,16.8,20.7,61,92,55,75.4,1019.1,1024.9,1013.6,1019.1,13.1,17.8,1.0,7.7,148,76.9,0.0,0.1,0.1,0.0,0.3,6,100,0,69.3,24.1,24.1,24.1,24.1,0
QN_DK,Thị xã Đông Triều - Quảng Ninh,Quảng Ninh,Đông Triều,21.0833,106.5,2026-03-10 16:20:14,openmeteo,high,2026-03-10T16:15,,24.6,26.4,16.2,21.3,52,93,48,75.8,1018.4,1025.2,1012.9,1019.0,6.4,14.8,0.4,5.6,38,96.5,0.0,0.2,0.1,0.1,1.2,13,100,0,78.3,24.1,24.1,24.1,24.1,0
QN_CT,Đảo Cô Tô - Quảng Ninh,Quảng Ninh,Cô Tô,20.9681,107.7639,2026-03-10 16:21:36,openmeteo,high,2026-03-10T16:15,,19.1,22.0,17.2,20.1,67,93,65,78.4,1019.6,1024.9,1014.2,1019.4,11.8,23.4,3.5,10.9,78,57.2,0.0,1.3,0.1,0.1,1.7,0,100,0,73.1,24.1,24.1,14.7,23.7,0
QN_VD,Đảo Vân Đồn - Quảng Ninh,Quảng Ninh,Vân Đồn,20.9551,107.4764,2026-03-10 16:21:37,openmeteo,high,2026-03-10T16:15,,20.8,24.3,14.4,19.9,60,95,51,76.5,1019.4,1024.9,1014.1,1019.6,10.2,17.0,1.1,6.3,113,50.3,0.0,0.0,0.0,0.0,0.0,28,100,0,74.3,24.1,24.1,21.4,24.0,0
QT_CL,Huyện Cam Lộ - Quảng Trị,Quảng Trị,Cam Lộ,16.8,106.9833,2026-03-10 16:20:23,openmeteo,high,2026-03-10T16:15,,19.2,26.8,18.6,20.8,88,97,59,87.5,1018.6,1022.2,1012.8,1017.7,6.2,14.5,3.0,6.5,7,27.2,0.0,1.3,0.1,0.5,13.0,100,100,61,91.5,12.5,24.1,4.1,20.7,10
QT_CC,Huyện Cồn Cỏ - Quảng Trị,Quảng Trị,Cồn Cỏ,17.1597,107.3408,2026-03-10 16:20:24,openmeteo,high,2026-03-10T16:15,,21.8,24.2,21.7,22.8,83,87,69,82.4,1018.1,1021.6,1012.7,1017.3,27.2,37.2,2.6,17.3,6,69.0,0.1,2.1,0.1,2.2,52.8,100,100,0,84.5,15.1,24.1,6.3,19.7,25
QT_GL,Huyện Gio Linh - Quảng Trị,Quảng Trị,Gio Linh,16.9167,107.05,2026-03-10 16:20:25,openmeteo,high,2026-03-10T16:15,,19.9,27.7,19.1,21.5,92,100,61,89.2,1018.5,1022.0,1012.7,1017.6,7.1,14.7,1.4,6.0,336,13.2,0.0,2.7,0.1,1.3,32.3,100,100,58,92.3,22.1,24.1,6.4,20.0,10
QT_HL,Huyện Hướng Hóa - Quảng Trị,Quảng Trị,Hướng Hóa,16.7,106.6667,2026-03-10 16:20:25,openmeteo,high,2026-03-10T16:15,,19.4,29.1,19.0,22.0,80,83,48,72.7,1017.6,1021.2,1011.7,1016.5,11.0,19.5,5.2,11.7,52,60.6,0.0,0.0,0.0,0.0,0.0,100,100,18,62.2,0.1,24.1,0.1,10.7,0
QT_HH,Huyện Hải Lăng - Quảng Trị,Quảng Trị,Hải Lăng,16.7,107.25,2026-03-10 16:20:24,openmeteo,high,2026-03-10T16:15,,20.9,26.8,19.4,22.0,88,94,67,88.0,1018.1,1021.6,1012.7,1017.3,9.4,16.7,1.5,7.7,342,52.6,0.0,1.4,0.1,1.5,34.9,100,100,34,87.6,20.6,24.1,4.2,20.3,10
QT_TL,Huyện Triệu Phong - Quảng Trị,Quảng Trị,Triệu Phong,16.7833,107.1667,2026-03-10 16:20:25,openmeteo,high,2026-03-10T16:15,,20.0,27.7,18.7,21.6,90,97,60,88.6,1018.3,1021.7,1012.6,1017.4,7.1,15.6,0.8,6.0,330,23.2,0.0,1.0,0.1,1.3,32.0,100,100,46,89.3,20.6,24.1,4.2,20.3,10
QT_VL,Huyện Vĩnh Linh - Quảng Trị,Quảng Trị,Vĩnh Linh,17.0,106.9333,2026-03-10 16:20:25,openmeteo,high,2026-03-10T16:15,,18.2,25.0,17.5,19.8,91,99,67,91.1,1019.0,1022.8,1013.3,1018.2,7.3,14.4,1.9,6.2,9,59.3,0.0,0.7,0.1,0.4,9.5,100,100,68,92.8,22.1,24.1,6.4,20.0,10
QT_DK,Huyện Đa Krông - Quảng Trị,Quảng Trị,Đa Krông,16.5556,106.9722,2026-03-10 16:20:24,openmeteo,high,2026-03-10T16:15,,18.5,27.2,17.7,20.4,91,97,57,86.6,1018.4,1021.9,1012.7,1017.5,10.2,17.3,5.0,9.7,58,58.5,0.0,0.7,0.1,0.1,3.5,100,100,53,85.9,0.1,24.1,0.1,14.0,10
QT_DH,Thành phố Đông Hà - Quảng Trị,Quảng Trị,Đông Hà,16.816,107.1,2026-03-10 16:20:23,openmeteo,high,2026-03-10T16:15,,19.3,27.1,18.5,20.9,92,100,61,89.2,1018.5,1022.0,1012.7,1017.6,7.1,14.7,1.4,6.0,336,13.2,0.0,2.7,0.1,1.3,32.3,100,100,58,92.3,12.5,24.1,4.1,20.7,10
QT_QH,Thị xã Quảng Trị - Quảng Trị,Quảng Trị,Quảng Trị,16.75,107.1833,2026-03-10 16:20:24,openmeteo,high,2026-03-10T16:15,,20.1,27.7,18.8,21.6,90,97,60,88.6,1018.3,1021.7,1012.6,1017.4,7.1,15.6,0.8,6.0,330,23.2,0.0,1.0,0.1,1.3,32.0,100,100,46,89.3,20.6,24.1,4.2,20.3,10
QT_CC2,Đảo Cồn Cỏ - Quảng Trị,Quảng Trị,Cồn Cỏ,17.1597,107.3408,2026-03-10 16:21:39,openmeteo,high,2026-03-10T16:15,,21.8,24.2,21.7,22.8,83,87,69,82.4,1018.1,1021.6,1012.7,1017.3,27.2,37.2,2.6,17.3,6,69.0,0.1,2.1,0.1,2.2,52.8,100,100,0,84.5,15.1,24.1,6.3,19.7,25
ST_CL,Huyện Châu Thành - Sóc Trăng,Sóc Trăng,Châu Thành,9.7,105.9,2026-03-10 16:21:04,openmeteo,high,2026-03-10T16:15,,31.6,33.3,23.4,27.5,51,92,39,70.0,1009.9,1014.5,1007.7,1011.5,16.9,26.3,6.0,13.7,90,91.4,0.0,0.1,0.1,0.0,0.3,79,100,0,52.2,24.1,24.1,18.6,24.1,10
ST_CT,Huyện Cù Lao Dung - Sóc Trăng,Sóc Trăng,Cù Lao Dung,9.6667,106.1667,2026-03-10 16:21:04,openmeteo,high,2026-03-10T16:15,,31.0,33.1,23.8,27.6,54,91,42,69.1,1010.3,1014.6,1008.0,1011.5,23.1,26.9,7.2,16.6,87,86.9,0.0,0.2,0.1,0.0,0.3,47,100,0,50.5,24.1,24.1,13.4,23.9,10
ST_KS,Huyện Kế Sách - Sóc Trăng,Sóc Trăng,Kế Sách,9.8167,105.9833,2026-03-10 16:21:05,openmeteo,high,2026-03-10T16:15,,31.4,33.6,23.5,27.7,53,91,40,69.9,1010.0,1014.5,1007.7,1011.5,15.1,25.2,4.3,13.3,93,91.2,0.0,0.1,0.1,0.0,0.2,68,97,0,53.2,24.1,24.1,18.6,24.1,10
ST_LT,Huyện Long Phú - Sóc Trăng,Sóc Trăng,Long Phú,9.6167,106.1167,2026-03-10 16:21:05,openmeteo,high,2026-03-10T16:15,,31.0,33.1,23.8,27.6,54,91,42,69.1,1010.3,1014.6,1008.0,1011.5,23.1,26.9,7.2,16.6,87,86.9,0.0,0.2,0.1,0.0,0.3,47,100,0,50.5,24.1,24.1,19.1,24.1,10
ST_MD,Huyện Mỹ Tú - Sóc Trăng,Sóc Trăng,Mỹ Tú,9.6333,105.8167,2026-03-10 16:21:05,openmeteo,high,2026-03-10T16:15,,31.3,32.8,23.4,27.4,52,92,40,70.6,1010.0,1014.5,1007.8,1011.5,18.7,25.9,6.6,14.4,90,90.1,0.0,0.2,0.1,0.0,0.5,51,100,0,51.4,24.1,24.1,6.2,23.7,10
ST_MX,Huyện Mỹ Xuyên - Sóc Trăng,Sóc Trăng,Mỹ Xuyên,9.5333,105.9833,2026-03-10 16:21:06,openmeteo,high,2026-03-10T16:15,,30.7,32.7,24.1,27.5,57,91,43,70.6,1010.2,1014.6,1008.1,1011.5,24.5,28.1,8.2,17.6,87,86.3,0.0,0.0,0.0,0.0,0.0,30,98,0,51.4,24.1,24.1,19.1,24.1,10
ST_TN,Huyện Thạnh Trị - Sóc Trăng,Sóc Trăng,Thạnh Trị,9.4667,105.7167,2026-03-10 16:21:05,openmeteo,high,2026-03-10T16:15,,31.2,33.1,23.6,27.4,55,92,38,71.0,1009.9,1014.5,1007.8,1011.5,19.8,26.0,6.6,15.3,90,88.9,0.0,0.1,0.1,0.0,0.2,72,100,0,54.8,24.1,24.1,6.7,23.8,10
ST_TP,Huyện Trần Đề - Sóc Trăng,Sóc Trăng,Trần Đề,9.5,106.0833,2026-03-10 16:21:06,openmeteo,high,2026-03-10T16:15,,29.9,31.7,24.8,27.4,61,89,48,71.5,1010.5,1014.7,1008.3,1011.6,26.0,29.0,10.1,19.6,84,86.1,0.0,0.0,0.0,0.0,0.0,32,100,0,50.7,24.1,24.1,19.1,24.1,5
ST_ST,Thành phố Sóc Trăng - Sóc Trăng,Sóc Trăng,Sóc Trăng,9.6025,105.9739,2026-03-10 16:21:03,openmeteo,high,2026-03-10T16:15,,31.1,32.8,23.7,27.5,54,91,41,69.4,1010.2,1014.5,1008.0,1011.5,22.7,27.0,7.5,16.4,88,87.4,0.0,0.2,0.1,0.0,0.4,40,100,0,51.6,24.1,24.1,19.1,24.1,10
ST_NG,Thị xã Ngã Năm - Sóc Trăng,Sóc Trăng,Ngã Năm,9.5667,105.85,2026-03-10 16:21:04,openmeteo,high,2026-03-10T16:15,,31.3,32.8,23.4,27.4,52,92,40,70.6,1010.0,1014.5,1007.8,1011.5,18.7,25.9,6.6,14.4,90,90.1,0.0,0.2,0.1,0.0,0.5,51,100,0,51.4,24.1,24.1,6.7,23.8,10
ST_VC,Thị xã Vĩnh Châu - Sóc Trăng,Sóc Trăng,Vĩnh Châu,9.3333,105.9833,2026-03-10 16:21:03,openmeteo,high,2026-03-10T16:15,,30.3,32.2,25.0,27.6,60,89,44,70.6,1010.3,1014.6,1008.2,1011.6,25.2,28.8,9.9,19.3,87,85.5,0.0,0.0,0.0,0.0,0.0,44,100,0,51.5,24.1,24.1,19.1,24.1,10
SL_ML,Huyện Mộc Châu - Sơn La,Sơn La,Mộc Châu,20.85,104.6333,2026-03-10 16:21:19,openmeteo,high,2026-03-10T16:15,,19.2,23.8,12.0,17.3,65,97,59,80.6,1018.8,1025.3,1012.7,1019.3,7.3,15.6,1.4,6.4,101,103.3,0.0,0.3,0.3,0.1,1.8,70,100,35,85.6,24.1,24.1,0.8,23.0,0
SL_YB,Huyện Yên Châu - Sơn La,Sơn La,Yên Châu,21.05,104.3,2026-03-10 16:21:18,openmeteo,high,2026-03-10T16:15,,23.9,27.8,16.8,21.3,58,93,55,75.6,1017.8,1024.5,1011.6,1018.4,9.5,16.2,2.3,6.3,119,87.3,0.0,0.7,0.1,0.1,3.4,73,100,24,85.1,24.1,24.1,12.6,23.7,0
SL_SL,Thành phố Sơn La - Sơn La,Sơn La,Sơn La,21.3256,103.9189,2026-03-10 16:21:18,openmeteo,high,2026-03-10T16:15,,23.5,25.8,14.4,19.8,54,93,52,76.4,1017.2,1024.2,1011.6,1018.0,10.6,17.9,2.3,6.8,114,135.8,0.0,2.0,0.1,0.5,12.0,57,100,0,80.2,24.1,24.1,8.1,23.3,0
HCM_BC,Huyện Bình Chánh - TP Hồ Chí Minh,TP Hồ Chí Minh,Bình Chánh,10.7269,106.5672,2026-03-10 16:19:53,openmeteo,high,2026-03-10T16:15,,31.4,35.5,23.0,28.0,59,96,31,67.5,1010.0,1014.9,1006.9,1011.3,14.0,20.9,0.5,7.6,145,111.3,0.0,0.1,0.1,0.0,0.3,54,100,0,48.0,24.1,24.1,20.0,24.1,10
HCM_CG,Huyện Cần Giờ - TP Hồ Chí Minh,TP Hồ Chí Minh,Cần Giờ,10.4111,106.9547,2026-03-10 16:19:54,openmeteo,high,2026-03-10T16:15,,29.7,32.3,24.6,27.6,66,89,48,69.2,1010.5,1014.9,1008.1,1011.5,13.1,21.0,0.7,10.4,111,98.9,0.0,0.3,0.1,0.0,1.0,66,100,0,45.2,24.1,24.1,24.1,24.1,5
HCM_CC,Huyện Củ Chi - TP Hồ Chí Minh,TP Hồ Chí Minh,Củ Chi,10.9733,106.4939,2026-03-10 16:19:52,openmeteo,high,2026-03-10T16:15,,32.7,35.2,22.7,28.0,48,94,31,66.1,1009.6,1014.9,1006.8,1011.3,12.6,19.4,0.4,5.9,143,73.4,0.0,2.3,0.1,0.2,4.0,79,100,0,46.1,24.1,24.1,14.3,24.0,10
HCM_HM,Huyện Hóc Môn - TP Hồ Chí Minh,TP Hồ Chí Minh,Hóc Môn,10.8894,106.5953,2026-03-10 16:19:53,openmeteo,high,2026-03-10T16:15,,31.9,35.8,23.0,28.1,53,95,30,66.1,1009.9,1014.8,1006.8,1011.3,12.7,20.3,0.4,6.3,145,113.8,0.0,0.1,0.1,0.0,0.2,42,100,0,47.3,24.1,24.1,14.3,24.0,10
HCM_NB,Huyện Nhà Bè - TP Hồ Chí Minh,TP Hồ Chí Minh,Nhà Bè,10.6956,106.735,2026-03-10 16:19:54,openmeteo,high,2026-03-10T16:15,,31.3,35.2,23.3,28.0,58,95,35,67.3,1010.1,1014.8,1007.2,1011.3,14.1,20.4,0.4,7.7,142,113.7,0.0,0.0,0.0,0.0,0.0,60,100,0,48.2,11.6,24.1,7.0,23.9,10
HCM_1,Quận 1 - TP Hồ Chí Minh,TP Hồ Chí Minh,Quận 1,10.7757,106.7004,2026-03-10 16:19:48,openmeteo,high,2026-03-10T16:15,,31.3,35.2,23.3,27.9,58,95,35,67.3,1010.1,1014.8,1007.2,1011.3,14.1,20.4,0.4,7.7,142,113.7,0.0,0.0,0.0,0.0,0.0,60,100,0,48.2,11.6,24.1,7.0,23.9,10
HCM_10,Quận 10 - TP Hồ Chí Minh,TP Hồ Chí Minh,Quận 10,10.7679,106.6668,2026-03-10 16:19:51,openmeteo,high,2026-03-10T16:15,,31.3,35.5,22.9,27.9,59,96,31,67.5,1010.0,1014.9,1006.9,1011.3,14.0,20.9,0.5,7.6,145,111.3,0.0,0.1,0.1,0.0,0.3,54,100,0,48.0,11.6,24.1,7.0,23.9,10
HCM_11,Quận 11 - TP Hồ Chí Minh,TP Hồ Chí Minh,Quận 11,10.7639,106.6474,2026-03-10 16:19:51,openmeteo,high,2026-03-10T16:15,,31.3,35.5,22.9,27.9,59,96,31,67.5,1010.0,1014.9,1006.9,1011.3,14.0,20.9,0.5,7.6,145,111.3,0.0,0.1,0.1,0.0,0.3,54,100,0,48.0,11.6,24.1,7.0,23.9,10
HCM_12,Quận 12 - TP Hồ Chí Minh,TP Hồ Chí Minh,Quận 12,10.8642,106.6543,2026-03-10 16:19:50,openmeteo,high,2026-03-10T16:15,,31.9,35.8,23.0,28.1,53,95,30,66.1,1009.9,1014.8,1006.8,1011.3,12.7,20.3,0.4,6.3,145,113.8,0.0,0.1,0.1,0.0,0.2,42,100,0,47.3,11.6,24.1,7.0,23.9,10
HCM_2,Quận 2 - TP Hồ Chí Minh,TP Hồ Chí Minh,Quận 2,10.7872,106.7498,2026-03-10 16:19:48,openmeteo,high,2026-03-10T16:15,,31.3,35.2,23.3,28.0,58,95,35,67.3,1010.1,1014.8,1007.2,1011.3,14.1,20.4,0.4,7.7,142,113.7,0.0,0.0,0.0,0.0,0.0,60,100,0,48.2,11.6,24.1,7.0,23.9,10
HCM_3,Quận 3 - TP Hồ Chí Minh,TP Hồ Chí Minh,Quận 3,10.7823,106.6848,2026-03-10 16:19:48,openmeteo,high,2026-03-10T16:15,,31.3,35.5,22.9,27.9,59,96,31,67.5,1010.0,1014.9,1006.9,1011.3,14.0,20.9,0.5,7.6,145,111.3,0.0,0.1,0.1,0.0,0.3,54,100,0,48.0,11.6,24.1,7.0,23.9,10
HCM_4,Quận 4 - TP Hồ Chí Minh,TP Hồ Chí Minh,Quận 4,10.7642,106.7053,2026-03-10 16:19:49,openmeteo,high,2026-03-10T16:15,,31.3,35.1,23.3,27.9,58,95,35,67.3,1010.1,1014.8,1007.2,1011.3,14.1,20.4,0.4,7.7,142,113.7,0.0,0.0,0.0,0.0,0.0,60,100,0,48.2,11.6,24.1,7.0,23.9,10
HCM_5,Quận 5 - TP Hồ Chí Minh,TP Hồ Chí Minh,Quận 5,10.754,106.669,2026-03-10 16:19:49,openmeteo,high,2026-03-10T16:15,,31.3,35.4,22.9,27.9,59,96,31,67.5,1010.0,1014.9,1006.9,1011.3,14.0,20.9,0.5,7.6,145,111.3,0.0,0.1,0.1,0.0,0.3,54,100,0,48.0,11.6,24.1,7.0,23.9,10
HCM_6,Quận 6 - TP Hồ Chí Minh,TP Hồ Chí Minh,Quận 6,10.7464,106.6492,2026-03-10 16:19:49,openmeteo,high,2026-03-10T16:15,,31.3,35.5,22.9,27.9,59,96,31,67.5,1010.0,1014.9,1006.9,1011.3,14.0,20.9,0.5,7.6,145,111.3,0.0,0.1,0.1,0.0,0.3,54,100,0,48.0,11.6,24.1,7.0,23.9,10
HCM_7,Quận 7 - TP Hồ Chí Minh,TP Hồ Chí Minh,Quận 7,10.7329,106.7269,2026-03-10 16:19:49,openmeteo,high,2026-03-10T16:15,,31.3,35.2,23.3,28.0,58,95,35,67.3,1010.1,1014.8,1007.2,1011.3,14.1,20.4,0.4,7.7,142,113.7,0.0,0.0,0.0,0.0,0.0,60,100,0,48.2,11.6,24.1,7.0,23.9,10
HCM_8,Quận 8 - TP Hồ Chí Minh,TP Hồ Chí Minh,Quận 8,10.7241,106.6286,2026-03-10 16:19:50,openmeteo,high,2026-03-10T16:15,,31.3,35.5,22.9,27.9,59,96,31,67.5,1010.0,1014.9,1006.9,1011.3,14.0,20.9,0.5,7.6,145,111.3,0.0,0.1,0.1,0.0,0.3,54,100,0,48.0,11.6,24.1,7.0,23.9,10
HCM_9,Quận 9 - TP Hồ Chí Minh,TP Hồ Chí Minh,Quận 9,10.8428,106.8287,2026-03-10 16:19:50,openmeteo,high,2026-03-10T16:15,,31.0,35.8,23.2,28.0,64,95,31,67.0,1010.1,1014.8,1007.1,1011.3,13.4,17.6,0.4,6.1,149,127.2,0.1,1.5,0.2,0.1,2.7,37,100,0,48.4,11.6,24.1,7.0,23.9,35
HCM_BT2,Quận Bình Thạnh - TP Hồ Chí Minh,TP Hồ Chí Minh,Bình Thạnh,10.801,106.6959,2026-03-10 16:19:52,openmeteo,high,2026-03-10T16:15,,31.3,35.1,23.3,27.9,58,95,35,67.3,1010.1,1014.8,1007.2,1011.3,14.1,20.4,0.4,7.7,142,113.7,0.0,0.0,0.0,0.0,0.0,60,100,0,48.2,11.6,24.1,7.0,23.9,10
HCM_BT,Quận Bình Tân - TP Hồ Chí Minh,TP Hồ Chí Minh,Bình Tân,10.7654,106.6032,2026-03-10 16:19:52,openmeteo,high,2026-03-10T16:15,,31.3,35.5,22.9,27.9,59,96,31,67.5,1010.0,1014.9,1006.9,1011.3,14.0,20.9,0.5,7.6,145,111.3,0.0,0.1,0.1,0.0,0.3,54,100,0,48.0,24.1,24.1,20.0,24.1,10
HCM_GB,Quận Gò Vấp - TP Hồ Chí Minh,TP Hồ Chí Minh,Gò Vấp,10.8383,106.6653,2026-03-10 16:19:51,openmeteo,high,2026-03-10T16:15,,31.8,35.8,23.0,28.1,53,95,30,66.1,1009.9,1014.8,1006.8,1011.3,12.7,20.3,0.4,6.3,145,113.8,0.0,0.1,0.1,0.0,0.2,42,100,0,47.3,11.6,24.1,7.0,23.9,10
HCM_PN,Quận Phú Nhuận - TP Hồ Chí Minh,TP Hồ Chí Minh,Phú Nhuận,10.7992,106.6753,2026-03-10 16:19:52,openmeteo,high,2026-03-10T16:15,,31.3,35.4,22.9,27.9,59,96,31,67.5,1010.0,1014.9,1006.9,1011.3,14.0,20.9,0.5,7.6,145,111.3,0.0,0.1,0.1,0.0,0.3,54,100,0,48.0,11.6,24.1,7.0,23.9,10
HCM_TB,Quận Tân Bình - TP Hồ Chí Minh,TP Hồ Chí Minh,Tân Bình,10.8014,106.6526,2026-03-10 16:19:51,openmeteo,high,2026-03-10T16:15,,31.3,35.5,22.9,27.9,59,96,31,67.5,1010.0,1014.9,1006.9,1011.3,14.0,20.9,0.5,7.6,145,111.3,0.0,0.1,0.1,0.0,0.3,54,100,0,48.0,11.6,24.1,7.0,23.9,10
HCM_TP,Quận Tân Phú - TP Hồ Chí Minh,TP Hồ Chí Minh,Tân Phú,10.7902,106.6289,2026-03-10 16:19:51,openmeteo,high,2026-03-10T16:15,,31.3,35.5,22.9,27.9,59,96,31,67.5,1010.0,1014.9,1006.9,1011.3,14.0,20.9,0.5,7.6,145,111.3,0.0,0.1,0.1,0.0,0.3,54,100,0,48.0,11.6,24.1,7.0,23.9,10
HCM_TD,Thành phố Thủ Đức - TP Hồ Chí Minh,TP Hồ Chí Minh,Thủ Đức,10.8494,106.7717,2026-03-10 16:19:53,openmeteo,high,2026-03-10T16:15,,31.8,35.7,22.9,28.0,53,95,30,66.1,1009.9,1014.8,1006.8,1011.3,12.7,20.3,0.4,6.3,145,113.8,0.0,0.1,0.1,0.0,0.2,42,100,0,47.3,11.6,24.1,7.0,23.9,10
TH_NC,Huyện Nghi Sơn - Thanh Hóa,Thanh Hóa,Nghi Sơn,19.45,105.7833,2026-03-10 16:21:09,openmeteo,high,2026-03-10T16:15,,21.5,25.2,14.5,20.3,63,100,58,82.6,1019.0,1025.2,1013.0,1019.0,7.2,13.7,0.5,5.0,84,30.4,0.0,0.5,0.1,0.1,3.0,72,100,0,82.1,24.1,24.1,18.2,24.0,0
TH_TH,Thành phố Thanh Hóa - Thanh Hóa,Thanh Hóa,Thanh Hóa,19.8,105.7667,2026-03-10 16:21:08,openmeteo,high,2026-03-10T16:15,,22.2,25.1,14.4,20.1,60,100,55,82.6,1018.8,1025.3,1012.9,1019.0,7.1,13.7,0.7,5.1,75,39.4,0.0,0.3,0.1,0.1,2.1,49,100,6,82.1,24.1,24.1,23.4,24.1,0
TH_BT,Thị xã Bỉm Sơn - Thanh Hóa,Thanh Hóa,Bỉm Sơn,20.0781,105.8603,2026-03-10 16:21:09,openmeteo,high,2026-03-10T16:15,,23.1,26.2,14.6,20.5,55,98,52,80.9,1018.7,1025.3,1013.0,1019.0,6.8,14.5,0.7,5.2,58,54.9,0.0,0.1,0.1,0.0,0.6,32,100,0,78.7,24.1,24.1,24.1,24.1,0
TH_SL,Thị xã Sầm Sơn - Thanh Hóa,Thanh Hóa,Sầm Sơn,19.7333,105.9,2026-03-10 16:21:08,openmeteo,high,2026-03-10T16:15,,23.0,26.0,15.0,20.6,58,99,53,81.2,1018.7,1025.3,1012.9,1018.9,6.7,12.6,0.7,4.5,74,44.1,0.0,0.3,0.1,0.0,1.2,46,100,3,79.8,24.1,24.1,23.4,24.1,0
TB_HH,Huyện Hưng Hà - Thái Bình,Thái Bình,Hưng Hà,20.6,106.2167,2026-03-10 16:20:17,openmeteo,high,2026-03-10T16:15,,22.9,25.8,15.3,20.3,58,98,55,81.1,1018.6,1025.1,1012.8,1019.0,4.1,18.0,0.5,6.8,75,85.8,0.0,0.4,0.1,0.2,4.2,63,100,3,80.5,24.1,24.1,24.1,24.1,0
TB_KL,Huyện Kiến Xương - Thái Bình,Thái Bình,Kiến Xương,20.4,106.4167,2026-03-10 16:20:18,openmeteo,high,2026-03-10T16:15,,22.2,25.6,14.9,20.1,62,98,59,82.4,1018.9,1025.1,1013.1,1019.0,4.7,19.1,0.8,7.3,94,63.8,0.0,0.4,0.1,0.1,3.3,55,100,0,76.7,24.1,24.1,24.1,24.1,0
TB_QH,Huyện Quỳnh Phụ - Thái Bình,Thái Bình,Quỳnh Phụ,20.65,106.3333,2026-03-10 16:20:18,openmeteo,high,2026-03-10T16:15,,22.9,25.7,15.2,20.0,59,99,56,81.7,1018.6,1025.1,1012.9,1019.0,4.3,19.2,0.8,7.4,90,86.7,0.0,0.3,0.1,0.1,3.0,69,100,0,79.7,24.1,24.1,24.1,24.1,0
TB_TT,Huyện Thái Thụy - Thái Bình,Thái Bình,Thái Thụy,20.5333,106.5333,2026-03-10 16:20:18,openmeteo,high,2026-03-10T16:15,,22.0,25.4,14.8,20.0,62,98,59,82.2,1018.9,1025.1,1013.1,1019.0,6.6,20.2,0.8,8.0,119,71.9,0.0,0.4,0.1,0.2,3.9,62,100,5,78.4,24.1,24.1,24.1,24.1,0
TB_VT,Huyện Vũ Thư - Thái Bình,Thái Bình,Vũ Thư,20.4333,106.2833,2026-03-10 16:20:18,openmeteo,high,2026-03-10T16:15,,22.3,26.0,14.7,20.1,61,98,57,82.2,1018.8,1025.1,1013.1,1019.0,5.2,18.4,1.1,7.1,74,58.8,0.0,0.3,0.1,0.1,1.8,50,100,0,77.3,24.1,24.1,24.1,24.1,0
TB_DH,Huyện Đông Hưng - Thái Bình,Thái Bình,Đông Hưng,20.55,106.35,2026-03-10 16:20:17,openmeteo,high,2026-03-10T16:15,,22.1,25.5,14.8,20.0,63,98,60,82.6,1018.8,1025.1,1013.0,1019.0,5.1,18.4,1.0,7.1,98,70.1,0.0,0.4,0.1,0.2,3.9,60,100,9,78.8,24.1,24.1,24.1,24.1,0
TB_TP,Thành phố Thái Bình - Thái Bình,Thái Bình,Thái Bình,20.4461,106.3366,2026-03-10 16:20:17,openmeteo,high,2026-03-10T16:15,,22.1,25.4,14.7,20.0,63,98,60,82.6,1018.8,1025.1,1013.0,1019.0,5.1,18.4,1.0,7.1,98,70.1,0.0,0.4,0.1,0.2,3.9,60,100,9,78.8,24.1,24.1,24.1,24.1,0
TN_DD,Huyện Định Hóa - Thái Nguyên,Thái Nguyên,Định Hóa,21.9,105.6333,2026-03-10 16:21:23,openmeteo,high,2026-03-10T16:15,,20.9,23.4,13.7,19.3,62,95,61,79.5,1018.9,1025.7,1012.7,1019.3,6.2,11.9,0.8,4.6,100,102.4,0.0,0.2,0.1,0.1,1.2,81,100,9,85.4,24.1,24.1,12.3,23.8,0
TN_SC,Thành phố Sông Công - Thái Nguyên,Thái Nguyên,Sông Công,21.4833,105.85,2026-03-10 16:21:22,openmeteo,high,2026-03-10T16:15,,22.8,25.2,15.4,20.1,53,95,52,76.8,1018.5,1025.7,1012.5,1019.2,5.6,13.1,0.0,5.0,63,145.8,0.0,0.3,0.1,0.1,2.4,55,100,22,85.3,24.1,24.1,18.0,24.0,0
TN_TN,Thành phố Thái Nguyên - Thái Nguyên,Thái Nguyên,Thái Nguyên,21.5928,105.8442,2026-03-10 16:21:22,openmeteo,high,2026-03-10T16:15,,23.8,25.9,15.7,20.8,53,95,50,75.6,1018.4,1025.6,1012.4,1019.1,2.6,14.7,0.4,5.0,56,113.0,0.0,0.4,0.1,0.1,1.8,86,100,0,82.7,24.1,24.1,18.0,24.0,0
TTH_AD,Huyện A Lưới - Thừa Thiên Huế,Thừa Thiên Huế,A Lưới,16.2333,107.3,2026-03-10 16:20:22,openmeteo,high,2026-03-10T16:15,,17.8,24.6,16.8,19.0,93,98,65,88.2,1018.7,1022.2,1013.1,1018.1,7.2,14.8,4.1,7.6,53,78.1,0.0,0.6,0.1,0.1,3.1,100,100,67,90.5,2.1,24.1,0.0,8.5,10
TTH_NL,Huyện Nam Đông - Thừa Thiên Huế,Thừa Thiên Huế,Nam Đông,16.1667,107.7,2026-03-10 16:20:22,openmeteo,high,2026-03-10T16:15,,21.1,28.1,18.5,21.5,89,99,56,88.4,1018.2,1021.4,1012.3,1017.4,5.2,11.7,0.4,3.8,348,12.9,0.0,1.1,0.1,1.2,28.7,100,100,32,89.5,11.0,24.1,0.3,20.2,10
TTH_PD,Huyện Phong Điền - Thừa Thiên Huế,Thừa Thiên Huế,Phong Điền,16.5833,107.35,2026-03-10 16:20:22,openmeteo,high,2026-03-10T16:15,,21.4,27.3,19.1,22.2,88,95,62,87.7,1018.0,1021.4,1012.5,1017.2,8.7,19.5,2.3,7.5,343,84.9,0.0,2.0,0.1,1.5,35.6,97,100,37,87.1,3.5,24.1,0.5,16.0,10
TTH_PL,Huyện Phú Lộc - Thừa Thiên Huế,Thừa Thiên Huế,Phú Lộc,16.2667,107.9,2026-03-10 16:20:22,openmeteo,high,2026-03-10T16:15,,22.4,28.2,19.7,22.8,87,99,60,85.9,1018.0,1021.3,1012.3,1017.2,5.4,13.7,0.4,4.5,360,62.7,0.0,1.2,0.1,0.9,22.7,100,100,19,85.0,12.6,24.1,1.0,19.3,10
TTH_QD,Huyện Quảng Điền - Thừa Thiên Huế,Thừa Thiên Huế,Quảng Điền,16.5833,107.5,2026-03-10 16:20:23,openmeteo,high,2026-03-10T16:15,,21.0,26.9,19.1,21.8,91,98,61,88.4,1018.1,1021.4,1012.5,1017.2,5.8,15.0,1.1,5.3,330,91.4,0.0,3.0,0.1,1.5,36.6,97,100,46,87.8,11.5,24.1,6.5,20.5,10
TTH_H,Thành phố Huế - Thừa Thiên Huế,Thừa Thiên Huế,Huế,16.4637,107.5909,2026-03-10 16:20:21,openmeteo,high,2026-03-10T16:15,,21.5,26.8,19.9,22.4,90,95,64,87.3,1017.9,1021.3,1012.5,1017.1,8.7,19.6,2.8,8.2,336,76.2,0.1,1.4,0.1,1.5,36.7,97,100,29,87.9,11.5,24.1,6.5,20.5,35
TTH_HL,Thị xã Hương Thủy - Thừa Thiên Huế,Thừa Thiên Huế,Hương Thủy,16.4167,107.7167,2026-03-10 16:20:21,openmeteo,high,2026-03-10T16:15,,21.3,27.8,20.0,22.4,93,97,58,87.2,1017.9,1021.2,1012.4,1017.1,5.7,16.6,0.0,5.3,325,64.8,0.2,1.5,0.1,1.4,33.7,100,100,5,87.1,12.2,24.1,6.5,20.8,35
TTH_HT,Thị xã Hương Trà - Thừa Thiên Huế,Thừa Thiên Huế,Hương Trà,16.5,107.4833,2026-03-10 16:20:21,openmeteo,high,2026-03-10T16:15,,21.0,26.9,19.2,21.8,91,98,61,88.4,1018.1,1021.4,1012.5,1017.2,5.8,15.0,1.1,5.3,330,91.4,0.0,3.0,0.1,1.5,36.6,97,100,46,87.8,11.5,24.1,6.5,20.5,10
TG_CB,Huyện Cai Lậy - Tiền Giang,Tiền Giang,Cai Lậy,10.4,106.1167,2026-03-10 16:20:54,openmeteo,high,2026-03-10T16:15,,31.6,34.5,23.8,28.0,54,91,37,68.9,1009.9,1014.7,1007.4,1011.4,13.5,22.4,0.7,10.6,119,92.3,0.0,0.1,0.1,0.0,0.2,84,96,0,51.1,24.1,24.1,10.9,24.0,10
TG_CL,Huyện Châu Thành - Tiền Giang,Tiền Giang,Châu Thành,10.45,106.25,2026-03-10 16:20:53,openmeteo,high,2026-03-10T16:15,,31.6,34.6,22.7,27.6,55,95,36,70.1,1009.9,1014.9,1007.2,1011.4,11.9,19.1,0.4,8.6,125,93.3,0.0,0.1,0.1,0.0,0.3,56,100,0,49.3,24.1,24.1,11.8,24.0,10
TG_CL2,Huyện Chợ Gạo - Tiền Giang,Tiền Giang,Chợ Gạo,10.35,106.4667,2026-03-10 16:20:54,openmeteo,high,2026-03-10T16:15,,30.6,34.2,23.9,27.8,60,92,39,69.7,1010.3,1014.8,1007.8,1011.5,16.1,23.6,1.5,12.1,110,92.2,0.0,0.1,0.1,0.0,0.1,66,100,0,52.2,24.1,24.1,24.1,24.1,10
TG_CT,Huyện Cái Bè - Tiền Giang,Tiền Giang,Cái Bè,10.3333,105.95,2026-03-10 16:20:52,openmeteo,high,2026-03-10T16:15,,32.0,34.8,22.9,27.9,52,94,37,68.9,1009.9,1014.7,1007.3,1011.4,11.9,20.6,0.4,9.2,119,90.1,0.0,0.2,0.1,0.0,0.4,69,90,0,52.6,24.1,24.1,16.5,24.0,10
TG_GC,Huyện Gò Công Tây - Tiền Giang,Tiền Giang,Gò Công Tây,10.35,106.6,2026-03-10 16:20:53,openmeteo,high,2026-03-10T16:15,,30.3,33.9,23.7,27.6,61,93,40,70.2,1010.4,1014.8,1008.0,1011.5,16.9,24.2,1.3,12.0,114,92.8,0.0,0.1,0.1,0.0,0.7,35,100,0,49.7,24.1,24.1,24.1,24.1,10
TG_GD,Huyện Gò Công Đông - Tiền Giang,Tiền Giang,Gò Công Đông,10.3667,106.7167,2026-03-10 16:20:53,openmeteo,high,2026-03-10T16:15,,29.3,32.6,23.7,27.3,66,93,47,71.2,1010.6,1014.9,1008.3,1011.5,19.7,26.4,0.4,14.2,111,91.5,0.0,0.0,0.0,0.0,0.0,27,100,0,47.3,24.1,24.1,24.1,24.1,5
TG_TP,Huyện Tân Phú Đông - Tiền Giang,Tiền Giang,Tân Phú Đông,10.25,106.6,2026-03-10 16:20:54,openmeteo,high,2026-03-10T16:15,,29.6,33.1,24.5,27.6,64,89,44,70.6,1010.6,1014.9,1008.4,1011.6,20.4,26.1,2.2,15.8,99,89.1,0.0,0.1,0.1,0.0,0.3,23,100,0,48.8,24.1,24.1,24.1,24.1,5
TG_TL,Huyện Tân Phước - Tiền Giang,Tiền Giang,Tân Phước,10.5,106.15,2026-03-10 16:20:53,openmeteo,high,2026-03-10T16:15,,31.7,34.4,22.5,27.6,54,95,39,70.5,1009.9,1014.8,1007.1,1011.4,11.1,18.0,1.3,8.2,119,82.2,0.0,0.1,0.1,0.0,0.3,69,98,0,46.1,24.1,24.1,11.8,24.0,10
TG_MT,Thành phố Mỹ Tho - Tiền Giang,Tiền Giang,Mỹ Tho,10.35,106.35,2026-03-10 16:20:52,openmeteo,high,2026-03-10T16:15,,31.1,34.3,23.2,27.7,56,94,37,70.0,1010.1,1014.8,1007.6,1011.4,14.3,21.7,1.5,10.7,115,92.1,0.0,0.1,0.1,0.0,0.5,58,100,0,52.2,24.1,24.1,9.5,24.0,10
TG_GL,Thị xã Gò Công - Tiền Giang,Tiền Giang,Gò Công,10.3667,106.6667,2026-03-10 16:20:52,openmeteo,high,2026-03-10T16:15,,30.3,33.9,23.7,27.6,61,93,40,70.2,1010.4,1014.8,1008.0,1011.5,16.9,24.2,1.3,12.0,114,92.8,0.0,0.1,0.1,0.0,0.7,35,100,0,49.7,24.1,24.1,24.1,24.1,10
TV_CL,Huyện Càng Long - Trà Vinh,Trà Vinh,Càng Long,9.9667,106.2,2026-03-10 16:21:36,openmeteo,high,2026-03-10T16:15,,30.6,33.5,23.6,27.6,57,91,40,69.8,1010.3,1014.7,1008.0,1011.5,17.7,26.3,4.2,14.4,95,90.7,0.0,0.1,0.1,0.0,0.1,59,100,0,54.2,24.1,24.1,18.3,24.0,10
TV_CN,Huyện Cầu Ngang - Trà Vinh,Trà Vinh,Cầu Ngang,9.8,106.4333,2026-03-10 16:21:36,openmeteo,high,2026-03-10T16:15,,29.7,32.5,23.9,27.3,61,90,47,70.9,1010.6,1014.8,1008.3,1011.6,24.2,28.8,7.6,17.6,86,86.8,0.0,0.1,0.1,0.0,0.1,32,92,0,48.8,24.1,24.1,19.4,24.1,5
TV_TV,Thành phố Trà Vinh - Trà Vinh,Trà Vinh,Trà Vinh,9.9347,106.3453,2026-03-10 16:21:36,openmeteo,high,2026-03-10T16:15,,30.0,32.8,24.1,27.5,60,89,45,70.1,1010.5,1014.7,1008.3,1011.6,22.3,28.0,7.6,17.0,89,88.5,0.0,0.2,0.2,0.0,0.2,39,100,0,51.1,24.1,24.1,18.3,24.0,5
TQ_LB,Huyện Lâm Bình - Tuyên Quang,Tuyên Quang,Lâm Bình,22.4667,105.2167,2026-03-10 16:21:23,openmeteo,high,2026-03-10T16:15,,21.4,22.5,14.7,19.1,68,96,63,84.9,1018.4,1025.4,1012.9,1019.3,5.8,6.9,0.5,2.8,176,157.8,0.0,1.0,0.1,0.1,1.7,82,100,50,93.9,24.1,24.1,15.0,23.7,0
TQ_NH,Huyện Na Hang - Tuyên Quang,Tuyên Quang,Na Hang,22.35,105.3833,2026-03-10 16:21:23,openmeteo,high,2026-03-10T16:15,,21.9,23.5,14.9,20.3,69,94,64,83.1,1018.7,1025.4,1012.9,1019.3,7.0,9.1,0.0,3.3,159,157.5,0.0,0.2,0.1,0.0,1.1,68,100,47,91.4,24.1,24.1,18.1,23.9,0
TQ_TQ,Thành phố Tuyên Quang - Tuyên Quang,Tuyên Quang,Tuyên Quang,21.8181,105.2144,2026-03-10 16:21:23,openmeteo,high,2026-03-10T16:15,,23.4,25.5,16.4,21.1,60,96,59,79.9,1018.4,1025.4,1012.1,1018.9,8.4,14.8,0.4,5.2,115,149.7,0.0,0.4,0.1,0.1,2.8,63,100,24,88.6,24.1,24.1,14.3,24.0,0
TN_TB,Huyện Tân Biên - Tây Ninh,Tây Ninh,Tân Biên,11.55,105.9667,2026-03-10 16:21:35,openmeteo,high,2026-03-10T16:15,,33.6,35.7,21.1,28.4,43,94,31,62.9,1009.1,1014.9,1006.8,1011.3,8.6,16.1,0.4,6.1,68,30.0,0.0,0.1,0.1,0.0,0.4,82,100,0,41.0,24.1,24.1,19.4,24.1,10
TN_TC,Huyện Tân Châu - Tây Ninh,Tây Ninh,Tân Châu,11.3333,106.1667,2026-03-10 16:21:35,openmeteo,high,2026-03-10T16:15,,34.1,36.0,21.7,28.5,43,93,29,63.5,1009.2,1014.9,1006.7,1011.3,9.1,19.7,1.0,7.0,83,38.3,0.0,0.2,0.2,0.0,0.4,60,100,0,40.5,24.1,24.1,20.4,24.1,10
TN_TN2,Thành phố Tây Ninh - Tây Ninh,Tây Ninh,Tây Ninh,11.3131,106.0963,2026-03-10 16:21:35,openmeteo,high,2026-03-10T16:15,,34.1,36.1,21.7,28.5,43,93,29,63.5,1009.2,1014.9,1006.7,1011.3,9.1,19.7,1.0,7.0,83,38.3,0.0,0.2,0.2,0.0,0.4,60,100,0,40.5,24.1,24.1,19.1,24.0,10
VL_BT,Huyện Bình Tân - Vĩnh Long,Vĩnh Long,Bình Tân,10.0833,105.7667,2026-03-10 16:20:57,openmeteo,high,2026-03-10T16:15,,31.6,34.6,23.1,27.9,55,93,40,69.3,1009.9,1014.6,1007.4,1011.4,11.3,22.7,1.3,10.0,127,95.8,0.0,0.4,0.1,0.0,0.5,77,94,0,51.2,24.1,24.1,14.7,24.0,10
VL_LH,Huyện Long Hồ - Vĩnh Long,Vĩnh Long,Long Hồ,10.2,106.0167,2026-03-10 16:20:57,openmeteo,high,2026-03-10T16:15,,31.5,34.5,22.9,27.7,53,94,38,69.9,1009.9,1014.6,1007.4,1011.4,12.6,22.7,1.6,9.7,127,95.8,0.0,0.2,0.1,0.0,0.9,93,97,0,51.2,24.1,24.1,16.5,24.0,10
VL_MT,Huyện Mang Thít - Vĩnh Long,Vĩnh Long,Mang Thít,10.1833,106.1,2026-03-10 16:20:57,openmeteo,high,2026-03-10T16:15,,31.2,34.4,23.5,27.8,54,92,37,68.6,1010.1,1014.7,1007.5,1011.4,14.2,24.9,1.1,12.1,111,91.6,0.0,0.1,0.1,0.0,0.1,59,99,0,54.0,24.1,24.1,16.5,24.0,10
VL_TL,Huyện Tam Bình - Vĩnh Long,Vĩnh Long,Tam Bình,10.0667,105.9833,2026-03-10 16:20:58,openmeteo,high,2026-03-10T16:15,,31.2,34.5,23.2,27.8,54,93,37,69.1,1010.0,1014.6,1007.4,1011.4,13.7,24.5,1.1,10.9,120,95.0,0.0,0.1,0.1,0.0,0.1,88,91,0,51.6,24.1,24.1,8.2,23.8,10
VL_TR,Huyện Trà Ôn - Vĩnh Long,Vĩnh Long,Trà Ôn,9.9667,105.8833,2026-03-10 16:20:58,openmeteo,high,2026-03-10T16:15,,30.9,33.9,23.5,27.7,57,93,40,70.2,1010.0,1014.5,1007.4,1011.4,12.2,24.5,0.5,11.5,104,92.4,0.1,0.3,0.3,0.0,0.3,87,100,0,53.6,24.1,24.1,8.2,23.8,35
VL_VT,Huyện Vũng Liêm - Vĩnh Long,Vĩnh Long,Vũng Liêm,10.0833,106.1667,2026-03-10 16:20:58,openmeteo,high,2026-03-10T16:15,,31.2,34.4,23.5,27.8,54,92,37,68.6,1010.1,1014.7,1007.5,1011.4,14.2,24.9,1.1,12.1,111,91.6,0.0,0.1,0.1,0.0,0.1,59,99,0,54.0,24.1,24.1,18.3,24.0,10
