station_id,station_name,province,district,latitude,longitude,timestamp,data_source,data_quality,data_time,error_reason,temperature_current,temperature_max,temperature_min,temperature_avg,humidity_current,humidity_max,humidity_min,humidity_avg,pressure_current,pressure_max,pressure_min,pressure_avg,wind_speed_current,wind_speed_max,wind_speed_min,wind_speed_avg,wind_direction_current,wind_direction_avg,rain_current,rain_max,rain_min,rain_avg,rain_total,cloud_cover_current,cloud_cover_max,cloud_cover_min,cloud_cover_avg,visibility_current,visibility_max,visibility_min,visibility_avg,thunder_probability
AG_AT,Huyện An Phú - An Giang,An Giang,An Phú,10.8333,105.0833,2026-03-18 18:21:05,openmeteo,high,2026-03-18T18:15,,30.9,35.4,22.8,28.7,53,93,40,66.8,1009.5,1014.9,1006.4,1010.7,2.8,13.2,0.8,7.5,50,135.8,0.0,0.0,0.0,0.0,0.0,45,100,0,56.6,24.1,24.1,18.8,24.1,10
AG_CL,Huyện Châu Phú - An Giang,An Giang,Châu Phú,10.5667,105.1667,2026-03-18 18:21:05,openmeteo,high,2026-03-18T18:15,,31.1,35.5,23.1,28.8,51,89,39,65.9,1009.4,1014.9,1006.4,1010.8,3.6,13.3,1.6,7.3,90,135.4,0.0,0.0,0.0,0.0,0.0,75,100,13,60.7,24.1,24.1,22.4,24.1,10
AG_CP,Huyện Châu Thành - An Giang,An Giang,Châu Thành,10.45,105.25,2026-03-18 18:21:05,openmeteo,high,2026-03-18T18:15,,30.4,35.1,22.5,28.2,56,95,39,69.6,1009.4,1014.8,1006.5,1010.8,3.6,13.8,1.1,7.1,96,132.8,0.0,0.0,0.0,0.0,0.0,59,100,21,65.2,24.1,24.1,22.4,24.1,10
AG_CT,Huyện Chợ Mới - An Giang,An Giang,Chợ Mới,10.5333,105.3833,2026-03-18 18:21:05,openmeteo,high,2026-03-18T18:15,,30.5,35.2,22.8,28.3,56,94,40,68.9,1009.4,1014.7,1006.4,1010.8,3.7,13.5,2.2,7.3,101,134.9,0.0,0.0,0.0,0.0,0.0,72,100,23,66.4,24.1,24.1,17.6,24.0,10
AG_PT,Huyện Phú Tân - An Giang,An Giang,Phú Tân,10.65,105.2833,2026-03-18 18:21:05,openmeteo,high,2026-03-18T18:15,,31.0,35.4,22.8,28.6,52,93,38,66.8,1009.4,1014.8,1006.4,1010.7,3.0,12.8,1.8,7.0,76,132.2,0.0,0.0,0.0,0.0,0.0,68,100,26,63.7,24.1,24.1,15.6,24.0,10
AG_TV,Huyện Thoại Sơn - An Giang,An Giang,Thoại Sơn,10.2667,105.2667,2026-03-18 18:21:06,openmeteo,high,2026-03-18T18:15,,31.0,35.6,23.0,28.6,53,92,36,68.3,1009.5,1014.7,1006.3,1010.8,5.2,13.8,0.7,7.5,155,122.3,0.0,0.1,0.1,0.0,0.1,62,100,21,66.9,24.1,24.1,11.3,24.0,10
AG_TX,Huyện Tri Tôn - An Giang,An Giang,Tri Tôn,10.4167,105.0,2026-03-18 18:21:06,openmeteo,high,2026-03-18T18:15,,30.8,35.0,23.3,28.6,58,90,40,69.0,1009.6,1014.9,1006.5,1010.8,2.0,14.5,0.4,7.3,135,132.3,0.0,0.0,0.0,0.0,0.0,48,100,0,62.7,24.1,24.1,24.1,24.1,10
AG_TN,Huyện Tịnh Biên - An Giang,An Giang,Tịnh Biên,10.55,105.0,2026-03-18 18:21:06,openmeteo,high,2026-03-18T18:15,,31.3,35.6,23.6,29.1,51,89,39,66.1,1009.5,1014.9,1006.6,1010.9,4.0,13.8,1.0,7.5,95,132.6,0.0,0.0,0.0,0.0,0.0,49,100,0,64.2,24.1,24.1,24.1,24.1,10
AG_CD,Thành phố Châu Đốc - An Giang,An Giang,Châu Đốc,10.7,105.1167,2026-03-18 18:21:04,openmeteo,high,2026-03-18T18:15,,31.5,35.6,23.0,28.9,49,91,39,65.3,1009.4,1014.9,1006.4,1010.7,4.8,13.8,1.0,7.7,63,132.9,0.0,0.0,0.0,0.0,0.0,30,100,0,57.1,24.1,24.1,18.8,24.1,10
AG_LX,Thành phố Long Xuyên - An Giang,An Giang,Long Xuyên,10.3865,105.4351,2026-03-18 18:21:04,openmeteo,high,2026-03-18T18:15,,30.7,35.6,22.8,28.4,52,93,37,67.5,1009.5,1014.7,1006.4,1010.8,5.2,14.8,1.8,7.8,106,127.4,0.0,0.0,0.0,0.0,0.0,81,100,6,66.2,24.1,24.1,17.6,24.0,10
AG_AP,Thị xã Tân Châu - An Giang,An Giang,Tân Châu,10.8,105.2167,2026-03-18 18:21:04,openmeteo,high,2026-03-18T18:15,,31.0,35.3,22.7,28.5,52,93,40,67.2,1009.4,1014.8,1006.4,1010.7,3.3,13.6,2.1,7.5,77,132.1,0.0,0.0,0.0,0.0,0.0,65,100,0,59.9,24.1,24.1,15.6,24.0,10
BR_CH,Huyện Châu Đức - Bà Rịa - Vũng Tàu,Bà Rịa - Vũng Tàu,Châu Đức,10.65,107.25,2026-03-18 18:21:04,openmeteo,high,2026-03-18T18:15,,25.9,33.7,23.7,27.1,72,87,41,70.6,1010.8,1014.5,1008.0,1011.3,18.2,24.3,11.8,17.3,115,109.9,0.0,0.0,0.0,0.0,0.0,36,90,0,56.8,24.1,24.1,24.1,24.1,5
BR_CD,Huyện Côn Đảo - Bà Rịa - Vũng Tàu,Bà Rịa - Vũng Tàu,Côn Đảo,8.6822,106.6089,2026-03-18 18:21:03,openmeteo,high,2026-03-18T18:15,,26.9,27.9,25.3,27.0,77,85,66,76.7,1010.8,1014.2,1008.0,1011.1,19.2,25.4,14.4,20.1,82,84.8,0.0,0.0,0.0,0.0,0.0,41,100,2,48.7,24.1,24.1,24.1,24.1,5
BR_LD,Huyện Long Điền - Bà Rịa - Vũng Tàu,Bà Rịa - Vũng Tàu,Long Điền,10.4667,107.2333,2026-03-18 18:21:02,openmeteo,high,2026-03-18T18:15,,26.5,32.9,24.6,27.5,72,84,45,71.2,1010.9,1014.5,1008.2,1011.3,19.7,26.9,13.1,18.8,111,107.0,0.0,0.0,0.0,0.0,0.0,35,92,0,57.3,24.1,24.1,24.1,24.1,5
BR_XM,Huyện Xuyên Mộc - Bà Rịa - Vũng Tàu,Bà Rịa - Vũng Tàu,Xuyên Mộc,10.6333,107.4333,2026-03-18 18:21:03,openmeteo,high,2026-03-18T18:15,,25.6,33.7,22.8,26.8,74,90,41,72.3,1011.0,1014.7,1008.1,1011.4,17.1,22.5,9.0,15.5,112,107.8,0.0,0.0,0.0,0.0,0.0,35,88,0,57.1,24.1,24.1,24.1,24.1,5
BR_DD,Huyện Đất Đỏ - Bà Rịa - Vũng Tàu,Bà Rịa - Vũng Tàu,Đất Đỏ,10.5,107.2833,2026-03-18 18:21:02,openmeteo,high,2026-03-18T18:15,,26.5,32.8,24.5,27.5,72,84,45,71.2,1010.9,1014.5,1008.2,1011.3,19.7,26.9,13.1,18.8,111,107.0,0.0,0.0,0.0,0.0,0.0,35,92,0,57.3,24.1,24.1,24.1,24.1,5
BR_BR,Thành phố Bà Rịa - Bà Rịa - Vũng Tàu,Bà Rịa - Vũng Tàu,Bà Rịa,10.5,107.1833,2026-03-18 18:21:02,openmeteo,high,2026-03-18T18:15,,26.8,33.0,25.1,27.8,73,82,47,71.3,1010.7,1014.5,1008.0,1011.2,14.7,19.4,10.0,14.4,121,114.8,0.0,0.0,0.0,0.0,0.0,38,92,0,58.5,24.1,24.1,24.1,24.1,5
BR_VT,Thành phố Vũng Tàu - Bà Rịa - Vũng Tàu,Bà Rịa - Vũng Tàu,Vũng Tàu,10.346,107.0843,2026-03-18 18:21:01,openmeteo,high,2026-03-18T18:15,,26.8,33.0,25.1,27.8,73,82,47,71.3,1010.7,1014.5,1008.0,1011.2,14.7,19.4,10.0,14.4,121,114.8,0.0,0.0,0.0,0.0,0.0,38,92,0,58.5,24.1,24.1,24.1,24.1,5
BR_PT,Thị xã Phú Mỹ - Bà Rịa - Vũng Tàu,Bà Rịa - Vũng Tàu,Phú Mỹ,10.6,107.05,2026-03-18 18:21:03,openmeteo,high,2026-03-18T18:15,,27.5,35.4,24.0,28.1,66,85,38,68.2,1010.6,1014.4,1007.6,1011.0,17.1,22.2,8.0,13.7,131,124.2,0.0,0.0,0.0,0.0,0.0,26,93,1,59.5,24.1,24.1,24.1,24.1,5
BR_CD2,Đảo Côn Sơn - Bà Rịa - Vũng Tàu,Bà Rịa - Vũng Tàu,Côn Đảo,8.6822,106.6089,2026-03-18 18:22:01,openmeteo,high,2026-03-18T18:15,,26.9,27.9,25.3,27.0,77,85,66,76.7,1010.8,1014.2,1008.0,1011.1,19.2,25.4,14.4,20.1,82,84.8,0.0,0.0,0.0,0.0,0.0,41,100,2,48.7,24.1,24.1,24.1,24.1,5
BD_BA,Huyện Bàu Bàng - Bình Dương,Bình Dương,Bàu Bàng,11.25,106.8,2026-03-18 18:20:58,openmeteo,high,2026-03-18T18:15,,30.9,35.7,21.7,28.0,48,90,37,65.4,1009.4,1014.6,1006.4,1010.8,8.3,19.6,0.5,7.7,180,143.1,0.0,0.0,0.0,0.0,0.0,62,91,0,57.6,24.1,24.1,24.1,24.1,10
BD_BC,Huyện Bắc Tân Uyên - Bình Dương,Bình Dương,Bắc Tân Uyên,11.1667,106.8667,2026-03-18 18:20:58,openmeteo,high,2026-03-18T18:15,,29.8,36.3,22.1,28.1,53,87,33,64.6,1009.9,1014.6,1006.4,1010.8,21.3,21.0,0.8,9.0,164,134.0,0.0,0.0,0.0,0.0,0.0,53,88,3,58.5,24.1,24.1,24.1,24.1,5
BD_DH,Huyện Dầu Tiếng - Bình Dương,Bình Dương,Dầu Tiếng,11.2667,106.3667,2026-03-18 18:20:58,openmeteo,high,2026-03-18T18:15,,30.8,35.3,21.8,28.1,56,94,40,68.4,1009.4,1014.7,1006.4,1010.8,4.2,18.3,0.7,7.7,200,146.3,0.0,0.0,0.0,0.0,0.0,8,96,0,55.5,24.1,24.1,24.1,24.1,10
BD_PG,Huyện Phú Giáo - Bình Dương,Bình Dương,Phú Giáo,11.3333,106.7667,2026-03-18 18:20:59,openmeteo,high,2026-03-18T18:15,,31.2,35.8,21.6,28.1,49,89,36,65.0,1009.3,1014.7,1006.3,1010.8,5.8,19.6,0.4,6.9,184,150.1,0.0,0.0,0.0,0.0,0.0,55,91,0,58.4,24.1,24.1,24.1,24.1,10
BD_TDM,Thành phố Thủ Dầu Một - Bình Dương,Bình Dương,Thủ Dầu Một,10.9804,106.6519,2026-03-18 18:20:57,openmeteo,high,2026-03-18T18:15,,29.4,36.0,22.3,28.2,56,90,38,67.7,1009.8,1014.6,1006.4,1010.8,21.6,21.5,1.3,10.0,165,135.4,0.0,0.0,0.0,0.0,0.0,66,93,0,58.4,24.1,24.1,24.1,24.1,5
BD_BG,Thị xã Bến Cát - Bình Dương,Bình Dương,Bến Cát,11.15,106.6,2026-03-18 18:20:57,openmeteo,high,2026-03-18T18:15,,29.9,35.9,21.9,28.1,53,91,37,67.4,1009.7,1014.6,1006.4,1010.8,17.9,17.7,1.1,8.9,171,137.3,0.0,0.0,0.0,0.0,0.0,70,89,0,59.2,24.1,24.1,19.8,24.1,5
BD_DT,Thị xã Dĩ An - Bình Dương,Bình Dương,Dĩ An,10.9,106.7667,2026-03-18 18:20:58,openmeteo,high,2026-03-18T18:15,,28.6,36.3,22.6,28.2,57,89,34,66.7,1010.1,1014.5,1006.7,1010.8,17.1,19.7,3.2,11.2,155,132.6,0.0,0.0,0.0,0.0,0.0,0,93,0,58.1,24.1,24.1,24.1,24.1,5
BD_TN,Thị xã Thuận An - Bình Dương,Bình Dương,Thuận An,10.9333,106.7,2026-03-18 18:20:57,openmeteo,high,2026-03-18T18:15,,28.8,36.5,22.8,28.4,57,89,34,66.7,1010.1,1014.5,1006.7,1010.8,17.1,19.7,3.2,11.2,155,132.6,0.0,0.0,0.0,0.0,0.0,0,93,0,58.1,24.1,24.1,24.1,24.1,5
BD_TU,Thị xã Tân Uyên - Bình Dương,Bình Dương,Tân Uyên,11.0667,106.8,2026-03-18 18:20:57,openmeteo,high,2026-03-18T18:15,,30.1,36.1,22.1,28.3,53,91,37,67.4,1009.7,1014.6,1006.4,1010.8,17.9,17.7,1.1,8.9,171,137.3,0.0,0.0,0.0,0.0,0.0,70,89,0,59.2,24.1,24.1,24.1,24.1,10
BP_DX,Thành phố Đồng Xoài - Bình Phước,Bình Phước,Đồng Xoài,11.5349,106.8823,2026-03-18 18:21:52,openmeteo,high,2026-03-18T18:15,,31.7,36.0,21.9,28.3,47,88,34,64.5,1009.2,1014.7,1006.2,1010.7,4.3,15.5,0.4,5.5,175,165.7,0.0,0.0,0.0,0.0,0.0,63,90,3,58.0,24.1,24.1,24.0,24.1,10
BP_BL,Thị xã Bình Long - Bình Phước,Bình Phước,Bình Long,11.65,106.6,2026-03-18 18:21:53,openmeteo,high,2026-03-18T18:15,,30.4,35.6,21.6,28.1,55,92,38,67.0,1009.1,1014.8,1006.3,1010.7,4.6,13.7,0.4,5.6,288,184.5,0.0,0.1,0.1,0.0,0.1,43,96,0,55.3,24.1,24.1,14.8,24.0,10
BP_PL,Thị xã Phước Long - Bình Phước,Bình Phước,Phước Long,11.8333,106.9667,2026-03-18 18:21:53,openmeteo,high,2026-03-18T18:15,,29.9,35.4,20.9,27.6,58,95,40,70.4,1009.1,1014.9,1006.1,1010.8,4.3,14.1,0.4,4.7,222,234.6,0.0,0.1,0.1,0.0,0.2,63,87,9,55.5,24.1,24.1,15.2,24.0,5
BT_HD,Huyện Hàm Thuận Bắc - Bình Thuận,Bình Thuận,Hàm Thuận Bắc,11.0833,108.1167,2026-03-18 18:21:39,openmeteo,high,2026-03-18T18:15,,24.1,31.7,20.0,24.8,80,98,48,78.7,1012.6,1015.9,1009.3,1012.7,9.6,18.3,1.3,6.9,124,100.7,0.0,0.0,0.0,0.0,0.0,71,94,4,56.5,24.1,24.1,24.1,24.1,0
BT_PH,Huyện Phú Quý - Bình Thuận,Bình Thuận,Phú Quý,10.5,108.9333,2026-03-18 18:21:39,openmeteo,high,2026-03-18T18:15,,26.0,26.7,25.0,25.8,78,88,75,81.0,1011.3,1014.7,1008.5,1011.8,22.3,27.9,16.9,22.3,69,58.0,0.0,0.2,0.1,0.1,1.5,50,97,7,43.7,24.1,24.1,22.8,24.1,5
BT_PT,Thành phố Phan Thiết - Bình Thuận,Bình Thuận,Phan Thiết,10.9333,108.1,2026-03-18 18:21:38,openmeteo,high,2026-03-18T18:15,,25.7,32.3,21.0,26.0,71,95,47,75.2,1011.7,1015.2,1008.7,1012.0,10.9,21.7,3.3,9.7,96,73.9,0.0,0.0,0.0,0.0,0.0,29,93,0,47.7,24.1,24.1,24.1,24.1,5
BT_LC,Thị xã La Gi - Bình Thuận,Bình Thuận,La Gi,10.6667,107.7667,2026-03-18 18:21:38,openmeteo,high,2026-03-18T18:15,,25.0,31.7,23.0,26.3,75,87,46,72.9,1011.4,1015.0,1008.5,1011.8,16.7,23.6,10.4,16.0,97,95.4,0.0,0.0,0.0,0.0,0.0,40,89,3,58.0,24.1,24.1,24.1,24.1,0
BT_PQ2,Đảo Phú Quý - Bình Thuận,Bình Thuận,Phú Quý,10.5,108.9333,2026-03-18 18:22:02,openmeteo,high,2026-03-18T18:15,,26.0,26.7,25.0,25.8,78,88,75,81.0,1011.3,1014.7,1008.5,1011.8,22.3,27.9,16.9,22.3,69,58.0,0.0,0.2,0.1,0.1,1.5,50,97,7,43.7,24.1,24.1,22.8,24.1,5
BD_AL,Huyện An Lão - Bình Định,Bình Định,An Lão,14.5667,108.9,2026-03-18 18:21:35,openmeteo,high,2026-03-18T18:15,,23.5,33.1,17.3,24.1,82,99,48,78.8,1014.1,1017.2,1009.4,1013.9,5.6,11.0,1.0,5.7,63,127.5,0.0,0.0,0.0,0.0,0.0,64,89,0,37.4,24.1,24.1,24.1,24.1,0
BD_HV,Huyện Hoài Ân - Bình Định,Bình Định,Hoài Ân,14.35,108.9,2026-03-18 18:21:36,openmeteo,high,2026-03-18T18:15,,21.3,29.9,15.3,21.7,83,100,49,81.2,1014.2,1017.3,1010.2,1014.1,4.7,13.8,0.4,6.0,99,119.6,0.0,0.0,0.0,0.0,0.0,70,92,0,51.9,24.1,24.1,24.1,24.1,0
BD_QN,Thành phố Quy Nhơn - Bình Định,Bình Định,Quy Nhơn,13.7667,109.2333,2026-03-18 18:21:35,openmeteo,high,2026-03-18T18:15,,24.4,29.9,18.5,24.5,77,100,55,83.0,1013.0,1016.2,1009.3,1013.0,5.2,19.3,0.5,6.3,102,172.3,0.0,0.0,0.0,0.0,0.0,3,96,0,48.0,24.1,24.1,24.1,24.1,0
BL_HH,Huyện Hòa Bình - Bạc Liêu,Bạc Liêu,Hòa Bình,9.2833,105.6333,2026-03-18 18:21:29,openmeteo,high,2026-03-18T18:15,,27.7,33.0,23.9,27.7,68,89,43,71.5,1010.4,1014.3,1007.7,1011.0,15.7,21.7,4.3,12.2,110,102.8,0.0,0.0,0.0,0.0,0.0,22,95,0,53.9,24.1,24.1,24.1,24.1,5
BL_HB,Huyện Hồng Dân - Bạc Liêu,Bạc Liêu,Hồng Dân,9.55,105.4167,2026-03-18 18:21:29,openmeteo,high,2026-03-18T18:15,,29.1,35.0,23.3,28.0,60,93,40,70.9,1010.1,1014.4,1006.9,1010.8,14.5,17.7,3.2,9.4,117,104.7,0.0,0.0,0.0,0.0,0.0,28,100,0,57.8,24.1,24.1,24.1,24.1,5
BL_PT,Huyện Phước Long - Bạc Liêu,Bạc Liêu,Phước Long,9.4333,105.4667,2026-03-18 18:21:28,openmeteo,high,2026-03-18T18:15,,28.3,33.9,23.6,27.9,65,91,42,70.9,1010.4,1014.3,1007.4,1010.9,14.7,19.6,3.3,10.6,115,102.4,0.0,0.0,0.0,0.0,0.0,32,100,0,57.1,24.1,24.1,24.1,24.1,5
BL_VL,Huyện Vĩnh Lợi - Bạc Liêu,Bạc Liêu,Vĩnh Lợi,9.35,105.5667,2026-03-18 18:21:29,openmeteo,high,2026-03-18T18:15,,27.7,33.0,23.9,27.7,68,89,43,71.5,1010.4,1014.3,1007.7,1011.0,15.7,21.7,4.3,12.2,110,102.8,0.0,0.0,0.0,0.0,0.0,22,95,0,53.9,24.1,24.1,24.1,24.1,5
BL_DD,Huyện Đông Hải - Bạc Liêu,Bạc Liêu,Đông Hải,9.1667,105.4333,2026-03-18 18:21:29,openmeteo,high,2026-03-18T18:15,,27.6,33.2,23.6,27.7,72,91,46,72.9,1010.4,1014.2,1007.5,1011.0,17.3,24.4,2.7,12.3,111,100.8,0.0,0.0,0.0,0.0,0.0,45,100,0,55.5,24.1,24.1,24.1,24.1,5
BL_BL,Thành phố Bạc Liêu - Bạc Liêu,Bạc Liêu,Bạc Liêu,9.2833,105.7167,2026-03-18 18:21:28,openmeteo,high,2026-03-18T18:15,,27.5,32.4,24.3,27.8,70,88,48,71.1,1010.5,1014.3,1007.9,1011.1,17.7,24.4,5.4,14.2,102,102.1,0.0,0.0,0.0,0.0,0.0,31,92,0,55.2,24.1,24.1,24.1,24.1,5
BL_GD,Thị xã Giá Rai - Bạc Liêu,Bạc Liêu,Giá Rai,9.2333,105.4667,2026-03-18 18:21:28,openmeteo,high,2026-03-18T18:15,,27.9,33.5,23.2,27.6,69,93,43,72.8,1010.4,1014.3,1007.4,1010.9,14.5,19.4,3.2,10.2,117,101.6,0.0,0.0,0.0,0.0,0.0,33,100,0,56.8,24.1,24.1,24.1,24.1,5
BG_LN,Huyện Lạng Giang - Bắc Giang,Bắc Giang,Lạng Giang,21.35,106.25,2026-03-18 18:21:52,openmeteo,high,2026-03-18T18:15,,24.6,28.4,20.8,23.8,78,96,67,84.5,1012.6,1016.5,1008.1,1012.4,12.3,17.5,2.2,8.3,148,142.3,0.0,0.3,0.2,0.0,1.1,89,100,14,78.3,24.1,24.1,15.1,24.0,0
BG_YL,Huyện Yên Thế - Bắc Giang,Bắc Giang,Yên Thế,21.5167,106.1167,2026-03-18 18:21:52,openmeteo,high,2026-03-18T18:15,,24.5,28.0,20.6,23.7,80,95,66,84.1,1012.6,1016.6,1008.0,1012.5,10.9,17.0,1.9,7.9,146,137.4,0.0,0.3,0.1,0.1,1.4,66,100,26,83.4,24.1,24.1,5.5,23.7,0
BG_BG,Thành phố Bắc Giang - Bắc Giang,Bắc Giang,Bắc Giang,21.2667,106.2,2026-03-18 18:21:52,openmeteo,high,2026-03-18T18:15,,24.9,29.0,21.0,24.1,78,97,64,84.6,1012.6,1016.4,1007.8,1012.4,14.0,18.1,4.5,10.2,138,139.6,0.0,0.2,0.1,0.0,0.7,100,100,28,78.7,24.1,24.1,15.1,24.0,0
BK_BB,Huyện Ba Bể - Bắc Kạn,Bắc Kạn,Ba Bể,22.4167,105.75,2026-03-18 18:21:45,openmeteo,high,2026-03-18T18:15,,23.5,27.1,19.3,22.8,79,95,66,85.4,1012.5,1016.8,1008.6,1012.9,5.8,10.2,3.0,5.6,180,177.8,0.0,0.5,0.1,0.2,4.3,46,100,37,84.3,24.1,24.1,11.5,22.2,0
BK_PT,Huyện Pác Nặm - Bắc Kạn,Bắc Kạn,Pác Nặm,22.6333,105.6667,2026-03-18 18:21:45,openmeteo,high,2026-03-18T18:15,,23.2,26.9,18.8,22.3,75,98,63,85.5,1012.2,1016.9,1008.4,1012.7,5.4,12.7,2.5,5.0,180,182.5,0.0,0.9,0.1,0.2,5.2,89,100,30,80.0,24.1,24.1,0.2,17.8,0
BK_BK,Thành phố Bắc Kạn - Bắc Kạn,Bắc Kạn,Bắc Kạn,22.15,105.8333,2026-03-18 18:21:44,openmeteo,high,2026-03-18T18:15,,23.1,25.7,19.7,22.1,83,96,75,89.2,1012.9,1017.1,1009.0,1013.2,5.9,9.3,1.4,4.9,169,164.6,0.0,0.4,0.1,0.2,4.3,53,100,53,91.0,24.1,24.1,13.1,23.6,0
BN_YL,Huyện Yên Phong - Bắc Ninh,Bắc Ninh,Yên Phong,21.2,105.95,2026-03-18 18:21:49,openmeteo,high,2026-03-18T18:15,,25.3,29.1,20.7,24.0,76,97,63,84.2,1012.4,1016.4,1007.5,1012.2,11.7,17.8,5.1,11.0,135,132.2,0.0,0.3,0.1,0.0,0.9,68,100,40,80.1,24.1,24.1,15.1,23.9,5
BN_BN,Thành phố Bắc Ninh - Bắc Ninh,Bắc Ninh,Bắc Ninh,21.1861,106.0764,2026-03-18 18:21:48,openmeteo,high,2026-03-18T18:15,,25.0,29.2,20.5,23.9,76,98,64,84.6,1012.6,1016.3,1007.7,1012.3,14.4,18.1,6.4,11.7,143,141.0,0.0,0.3,0.2,0.0,0.7,100,100,43,79.0,24.1,24.1,15.1,23.9,0
BN_TS,Thành phố Từ Sơn - Bắc Ninh,Bắc Ninh,Từ Sơn,21.1167,105.9667,2026-03-18 18:21:49,openmeteo,high,2026-03-18T18:15,,25.0,29.2,20.5,23.9,76,98,64,84.6,1012.6,1016.3,1007.7,1012.3,14.4,18.1,6.4,11.7,143,141.0,0.0,0.3,0.2,0.0,0.7,100,100,43,79.0,24.1,24.1,14.8,23.8,0
BT_BL,Huyện Ba Tri - Bến Tre,Bến Tre,Ba Tri,10.0667,106.6,2026-03-18 18:21:16,openmeteo,high,2026-03-18T18:15,,26.5,32.8,23.6,27.5,71,90,44,72.2,1010.7,1014.6,1007.9,1011.2,14.8,24.2,6.5,14.1,116,110.1,0.0,0.0,0.0,0.0,0.0,24,93,0,55.5,24.1,24.1,24.1,24.1,5
BT_BH,Huyện Bình Đại - Bến Tre,Bến Tre,Bình Đại,10.1833,106.7,2026-03-18 18:21:15,openmeteo,high,2026-03-18T18:15,,26.5,32.8,23.6,27.5,71,90,44,72.2,1010.7,1014.6,1007.9,1011.2,14.8,24.2,6.5,14.1,116,110.1,0.0,0.0,0.0,0.0,0.0,24,93,0,55.5,24.1,24.1,24.1,24.1,5
BT_CL,Huyện Châu Thành - Bến Tre,Bến Tre,Châu Thành,10.3,106.2667,2026-03-18 18:21:16,openmeteo,high,2026-03-18T18:15,,28.2,33.6,23.6,28.0,61,89,41,70.2,1010.5,1014.4,1007.4,1011.0,14.2,22.5,4.3,12.7,120,115.1,0.0,0.0,0.0,0.0,0.0,0,92,0,52.0,24.1,24.1,24.1,24.1,5
BT_CT,Huyện Chợ Lách - Bến Tre,Bến Tre,Chợ Lách,10.2667,106.15,2026-03-18 18:21:16,openmeteo,high,2026-03-18T18:15,,29.0,34.6,23.2,28.1,58,92,38,69.0,1010.3,1014.4,1007.1,1010.9,14.4,20.7,2.9,11.4,122,118.2,0.0,0.0,0.0,0.0,0.0,5,99,0,54.9,24.1,24.1,24.1,24.1,5
BT_GD,Huyện Giồng Trôm - Bến Tre,Bến Tre,Giồng Trôm,10.1667,106.4667,2026-03-18 18:21:16,openmeteo,high,2026-03-18T18:15,,27.1,33.2,23.6,27.7,69,90,43,71.5,1010.6,1014.4,1007.7,1011.1,14.7,23.5,5.4,13.5,118,113.3,0.0,0.0,0.0,0.0,0.0,3,93,1,52.4,24.1,24.1,24.1,24.1,5
BT_MB,Huyện Mỏ Cày Bắc - Bến Tre,Bến Tre,Mỏ Cày Bắc,10.1333,106.3,2026-03-18 18:21:17,openmeteo,high,2026-03-18T18:15,,28.5,34.3,23.2,28.0,59,91,38,69.7,1010.4,1014.4,1007.3,1011.0,13.7,22.1,3.5,11.8,120,114.7,0.0,0.0,0.0,0.0,0.0,0,93,0,52.2,24.1,24.1,24.1,24.1,5
BT_MN,Huyện Mỏ Cày Nam - Bến Tre,Bến Tre,Mỏ Cày Nam,10.0667,106.3333,2026-03-18 18:21:17,openmeteo,high,2026-03-18T18:15,,27.6,33.7,23.6,27.9,64,89,41,70.0,1010.5,1014.4,1007.6,1011.1,14.2,23.2,4.6,13.1,117,112.7,0.0,0.0,0.0,0.0,0.0,0,93,0,53.9,24.1,24.1,24.1,24.1,5
BT_TP,Huyện Thạnh Phú - Bến Tre,Bến Tre,Thạnh Phú,9.9333,106.5333,2026-03-18 18:21:17,openmeteo,high,2026-03-18T18:15,,27.1,32.1,24.5,27.8,70,86,50,71.1,1010.6,1014.4,1008.0,1011.2,15.6,24.5,5.7,14.7,113,105.2,0.0,0.0,0.0,0.0,0.0,28,95,0,57.5,24.1,24.1,24.1,24.1,5
BT_BT,Thành phố Bến Tre - Bến Tre,Bến Tre,Bến Tre,10.2333,106.3833,2026-03-18 18:21:15,openmeteo,high,2026-03-18T18:15,,28.2,33.6,23.6,28.0,61,89,41,70.2,1010.5,1014.4,1007.4,1011.0,14.2,22.5,4.3,12.7,120,115.1,0.0,0.0,0.0,0.0,0.0,0,92,0,52.0,24.1,24.1,24.1,24.1,5
CB_BL,Huyện Bảo Lâm - Cao Bằng,Cao Bằng,Bảo Lâm,22.8667,105.5,2026-03-18 18:21:44,openmeteo,high,2026-03-18T18:15,,23.7,27.5,19.3,22.8,72,96,61,82.9,1011.8,1016.8,1007.8,1012.3,5.8,15.0,2.2,6.3,184,187.2,0.0,0.8,0.1,0.7,16.2,100,100,30,81.3,24.1,24.1,2.2,22.8,0
CB_BC,Huyện Bảo Lạc - Cao Bằng,Cao Bằng,Bảo Lạc,22.95,105.7333,2026-03-18 18:21:44,openmeteo,high,2026-03-18T18:15,,24.5,28.8,19.4,23.4,66,96,58,79.4,1011.5,1016.6,1007.6,1012.0,6.9,14.8,0.0,5.7,219,197.3,0.0,1.1,0.1,0.6,13.6,80,100,7,71.4,24.1,24.1,16.7,23.6,0
CB_CB,Thành phố Cao Bằng - Cao Bằng,Cao Bằng,Cao Bằng,22.6667,106.25,2026-03-18 18:21:44,openmeteo,high,2026-03-18T18:15,,23.4,28.2,18.7,22.8,76,96,58,82.8,1012.0,1016.9,1008.1,1012.5,5.7,16.2,1.3,5.2,162,162.0,0.0,0.2,0.1,0.0,0.9,21,100,3,68.6,24.1,24.1,3.3,21.5,0
CM_CM,Huyện Cái Nước - Cà Mau,Cà Mau,Cái Nước,9.0,105.0333,2026-03-18 18:21:10,openmeteo,high,2026-03-18T18:15,,27.6,33.9,23.2,27.4,71,95,42,73.9,1010.5,1014.2,1007.1,1010.9,12.2,20.3,2.1,9.1,114,99.0,0.0,0.0,0.0,0.0,0.0,47,100,0,58.1,24.1,24.1,23.1,24.1,5
CM_NG,Huyện Ngọc Hiển - Cà Mau,Cà Mau,Ngọc Hiển,8.6667,105.05,2026-03-18 18:21:11,openmeteo,high,2026-03-18T18:15,,27.4,31.6,24.7,27.6,74,86,46,72.7,1010.5,1014.3,1007.6,1011.0,14.6,22.8,4.7,12.6,100,99.1,0.0,0.0,0.0,0.0,0.0,41,100,0,50.2,24.1,24.1,24.1,24.1,5
CM_NC,Huyện Năm Căn - Cà Mau,Cà Mau,Năm Căn,8.75,105.0,2026-03-18 18:21:11,openmeteo,high,2026-03-18T18:15,,28.0,33.1,24.2,27.9,72,91,41,71.4,1010.5,1014.1,1007.1,1010.9,15.0,22.5,2.9,11.1,111,96.3,0.0,0.0,0.0,0.0,0.0,38,100,0,57.2,24.1,24.1,24.1,24.1,5
CM_PT,Huyện Phú Tân - Cà Mau,Cà Mau,Phú Tân,8.8833,104.8833,2026-03-18 18:21:12,openmeteo,high,2026-03-18T18:15,,28.6,32.0,25.1,28.0,69,88,45,72.8,1010.5,1014.1,1007.5,1010.9,17.7,23.4,0.5,13.0,92,101.9,0.0,0.1,0.1,0.0,0.7,82,100,3,57.8,24.1,24.1,23.1,24.1,5
CM_TV,Huyện Thới Bình - Cà Mau,Cà Mau,Thới Bình,9.35,105.1,2026-03-18 18:21:11,openmeteo,high,2026-03-18T18:15,,28.7,34.4,22.6,27.6,64,96,40,73.2,1010.2,1014.3,1006.8,1010.8,8.9,17.0,2.8,8.0,148,104.0,0.0,0.0,0.0,0.0,0.0,80,100,3,63.0,24.1,24.1,19.5,24.0,5
CM_TR,Huyện Trần Văn Thời - Cà Mau,Cà Mau,Trần Văn Thời,9.0833,104.9667,2026-03-18 18:21:11,openmeteo,high,2026-03-18T18:15,,28.7,33.4,23.6,27.6,66,95,40,74.5,1010.4,1014.2,1007.2,1010.9,9.4,18.9,0.0,9.0,108,99.6,0.0,0.0,0.0,0.0,0.0,76,100,0,60.4,24.1,24.1,23.1,24.1,5
CM_UM,Huyện U Minh - Cà Mau,Cà Mau,U Minh,9.4,104.9833,2026-03-18 18:21:12,openmeteo,high,2026-03-18T18:15,,28.6,33.8,23.9,27.7,71,92,46,74.7,1010.4,1014.4,1007.4,1010.9,7.4,17.2,1.5,9.3,223,111.4,0.0,0.0,0.0,0.0,0.0,72,100,7,61.2,24.1,24.1,17.3,24.0,5
CM_DH,Huyện Đầm Dơi - Cà Mau,Cà Mau,Đầm Dơi,8.9833,105.2,2026-03-18 18:21:11,openmeteo,high,2026-03-18T18:15,,27.5,33.4,23.7,27.6,73,91,46,73.0,1010.5,1014.2,1007.4,1011.0,15.8,23.5,2.2,11.5,107,98.1,0.0,0.0,0.0,0.0,0.0,47,100,0,54.0,24.1,24.1,24.1,24.1,5
CM_TP,Thành phố Cà Mau - Cà Mau,Cà Mau,Cà Mau,9.1769,105.1521,2026-03-18 18:21:10,openmeteo,high,2026-03-18T18:15,,27.7,33.0,23.3,27.3,71,94,45,74.7,1010.5,1014.2,1007.2,1010.9,13.5,20.1,1.9,9.4,119,101.1,0.0,0.0,0.0,0.0,0.0,33,100,0,59.1,24.1,24.1,23.3,24.1,5
CT_CC,Huyện Cờ Đỏ - Cần Thơ,Cần Thơ,Cờ Đỏ,10.1,105.4333,2026-03-18 18:20:32,openmeteo,high,2026-03-18T18:15,,30.7,35.3,22.9,28.4,51,93,37,67.9,1009.5,1014.6,1006.4,1010.8,8.2,16.1,1.6,8.5,119,117.9,0.0,0.1,0.1,0.0,0.1,62,100,7,65.2,24.1,24.1,22.2,24.1,10
CT_PT,Huyện Phong Điền - Cần Thơ,Cần Thơ,Phong Điền,10.25,105.6667,2026-03-18 18:20:33,openmeteo,high,2026-03-18T18:15,,31.1,35.6,23.0,28.5,48,92,36,66.9,1009.6,1014.6,1006.4,1010.8,11.3,17.2,2.1,9.6,117,120.5,0.0,0.0,0.0,0.0,0.0,52,100,0,61.5,24.1,24.1,9.1,24.0,10
CT_TN,Huyện Thới Lai - Cần Thơ,Cần Thơ,Thới Lai,10.0667,105.55,2026-03-18 18:20:33,openmeteo,high,2026-03-18T18:15,,30.7,35.3,22.9,28.4,51,93,37,67.9,1009.5,1014.6,1006.4,1010.8,8.2,16.1,1.6,8.5,119,117.9,0.0,0.1,0.1,0.0,0.1,62,100,7,65.2,24.1,24.1,22.2,24.1,10
CT_VT,Huyện Vĩnh Thạnh - Cần Thơ,Cần Thơ,Vĩnh Thạnh,10.2167,105.4,2026-03-18 18:20:33,openmeteo,high,2026-03-18T18:15,,31.0,35.5,23.1,28.6,52,92,37,67.3,1009.5,1014.7,1006.3,1010.8,5.2,13.5,1.1,7.5,102,123.4,0.0,0.1,0.1,0.0,0.1,67,100,18,67.2,24.1,24.1,14.7,24.0,10
CT_BT,Quận Bình Thủy - Cần Thơ,Cần Thơ,Bình Thủy,10.0816,105.7378,2026-03-18 18:20:32,openmeteo,high,2026-03-18T18:15,,30.3,35.2,23.2,28.4,53,91,38,68.0,1009.9,1014.5,1006.6,1010.8,13.9,17.7,2.1,10.0,115,118.7,0.0,0.0,0.0,0.0,0.0,24,100,0,59.7,24.1,24.1,24.1,24.1,10
CT_CR,Quận Cái Răng - Cần Thơ,Cần Thơ,Cái Răng,10.0,105.7667,2026-03-18 18:20:32,openmeteo,high,2026-03-18T18:15,,30.3,34.9,22.9,28.2,53,92,39,68.4,1009.9,1014.5,1006.6,1010.8,13.2,18.6,1.5,9.7,116,115.8,0.0,0.0,0.0,0.0,0.0,53,100,0,59.2,24.1,24.1,24.1,24.1,10
CT_NK,Quận Ninh Kiều - Cần Thơ,Cần Thơ,Ninh Kiều,10.0452,105.7469,2026-03-18 18:20:32,openmeteo,high,2026-03-18T18:15,,30.3,34.9,22.9,28.2,53,92,39,68.4,1009.9,1014.5,1006.6,1010.8,13.2,18.6,1.5,9.7,116,115.8,0.0,0.0,0.0,0.0,0.0,53,100,0,59.2,24.1,24.1,24.1,24.1,10
CT_TL,Quận Thốt Nốt - Cần Thơ,Cần Thơ,Thốt Nốt,10.2667,105.5333,2026-03-18 18:20:32,openmeteo,high,2026-03-18T18:15,,31.2,35.6,22.9,28.5,48,93,36,66.6,1009.5,1014.6,1006.4,1010.8,8.6,16.2,1.8,8.9,112,122.5,0.0,0.0,0.0,0.0,0.0,75,100,0,62.3,24.1,24.1,14.7,24.0,10
CT_OT,Quận Ô Môn - Cần Thơ,Cần Thơ,Ô Môn,10.1167,105.6333,2026-03-18 18:20:32,openmeteo,high,2026-03-18T18:15,,30.8,35.3,22.9,28.4,50,93,37,67.4,1009.7,1014.6,1006.5,1010.8,11.8,18.2,1.8,9.5,117,118.7,0.0,0.0,0.0,0.0,0.0,66,100,0,61.4,24.1,24.1,24.1,24.1,10
GL_CP,Huyện Chư Prông - Gia Lai,Gia Lai,Chư Prông,13.5833,107.8333,2026-03-18 18:20:51,openmeteo,high,2026-03-18T18:15,,29.5,36.0,20.8,27.7,46,81,30,56.6,1010.3,1015.6,1006.6,1011.5,16.3,20.2,1.6,11.8,82,97.0,0.0,0.0,0.0,0.0,0.0,0,89,0,43.0,24.1,24.1,24.1,24.1,5
GL_CH,Huyện Chư Păh - Gia Lai,Gia Lai,Chư Păh,14.1667,107.9333,2026-03-18 18:20:51,openmeteo,high,2026-03-18T18:15,,25.6,31.5,16.9,24.1,54,96,34,67.2,1011.7,1016.4,1008.4,1012.7,9.2,12.4,0.7,4.8,116,68.2,0.0,0.9,0.1,0.1,1.5,93,100,0,56.1,24.1,24.1,17.4,24.0,5
GL_CS,Huyện Chư Sê - Gia Lai,Gia Lai,Chư Sê,13.75,108.0833,2026-03-18 18:20:50,openmeteo,high,2026-03-18T18:15,,24.4,32.3,17.6,23.9,62,89,37,65.2,1012.2,1016.8,1008.0,1012.9,18.4,21.6,1.8,11.4,89,92.2,0.0,0.0,0.0,0.0,0.0,0,100,0,45.6,24.1,24.1,23.9,24.1,0
GL_IA,Huyện Ia Grai - Gia Lai,Gia Lai,Ia Grai,13.9833,107.75,2026-03-18 18:20:52,openmeteo,high,2026-03-18T18:15,,30.6,35.9,20.5,28.2,46,87,31,59.0,1010.0,1015.6,1006.7,1011.4,8.7,16.0,1.3,5.2,132,139.7,0.0,0.0,0.0,0.0,0.0,77,95,0,56.2,24.1,24.1,14.1,24.0,10
GL_KB,Huyện KBang - Gia Lai,Gia Lai,KBang,14.35,108.5,2026-03-18 18:20:52,openmeteo,high,2026-03-18T18:15,,20.8,28.8,13.7,20.9,80,100,47,78.8,1014.5,1017.9,1010.5,1014.7,9.1,15.1,0.4,6.2,81,85.9,0.0,0.3,0.1,0.0,0.6,91,100,0,54.8,24.1,24.1,7.3,23.9,0
GL_KR,Huyện Krông Pa - Gia Lai,Gia Lai,Krông Pa,13.2167,108.6667,2026-03-18 18:20:53,openmeteo,high,2026-03-18T18:15,,23.5,31.9,17.3,23.4,70,97,42,74.1,1013.0,1017.0,1008.9,1013.5,12.0,18.8,4.6,9.2,111,114.7,0.0,0.0,0.0,0.0,0.0,29,81,0,28.4,24.1,24.1,15.4,23.9,0
GL_KN,Huyện Kông Chro - Gia Lai,Gia Lai,Kông Chro,13.7167,108.5167,2026-03-18 18:20:53,openmeteo,high,2026-03-18T18:15,,24.2,33.3,18.5,24.4,63,91,37,67.3,1012.4,1016.5,1007.7,1012.9,15.6,20.3,4.0,9.8,75,81.5,0.0,0.0,0.0,0.0,0.0,0,100,0,35.6,24.1,24.1,10.2,24.0,0
GL_MY,Huyện Mang Yang - Gia Lai,Gia Lai,Mang Yang,13.9833,108.25,2026-03-18 18:20:53,openmeteo,high,2026-03-18T18:15,,24.7,33.0,17.5,24.4,64,94,34,68.2,1012.6,1016.9,1008.3,1013.2,14.2,20.2,1.8,7.3,97,94.6,0.0,0.0,0.0,0.0,0.0,0,100,0,47.7,24.1,24.1,7.2,23.7,0
GL_PG,Huyện Phú Thiện - Gia Lai,Gia Lai,Phú Thiện,13.5333,108.3,2026-03-18 18:20:53,openmeteo,high,2026-03-18T18:15,,28.8,35.5,20.3,26.5,47,90,32,63.4,1010.9,1016.1,1006.9,1012.1,17.9,21.8,5.1,14.4,68,76.9,0.0,0.0,0.0,0.0,0.0,33,93,0,39.6,24.1,24.1,3.4,23.7,5
GL_DP,Huyện Đăk Pơ - Gia Lai,Gia Lai,Đăk Pơ,14.0,108.5,2026-03-18 18:20:51,openmeteo,high,2026-03-18T18:15,,21.7,30.5,16.8,22.2,73,97,43,74.5,1013.5,1017.3,1009.3,1013.8,11.5,19.6,4.3,9.2,70,67.2,0.0,0.3,0.3,0.0,0.3,49,96,0,43.3,24.1,24.1,0.6,23.7,0
GL_DC,Huyện Đăk Đoa - Gia Lai,Gia Lai,Đăk Đoa,14.1167,108.1167,2026-03-18 18:20:51,openmeteo,high,2026-03-18T18:15,,25.3,32.7,17.3,24.5,59,94,29,65.8,1012.3,1016.7,1008.3,1013.0,13.3,18.2,0.5,5.6,103,99.9,0.0,0.4,0.1,0.0,0.9,63,100,0,49.8,24.1,24.1,16.8,24.1,5
GL_DA,Huyện Đức Cơ - Gia Lai,Gia Lai,Đức Cơ,13.7833,107.6667,2026-03-18 18:20:52,openmeteo,high,2026-03-18T18:15,,30.2,36.3,21.0,28.1,47,81,30,56.1,1009.6,1015.5,1006.3,1011.1,8.3,16.3,0.4,6.3,124,138.4,0.0,0.0,0.0,0.0,0.0,66,96,0,50.4,24.1,24.1,14.5,24.0,10
GL_PC,Thành phố Pleiku - Gia Lai,Gia Lai,Pleiku,13.9833,108.0,2026-03-18 18:20:50,openmeteo,high,2026-03-18T18:15,,25.8,32.4,18.2,24.9,57,87,32,62.5,1011.8,1016.5,1007.8,1012.6,17.6,20.7,1.1,9.3,105,99.4,0.0,0.2,0.2,0.0,0.4,55,100,0,48.9,24.1,24.1,16.8,24.1,5
GL_AD,Thị xã An Khê - Gia Lai,Gia Lai,An Khê,14.0,108.6833,2026-03-18 18:20:49,openmeteo,high,2026-03-18T18:15,,22.5,31.8,16.6,23.0,70,97,41,73.4,1013.7,1017.3,1009.4,1013.9,10.1,19.8,2.9,8.3,73,51.8,0.0,0.0,0.0,0.0,0.0,49,95,0,41.4,24.1,24.1,0.6,23.6,0
GL_AY,Thị xã Ayun Pa - Gia Lai,Gia Lai,Ayun Pa,13.3833,108.4333,2026-03-18 18:20:49,openmeteo,high,2026-03-18T18:15,,28.3,35.5,20.1,26.7,57,94,34,65.3,1011.3,1016.3,1007.2,1012.3,14.8,17.7,3.0,9.4,93,82.5,0.0,0.0,0.0,0.0,0.0,34,89,0,31.4,24.1,24.1,23.3,24.1,5
HG_MK,Huyện Mèo Vạc - Hà Giang,Hà Giang,Mèo Vạc,23.1528,105.4069,2026-03-18 18:21:55,openmeteo,high,2026-03-18T18:15,,18.4,22.4,13.1,17.3,72,100,61,84.7,1012.3,1017.0,1008.4,1012.7,5.6,12.3,0.0,4.7,165,160.2,0.0,0.8,0.1,0.5,12.6,100,100,37,72.8,24.1,24.1,0.6,21.1,0
HG_DV,Huyện Đồng Văn - Hà Giang,Hà Giang,Đồng Văn,23.2547,105.25,2026-03-18 18:21:54,openmeteo,high,2026-03-18T18:15,,16.2,20.1,12.5,15.9,79,99,63,87.8,1013.4,1017.8,1009.7,1013.7,10.1,20.1,2.6,9.4,186,190.4,0.0,0.9,0.1,0.5,11.0,100,100,31,75.1,24.1,24.1,0.1,19.1,0
HG_HG,Thành phố Hà Giang - Hà Giang,Hà Giang,Hà Giang,22.8233,104.9836,2026-03-18 18:21:54,openmeteo,high,2026-03-18T18:15,,21.8,25.6,18.0,21.2,81,99,69,88.9,1012.8,1017.1,1008.8,1013.0,7.9,12.5,1.8,6.8,133,159.5,0.0,0.8,0.1,0.3,8.3,100,100,42,77.8,24.1,24.1,10.9,23.8,0
HNA_DT,Huyện Duy Tiên - Hà Nam,Hà Nam,Duy Tiên,20.6333,105.9667,2026-03-18 18:21:55,openmeteo,high,2026-03-18T18:15,,24.5,28.8,20.6,24.0,78,98,62,84.8,1012.7,1016.2,1007.8,1012.2,12.7,21.6,5.7,11.8,151,149.6,0.0,0.0,0.0,0.0,0.0,100,100,33,77.7,24.1,24.1,10.7,23.9,0
HNA_KB,Huyện Kim Bảng - Hà Nam,Hà Nam,Kim Bảng,20.5667,105.85,2026-03-18 18:21:56,openmeteo,high,2026-03-18T18:15,,24.4,29.0,20.4,24.0,78,96,63,83.1,1012.8,1016.3,1007.7,1012.2,13.4,21.0,3.9,11.0,156,153.4,0.0,0.0,0.0,0.0,0.0,100,100,30,78.5,24.1,24.1,13.1,24.0,0
HNA_PL,Thành phố Phủ Lý - Hà Nam,Hà Nam,Phủ Lý,20.5411,105.9139,2026-03-18 18:21:54,openmeteo,high,2026-03-18T18:15,,24.7,29.2,20.9,24.5,78,96,62,82.8,1012.9,1016.4,1007.8,1012.3,12.3,19.2,3.1,9.6,159,160.0,0.0,0.0,0.0,0.0,0.0,100,100,34,79.4,24.1,24.1,20.2,24.0,0
HN_BG,Huyện Ba Vì - Hà Nội,Hà Nội,Ba Vì,21.1992,105.4239,2026-03-18 18:20:18,openmeteo,high,2026-03-18T18:15,,25.9,29.4,20.7,24.3,74,97,65,84.9,1011.6,1015.9,1007.1,1011.7,14.0,19.2,4.0,10.9,125,108.9,0.0,0.4,0.4,0.1,2.4,65,100,25,81.1,24.1,24.1,17.9,24.0,5
HN_CM,Huyện Chương Mỹ - Hà Nội,Hà Nội,Chương Mỹ,20.8964,105.7039,2026-03-18 18:20:15,openmeteo,high,2026-03-18T18:15,,24.9,30.0,20.2,24.1,78,98,63,83.2,1012.4,1016.3,1007.3,1012.0,16.0,22.5,1.4,10.3,144,132.8,0.0,0.0,0.0,0.0,0.0,100,100,28,74.8,24.1,24.1,7.9,23.7,0
HN_GL,Huyện Gia Lâm - Hà Nội,Hà Nội,Gia Lâm,21.0408,105.95,2026-03-18 18:20:18,openmeteo,high,2026-03-18T18:15,,25.0,28.9,20.8,24.0,76,97,63,84.4,1012.5,1016.3,1007.6,1012.2,15.9,19.5,7.7,13.1,147,141.2,0.0,0.2,0.1,0.0,0.3,100,100,34,78.1,24.1,24.1,14.8,23.8,0
HN_HĐ,Huyện Hoài Đức - Hà Nội,Hà Nội,Hoài Đức,21.0392,105.7108,2026-03-18 18:20:15,openmeteo,high,2026-03-18T18:15,,25.2,29.7,20.6,24.2,77,98,62,84.0,1012.3,1016.2,1007.3,1012.0,16.3,21.4,5.5,12.6,145,137.2,0.0,0.1,0.1,0.0,0.1,100,100,22,75.4,24.1,24.1,7.9,23.7,5
HN_MT,Huyện Mê Linh - Hà Nội,Hà Nội,Mê Linh,21.1753,105.7219,2026-03-18 18:20:17,openmeteo,high,2026-03-18T18:15,,25.5,29.5,20.5,24.1,75,98,63,84.7,1012.1,1016.2,1007.2,1011.9,15.8,20.9,5.8,13.0,139,127.5,0.0,0.1,0.1,0.0,0.1,59,100,29,76.5,24.1,24.1,11.7,23.8,5
HN_MD,Huyện Mỹ Đức - Hà Nội,Hà Nội,Mỹ Đức,20.6472,105.7194,2026-03-18 18:20:17,openmeteo,high,2026-03-18T18:15,,23.2,28.4,19.2,23.1,81,97,63,82.9,1013.1,1016.7,1007.9,1012.4,10.9,17.6,2.5,8.2,163,159.9,0.0,0.1,0.1,0.0,0.1,100,100,46,84.2,24.1,24.1,16.8,24.0,0
HN_ML,Huyện Mỹ Đức - Hà Nội,Hà Nội,Mỹ Đức,20.6472,105.7194,2026-03-18 18:20:18,openmeteo,high,2026-03-18T18:15,,23.2,28.4,19.2,23.1,81,97,63,82.9,1013.1,1016.7,1007.9,1012.4,10.9,17.6,2.5,8.2,163,159.9,0.0,0.1,0.1,0.0,0.1,100,100,46,84.2,24.1,24.1,16.8,24.0,0
HN_PX,Huyện Phú Xuyên - Hà Nội,Hà Nội,Phú Xuyên,20.7392,105.9139,2026-03-18 18:20:16,openmeteo,high,2026-03-18T18:15,,24.6,29.0,20.5,24.0,79,98,64,85.1,1012.5,1016.3,1007.5,1012.1,14.7,21.7,6.1,12.6,152,148.0,0.0,0.1,0.1,0.0,0.1,100,100,31,75.6,24.1,24.1,10.7,23.9,0
HN_PH,Huyện Phú Xuyên - Hà Nội,Hà Nội,Phú Xuyên,20.7392,105.9139,2026-03-18 18:20:19,openmeteo,high,2026-03-18T18:15,,24.6,29.0,20.5,24.0,79,98,64,85.1,1012.5,1016.3,1007.5,1012.1,14.7,21.7,6.1,12.6,152,148.0,0.0,0.1,0.1,0.0,0.1,100,100,31,75.6,24.1,24.1,10.7,23.9,0
HN_PT,Huyện Phúc Thọ - Hà Nội,Hà Nội,Phúc Thọ,21.1031,105.5514,2026-03-18 18:20:18,openmeteo,high,2026-03-18T18:15,,25.2,29.2,20.0,24.1,76,98,64,83.3,1011.9,1016.2,1007.1,1011.8,15.1,21.3,2.2,9.7,130,116.3,0.0,0.2,0.1,0.1,1.2,60,100,43,81.4,24.1,24.1,6.9,23.8,5
HN_QO,Huyện Quốc Oai - Hà Nội,Hà Nội,Quốc Oai,20.9956,105.6119,2026-03-18 18:20:15,openmeteo,high,2026-03-18T18:15,,24.6,29.3,19.1,23.7,77,99,63,83.3,1012.2,1016.3,1007.3,1012.0,15.5,22.4,1.5,9.4,138,126.0,0.0,0.2,0.1,0.0,0.6,57,100,43,81.0,24.1,24.1,6.9,23.8,0
HN_SL,Huyện Sóc Sơn - Hà Nội,Hà Nội,Sóc Sơn,21.2578,105.8489,2026-03-18 18:20:17,openmeteo,high,2026-03-18T18:15,,25.3,29.2,20.7,24.1,75,97,63,83.9,1012.3,1016.4,1007.5,1012.1,13.8,18.9,6.9,12.7,141,133.6,0.0,0.3,0.1,0.0,0.5,68,100,39,79.4,24.1,24.1,11.7,23.8,5
HN_TO,Huyện Thanh Oai - Hà Nội,Hà Nội,Thanh Oai,20.8556,105.7722,2026-03-18 18:20:16,openmeteo,high,2026-03-18T18:15,,24.9,30.0,20.2,24.1,78,98,63,83.2,1012.4,1016.3,1007.3,1012.0,16.0,22.5,1.4,10.3,144,132.8,0.0,0.0,0.0,0.0,0.0,100,100,28,74.8,24.1,24.1,16.8,24.0,0
HN_TT2,Huyện Thường Tín - Hà Nội,Hà Nội,Thường Tín,20.87,105.8583,2026-03-18 18:20:16,openmeteo,high,2026-03-18T18:15,,24.9,29.2,20.6,24.1,78,98,62,84.2,1012.5,1016.3,1007.5,1012.1,15.2,21.3,6.7,13.1,149,145.6,0.0,0.1,0.1,0.0,0.1,100,100,33,76.8,24.1,24.1,16.8,24.0,0
HN_TT,Huyện Thạch Thất - Hà Nội,Hà Nội,Thạch Thất,21.0278,105.5564,2026-03-18 18:20:15,openmeteo,high,2026-03-18T18:15,,26.0,31.6,19.5,25.2,75,99,57,80.0,1012.2,1016.2,1007.0,1011.9,12.5,19.1,0.8,7.3,134,120.2,0.0,0.1,0.1,0.0,0.5,46,100,23,77.6,24.1,24.1,6.9,23.8,5
HN_DP,Huyện Đan Phượng - Hà Nội,Hà Nội,Đan Phượng,21.1394,105.6736,2026-03-18 18:20:15,openmeteo,high,2026-03-18T18:15,,25.5,29.6,20.5,24.2,75,98,63,84.7,1012.1,1016.2,1007.2,1011.9,15.8,20.9,5.8,13.0,139,127.5,0.0,0.1,0.1,0.0,0.1,59,100,29,76.5,24.1,24.1,11.7,23.8,5
HN_DH,Huyện Đông Anh - Hà Nội,Hà Nội,Đông Anh,21.1467,105.8464,2026-03-18 18:20:18,openmeteo,high,2026-03-18T18:15,,25.1,28.9,20.9,24.0,76,97,64,84.6,1012.3,1016.3,1007.4,1012.1,15.8,20.0,7.5,13.5,145,136.5,0.0,0.3,0.3,0.0,0.3,80,100,36,77.6,24.1,24.1,11.7,23.8,5
HN_UH,Huyện Ứng Hòa - Hà Nội,Hà Nội,Ứng Hòa,20.7292,105.8236,2026-03-18 18:20:17,openmeteo,high,2026-03-18T18:15,,24.6,29.0,20.5,24.0,79,98,64,85.1,1012.5,1016.3,1007.5,1012.1,14.7,21.7,6.1,12.6,152,148.0,0.0,0.1,0.1,0.0,0.1,100,100,31,75.6,24.1,24.1,16.8,24.0,0
HN_BD,Quận Ba Đình - Hà Nội,Hà Nội,Ba Đình,21.0338,105.8142,2026-03-18 18:20:11,openmeteo,high,2026-03-18T18:15,,25.2,29.6,20.6,24.2,77,98,62,84.0,1012.3,1016.2,1007.3,1012.0,16.3,21.4,5.5,12.6,145,137.2,0.0,0.1,0.1,0.0,0.1,100,100,22,75.4,24.1,24.1,7.9,23.7,5
HN_BTL,Quận Bắc Từ Liêm - Hà Nội,Hà Nội,Bắc Từ Liêm,21.0772,105.773,2026-03-18 18:20:14,openmeteo,high,2026-03-18T18:15,,25.4,29.5,20.4,24.1,75,98,63,84.7,1012.1,1016.2,1007.2,1011.9,15.8,20.9,5.8,13.0,139,127.5,0.0,0.1,0.1,0.0,0.1,59,100,29,76.5,24.1,24.1,7.9,23.7,5
HN_CG,Quận Cầu Giấy - Hà Nội,Hà Nội,Cầu Giấy,21.0301,105.8022,2026-03-18 18:20:12,openmeteo,high,2026-03-18T18:15,,25.2,29.7,20.6,24.2,77,98,62,84.0,1012.3,1016.2,1007.3,1012.0,16.3,21.4,5.5,12.6,145,137.2,0.0,0.1,0.1,0.0,0.1,100,100,22,75.4,24.1,24.1,7.9,23.7,5
HN_HBT,Quận Hai Bà Trưng - Hà Nội,Hà Nội,Hai Bà Trưng,21.0091,105.8606,2026-03-18 18:20:11,openmeteo,high,2026-03-18T18:15,,25.2,29.6,20.6,24.2,77,98,62,84.0,1012.3,1016.2,1007.3,1012.0,16.3,21.4,5.5,12.6,145,137.2,0.0,0.1,0.1,0.0,0.1,100,100,22,75.4,24.1,24.1,7.9,23.7,5
HN_HK,Quận Hoàn Kiếm - Hà Nội,Hà Nội,Hoàn Kiếm,21.0285,105.8542,2026-03-18 18:20:08,openmeteo,high,2026-03-18T18:15,,25.1,29.6,20.5,24.1,77,98,62,84.0,1012.3,1016.2,1007.3,1012.0,16.3,21.4,5.5,12.6,145,137.2,0.0,0.1,0.1,0.0,0.1,100,100,22,75.4,24.1,24.1,7.9,23.7,5
HN_HM,Quận Hoàng Mai - Hà Nội,Hà Nội,Hoàng Mai,20.9837,105.8636,2026-03-18 18:20:13,openmeteo,high,2026-03-18T18:15,,25.2,29.6,20.6,24.2,77,98,62,84.0,1012.3,1016.2,1007.3,1012.0,16.3,21.4,5.5,12.6,145,137.2,0.0,0.1,0.1,0.0,0.1,100,100,22,75.4,24.1,24.1,7.9,23.7,5
HN_HD,Quận Hà Đông - Hà Nội,Hà Nội,Hà Đông,20.9714,105.7788,2026-03-18 18:20:14,openmeteo,high,2026-03-18T18:15,,25.2,29.6,20.6,24.2,77,98,62,84.0,1012.3,1016.2,1007.3,1012.0,16.3,21.4,5.5,12.6,145,137.2,0.0,0.1,0.1,0.0,0.1,100,100,22,75.4,24.1,24.1,7.9,23.7,5
HN_LB,Quận Long Biên - Hà Nội,Hà Nội,Long Biên,21.054,105.8959,2026-03-18 18:20:13,openmeteo,high,2026-03-18T18:15,,25.2,29.7,20.6,24.2,77,98,62,84.0,1012.3,1016.2,1007.3,1012.0,16.3,21.4,5.5,12.6,145,137.2,0.0,0.1,0.1,0.0,0.1,100,100,22,75.4,24.1,24.1,14.8,23.8,5
HN_NTL,Quận Nam Từ Liêm - Hà Nội,Hà Nội,Nam Từ Liêm,21.0113,105.7547,2026-03-18 18:20:14,openmeteo,high,2026-03-18T18:15,,25.2,29.7,20.6,24.2,77,98,62,84.0,1012.3,1016.2,1007.3,1012.0,16.3,21.4,5.5,12.6,145,137.2,0.0,0.1,0.1,0.0,0.1,100,100,22,75.4,24.1,24.1,7.9,23.7,5
HN_TX,Quận Thanh Xuân - Hà Nội,Hà Nội,Thanh Xuân,21.001,105.8093,2026-03-18 18:20:12,openmeteo,high,2026-03-18T18:15,,25.2,29.6,20.6,24.2,77,98,62,84.0,1012.3,1016.2,1007.3,1012.0,16.3,21.4,5.5,12.6,145,137.2,0.0,0.1,0.1,0.0,0.1,100,100,22,75.4,24.1,24.1,7.9,23.7,5
HN_DD,Quận Đống Đa - Hà Nội,Hà Nội,Đống Đa,21.019,105.8315,2026-03-18 18:20:10,openmeteo,high,2026-03-18T18:15,,25.1,29.6,20.5,24.1,77,98,62,84.0,1012.3,1016.2,1007.3,1012.0,16.3,21.4,5.5,12.6,145,137.2,0.0,0.1,0.1,0.0,0.1,100,100,22,75.4,24.1,24.1,7.9,23.7,5
HN_ST,Thị xã Sơn Tây - Hà Nội,Hà Nội,Sơn Tây,21.1376,105.507,2026-03-18 18:20:14,openmeteo,high,2026-03-18T18:15,,25.2,29.2,20.0,24.1,76,98,64,83.3,1011.9,1016.2,1007.1,1011.8,15.1,21.3,2.2,9.7,130,116.3,0.0,0.2,0.1,0.1,1.2,60,100,43,81.4,24.1,24.1,17.9,24.0,5
HT_HT,Thành phố Hà Tĩnh - Hà Tĩnh,Hà Tĩnh,Hà Tĩnh,18.3333,105.9,2026-03-18 18:21:33,openmeteo,high,2026-03-18T18:15,,23.9,29.2,19.3,24.0,89,100,63,87.2,1012.6,1016.1,1008.2,1012.1,9.5,15.5,0.4,5.4,81,89.3,0.0,0.0,0.0,0.0,0.0,42,100,0,55.5,24.1,24.1,8.2,23.6,10
HT_HK,Thị xã Hồng Lĩnh - Hà Tĩnh,Hà Tĩnh,Hồng Lĩnh,18.5333,105.7167,2026-03-18 18:21:33,openmeteo,high,2026-03-18T18:15,,24.1,30.6,19.1,24.0,78,100,62,84.7,1012.6,1016.0,1007.9,1012.1,7.9,12.9,0.0,4.6,106,83.6,0.0,0.0,0.0,0.0,0.0,41,100,0,56.3,24.1,24.1,6.1,23.6,0
HT_KL,Thị xã Kỳ Anh - Hà Tĩnh,Hà Tĩnh,Kỳ Anh,18.0833,106.3,2026-03-18 18:21:33,openmeteo,high,2026-03-18T18:15,,24.0,30.5,18.6,24.0,81,100,59,84.0,1012.8,1016.0,1008.1,1012.3,9.2,14.6,0.4,6.2,132,161.7,0.0,0.0,0.0,0.0,0.0,34,100,0,55.4,24.1,24.1,10.1,23.7,0
HB_KB,Huyện Kim Bôi - Hòa Bình,Hòa Bình,Kim Bôi,20.6667,105.5333,2026-03-18 18:21:42,openmeteo,high,2026-03-18T18:15,,23.3,29.3,19.0,23.2,83,98,63,85.2,1013.3,1016.9,1007.9,1012.7,9.0,13.7,1.9,7.0,151,160.6,0.0,0.2,0.1,0.0,1.0,100,100,54,86.4,24.1,24.1,8.6,23.7,0
HB_ML,Huyện Mai Châu - Hòa Bình,Hòa Bình,Mai Châu,20.6667,105.0833,2026-03-18 18:21:42,openmeteo,high,2026-03-18T18:15,,26.8,33.6,21.1,26.4,75,99,53,80.8,1013.0,1016.6,1007.2,1012.5,6.1,11.6,1.5,5.8,140,149.8,0.0,0.9,0.1,0.0,1.2,78,100,1,76.7,24.1,24.1,0.7,22.1,5
HB_HB,Thành phố Hòa Bình - Hòa Bình,Hòa Bình,Hòa Bình,20.8133,105.3383,2026-03-18 18:21:42,openmeteo,high,2026-03-18T18:15,,24.1,29.8,19.5,23.7,79,98,61,84.9,1012.7,1016.7,1007.5,1012.4,5.6,11.3,1.0,4.8,140,147.9,0.1,0.6,0.1,0.2,5.1,64,100,40,84.7,24.1,24.1,6.9,23.2,25
HY_ML,Huyện Mỹ Hào - Hưng Yên,Hưng Yên,Mỹ Hào,20.9333,106.0667,2026-03-18 18:21:51,openmeteo,high,2026-03-18T18:15,,24.6,28.6,20.5,23.9,76,98,60,84.3,1012.7,1016.3,1007.8,1012.3,14.0,20.2,6.2,12.1,145,143.5,0.0,0.1,0.1,0.0,0.1,100,100,33,76.5,24.1,24.1,14.8,23.8,0
HY_VD,Huyện Văn Lâm - Hưng Yên,Hưng Yên,Văn Lâm,20.9833,106.0333,2026-03-18 18:21:50,openmeteo,high,2026-03-18T18:15,,25.0,28.9,20.8,24.0,76,97,63,84.4,1012.5,1016.3,1007.6,1012.2,15.9,19.5,7.7,13.1,147,141.2,0.0,0.2,0.1,0.0,0.3,100,100,34,78.1,24.1,24.1,14.8,23.8,0
HY_HY,Thành phố Hưng Yên - Hưng Yên,Hưng Yên,Hưng Yên,20.6461,106.0511,2026-03-18 18:21:50,openmeteo,high,2026-03-18T18:15,,24.4,28.7,20.5,23.9,78,98,62,84.8,1012.7,1016.2,1007.8,1012.2,12.7,21.6,5.7,11.8,151,149.6,0.0,0.0,0.0,0.0,0.0,100,100,33,77.7,24.1,24.1,10.7,23.9,0
HD_CM,Huyện Cẩm Giàng - Hải Dương,Hải Dương,Cẩm Giàng,20.95,106.2167,2026-03-18 18:21:50,openmeteo,high,2026-03-18T18:15,,24.8,29.2,20.5,23.9,79,98,63,84.9,1012.8,1016.3,1007.8,1012.4,14.8,20.0,5.4,11.7,141,140.8,0.0,0.2,0.1,0.0,0.5,100,100,35,77.8,24.1,24.1,14.3,24.0,0
HD_HD,Thành phố Hải Dương - Hải Dương,Hải Dương,Hải Dương,20.9397,106.3308,2026-03-18 18:21:49,openmeteo,high,2026-03-18T18:15,,24.0,28.2,20.3,23.6,82,98,66,85.8,1013.0,1016.4,1008.2,1012.5,15.3,23.1,4.1,12.0,141,137.1,0.0,0.3,0.1,0.0,0.7,100,100,45,78.1,24.1,24.1,14.3,24.0,0
HD_CL,Thị xã Kinh Môn - Hải Dương,Hải Dương,Kinh Môn,21.0167,106.5,2026-03-18 18:21:50,openmeteo,high,2026-03-18T18:15,,23.6,27.3,20.3,23.3,81,97,66,85.2,1013.1,1016.5,1008.7,1012.6,14.3,22.4,2.2,10.7,137,127.4,0.0,0.2,0.1,0.0,0.6,100,100,38,76.1,24.1,24.1,19.8,24.0,0
HP_AC,Huyện An Dương - Hải Phòng,Hải Phòng,An Dương,20.8667,106.6167,2026-03-18 18:20:27,openmeteo,high,2026-03-18T18:15,,23.4,27.6,20.4,23.2,85,98,63,86.2,1013.3,1016.6,1008.9,1012.7,14.0,22.4,1.3,11.0,136,125.1,0.0,0.0,0.0,0.0,0.0,100,100,31,75.8,24.1,24.1,8.6,23.8,0
HP_AL,Huyện An Lão - Hải Phòng,Hải Phòng,An Lão,20.8167,106.55,2026-03-18 18:20:27,openmeteo,high,2026-03-18T18:15,,23.5,27.8,20.1,23.3,83,99,66,86.4,1013.1,1016.4,1008.5,1012.6,15.3,25.0,3.3,12.5,137,132.8,0.0,0.2,0.1,0.0,0.4,100,100,37,77.5,24.1,24.1,8.6,23.8,0
HP_BH,Huyện Bạch Long Vĩ - Hải Phòng,Hải Phòng,Bạch Long Vĩ,20.1333,107.7333,2026-03-18 18:20:29,openmeteo,high,2026-03-18T18:15,,22.9,24.1,22.1,23.2,91,94,82,89.9,1013.8,1016.6,1009.8,1013.0,9.1,15.0,1.3,8.3,81,106.7,0.0,0.1,0.1,0.0,0.1,34,100,0,53.2,24.1,24.1,18.2,24.0,10
HP_CH,Huyện Cát Hải - Hải Phòng,Hải Phòng,Cát Hải,20.7264,107.0489,2026-03-18 18:20:28,openmeteo,high,2026-03-18T18:15,,22.7,26.4,20.5,22.8,86,95,65,85.8,1013.5,1016.8,1009.3,1012.9,10.5,16.9,1.3,9.2,131,115.1,0.0,0.0,0.0,0.0,0.0,54,100,10,72.7,24.1,24.1,6.9,22.8,10
HP_KL,Huyện Kiến Thụy - Hải Phòng,Hải Phòng,Kiến Thụy,20.75,106.6667,2026-03-18 18:20:27,openmeteo,high,2026-03-18T18:15,,23.3,27.1,20.6,23.3,87,97,66,87.2,1013.3,1016.6,1009.0,1012.7,13.2,21.1,1.8,10.8,137,127.6,0.0,0.0,0.0,0.0,0.0,86,100,7,75.1,24.1,24.1,7.9,23.5,10
HP_TL,Huyện Thủy Nguyên - Hải Phòng,Hải Phòng,Thủy Nguyên,20.9583,106.6667,2026-03-18 18:20:27,openmeteo,high,2026-03-18T18:15,,23.8,27.5,20.5,23.5,81,97,66,85.2,1013.1,1016.5,1008.7,1012.6,14.3,22.4,2.2,10.7,137,127.4,0.0,0.2,0.1,0.0,0.6,100,100,38,76.1,24.1,24.1,19.4,24.0,0
HP_TH,Huyện Tiên Lãng - Hải Phòng,Hải Phòng,Tiên Lãng,20.7333,106.55,2026-03-18 18:20:28,openmeteo,high,2026-03-18T18:15,,23.5,27.6,20.2,23.3,84,99,67,86.7,1013.1,1016.4,1008.5,1012.6,15.5,25.0,2.5,12.6,136,134.4,0.0,0.3,0.1,0.0,0.5,100,100,34,77.2,24.1,24.1,8.6,23.8,0
HP_VB,Huyện Vĩnh Bảo - Hải Phòng,Hải Phòng,Vĩnh Bảo,20.7,106.4667,2026-03-18 18:20:28,openmeteo,high,2026-03-18T18:15,,23.5,27.6,20.2,23.3,84,99,67,86.7,1013.1,1016.4,1008.5,1012.6,15.5,25.0,2.5,12.6,136,134.4,0.0,0.3,0.1,0.0,0.5,100,100,34,77.2,24.1,24.1,8.6,23.8,0
HP_DS,Quận Dương Kinh - Hải Phòng,Hải Phòng,Dương Kinh,20.8025,106.6669,2026-03-18 18:20:27,openmeteo,high,2026-03-18T18:15,,23.3,27.1,20.6,23.3,87,97,66,87.2,1013.3,1016.6,1009.0,1012.7,13.2,21.1,1.8,10.8,137,127.6,0.0,0.0,0.0,0.0,0.0,86,100,7,75.1,24.1,24.1,7.9,23.5,10
HP_HA,Quận Hải An - Hải Phòng,Hải Phòng,Hải An,20.8378,106.7377,2026-03-18 18:20:26,openmeteo,high,2026-03-18T18:15,,23.4,27.5,20.5,23.3,84,96,62,85.2,1013.4,1016.7,1009.1,1012.8,12.5,19.9,1.6,9.8,134,117.5,0.0,0.0,0.0,0.0,0.0,100,100,29,74.7,24.1,24.1,7.9,23.5,0
HP_KS,Quận Kiến An - Hải Phòng,Hải Phòng,Kiến An,20.8075,106.6264,2026-03-18 18:20:26,openmeteo,high,2026-03-18T18:15,,23.2,27.0,20.5,23.2,87,97,66,87.2,1013.3,1016.6,1009.0,1012.7,13.2,21.1,1.8,10.8,137,127.6,0.0,0.0,0.0,0.0,0.0,86,100,7,75.1,24.1,24.1,7.9,23.5,10
HP_LC,Quận Lê Chân - Hải Phòng,Hải Phòng,Lê Chân,20.8516,106.6822,2026-03-18 18:20:25,openmeteo,high,2026-03-18T18:15,,23.4,27.6,20.4,23.2,85,98,63,86.2,1013.3,1016.6,1008.9,1012.7,14.0,22.4,1.3,11.0,136,125.1,0.0,0.0,0.0,0.0,0.0,100,100,31,75.8,24.1,24.1,7.9,23.5,0
HP_NQ,Quận Ngô Quyền - Hải Phòng,Hải Phòng,Ngô Quyền,20.858,106.7053,2026-03-18 18:20:25,openmeteo,high,2026-03-18T18:15,,23.4,27.5,20.5,23.3,84,96,62,85.2,1013.4,1016.7,1009.1,1012.8,12.5,19.9,1.6,9.8,134,117.5,0.0,0.0,0.0,0.0,0.0,100,100,29,74.7,24.1,24.1,7.9,23.5,0
HP_DK,Quận Đồ Sơn - Hải Phòng,Hải Phòng,Đồ Sơn,20.7278,106.7733,2026-03-18 18:20:26,openmeteo,high,2026-03-18T18:15,,23.0,26.7,20.8,23.2,89,97,68,87.8,1013.5,1016.8,1009.3,1012.9,11.2,17.1,2.3,10.3,132,123.6,0.0,0.0,0.0,0.0,0.0,51,100,10,72.9,24.1,24.1,7.9,23.5,10
HP_CB,Đảo Cát Bà - Hải Phòng,Hải Phòng,Cát Hải,20.7264,107.0489,2026-03-18 18:21:59,openmeteo,high,2026-03-18T18:15,,22.7,26.4,20.5,22.8,86,95,65,85.8,1013.5,1016.8,1009.3,1012.9,10.5,16.9,1.3,9.2,131,115.1,0.0,0.0,0.0,0.0,0.0,54,100,10,72.7,24.1,24.1,6.9,22.8,10
HG_CL,Huyện Châu Thành - Hậu Giang,Hậu Giang,Châu Thành,9.9333,105.6833,2026-03-18 18:21:23,openmeteo,high,2026-03-18T18:15,,29.9,34.6,22.8,28.1,55,93,38,69.5,1009.9,1014.5,1006.7,1010.8,11.9,18.5,1.8,9.3,119,113.0,0.0,0.0,0.0,0.0,0.0,46,100,0,59.0,24.1,24.1,24.1,24.1,5
HG_CT,Huyện Châu Thành A - Hậu Giang,Hậu Giang,Châu Thành A,9.9333,105.6333,2026-03-18 18:21:23,openmeteo,high,2026-03-18T18:15,,29.9,34.6,22.8,28.1,55,93,38,69.5,1009.9,1014.5,1006.7,1010.8,11.9,18.5,1.8,9.3,119,113.0,0.0,0.0,0.0,0.0,0.0,46,100,0,59.0,24.1,24.1,24.1,24.1,5
HG_LT,Huyện Long Mỹ - Hậu Giang,Hậu Giang,Long Mỹ,9.6833,105.5667,2026-03-18 18:21:33,statistical,medium,2026-03-18T18:21:33.385320,,29.8,34.1,23.6,28.9,67,85,65,75.3,1007.0,1020.0,1006.0,1014.4,1.4,5.6,1.0,3.5,326,322.5,4.9,7.7,0.6,0.8,19.4,49,74,47,58.6,15.2,15.3,10.1,12.6,10
HG_PB,Huyện Phụng Hiệp - Hậu Giang,Hậu Giang,Phụng Hiệp,9.7833,105.7167,2026-03-18 18:21:23,openmeteo,high,2026-03-18T18:15,,29.1,34.3,22.9,27.9,60,93,40,70.4,1010.2,1014.4,1006.9,1010.9,13.5,19.1,2.3,9.8,119,108.8,0.0,0.0,0.0,0.0,0.0,25,100,0,58.4,24.1,24.1,24.1,24.1,5
HG_VT2,Huyện Vị Thủy - Hậu Giang,Hậu Giang,Vị Thủy,9.7667,105.4667,2026-03-18 18:21:24,openmeteo,high,2026-03-18T18:15,,29.9,34.8,23.0,28.0,56,93,40,70.0,1009.9,1014.5,1006.7,1010.8,13.0,17.8,2.9,9.5,118,109.3,0.0,0.0,0.0,0.0,0.0,43,100,0,59.8,24.1,24.1,23.5,24.1,5
HG_VT,Thành phố Vị Thanh - Hậu Giang,Hậu Giang,Vị Thanh,9.7833,105.4667,2026-03-18 18:21:22,openmeteo,high,2026-03-18T18:15,,29.9,34.8,23.0,28.0,56,93,40,70.0,1009.9,1014.5,1006.7,1010.8,13.0,17.8,2.9,9.5,118,109.3,0.0,0.0,0.0,0.0,0.0,43,100,0,59.8,24.1,24.1,23.5,24.1,5
HG_NM,Thị xã Ngã Bảy - Hậu Giang,Hậu Giang,Ngã Bảy,9.8167,105.8167,2026-03-18 18:21:22,openmeteo,high,2026-03-18T18:15,,29.4,34.6,22.6,28.0,58,93,38,69.4,1010.1,1014.5,1006.8,1010.9,13.0,20.0,1.4,10.0,114,111.6,0.0,0.0,0.0,0.0,0.0,33,97,0,57.1,24.1,24.1,24.1,24.1,5
KH_TS,Huyện Trường Sa - Khánh Hòa,Khánh Hòa,Trường Sa,8.65,111.9167,2026-03-18 18:21:37,openmeteo,high,2026-03-18T18:15,,27.0,27.7,25.5,26.9,74,83,68,75.9,1011.1,1014.2,1008.3,1011.2,18.8,26.8,11.7,20.7,47,55.6,0.0,0.3,0.1,0.1,2.7,30,100,2,60.9,24.1,24.1,23.6,24.1,5
KH_CT,Thành phố Cam Ranh - Khánh Hòa,Khánh Hòa,Cam Ranh,11.9,109.1333,2026-03-18 18:21:37,openmeteo,high,2026-03-18T18:15,,22.7,30.1,16.8,23.0,78,98,51,79.0,1013.4,1016.5,1009.9,1013.6,8.6,15.8,2.9,7.3,57,30.9,0.0,0.0,0.0,0.0,0.0,50,87,0,47.4,24.1,24.1,24.1,24.1,0
KH_NT,Thành phố Nha Trang - Khánh Hòa,Khánh Hòa,Nha Trang,12.25,109.1833,2026-03-18 18:21:37,openmeteo,high,2026-03-18T18:15,,24.8,32.1,18.7,25.1,76,98,49,78.0,1012.9,1016.3,1009.4,1013.1,4.3,13.0,0.7,5.6,90,321.8,0.0,0.0,0.0,0.0,0.0,0,91,0,37.4,24.1,24.1,24.1,24.1,0
KH_NH,Thị xã Ninh Hòa - Khánh Hòa,Khánh Hòa,Ninh Hòa,12.5,109.15,2026-03-18 18:21:37,openmeteo,high,2026-03-18T18:15,,24.8,32.8,18.4,24.9,74,100,46,79.6,1013.0,1016.4,1009.1,1013.0,7.2,18.2,0.8,6.3,72,11.1,0.0,0.0,0.0,0.0,0.0,52,82,0,45.8,24.1,24.1,24.1,24.1,0
KH_HS,Đảo Hoàng Sa - Khánh Hòa,Khánh Hòa,Hoàng Sa,16.5322,111.6156,2026-03-18 18:22:00,openmeteo,high,2026-03-18T19:15,,25.0,26.0,24.3,25.2,76,84,68,77.1,1013.8,1016.4,1010.3,1013.3,9.1,18.7,4.5,13.2,56,98.1,0.0,0.1,0.1,0.0,0.3,48,87,0,42.7,24.1,24.1,24.1,24.1,0
KH_TS,Đảo Trường Sa - Khánh Hòa,Khánh Hòa,Trường Sa,8.65,111.9167,2026-03-18 18:22:00,openmeteo,high,2026-03-18T18:15,,27.0,27.7,25.5,26.9,74,83,68,75.9,1011.1,1014.2,1008.3,1011.2,18.8,26.8,11.7,20.7,47,55.6,0.0,0.3,0.1,0.1,2.7,30,100,2,60.9,24.1,24.1,23.6,24.1,5
KG_AT,Huyện An Biên - Kiên Giang,Kiên Giang,An Biên,9.8167,105.0667,2026-03-18 18:21:07,openmeteo,high,2026-03-18T18:15,,28.7,32.1,24.9,27.8,74,89,53,75.0,1010.1,1014.6,1007.1,1010.9,13.2,18.8,1.4,12.1,235,124.8,0.0,0.1,0.1,0.0,0.4,59,100,0,56.7,24.1,24.1,5.6,23.9,5
KG_AM,Huyện An Minh - Kiên Giang,Kiên Giang,An Minh,9.6667,104.95,2026-03-18 18:21:08,openmeteo,high,2026-03-18T18:15,,28.5,33.3,24.4,27.7,72,91,47,75.8,1010.1,1014.5,1007.4,1010.9,13.8,20.6,1.1,12.1,227,122.6,0.0,0.1,0.1,0.1,1.2,57,100,4,57.4,24.1,24.1,5.6,23.9,5
KG_CL,Huyện Châu Thành - Kiên Giang,Kiên Giang,Châu Thành,9.9333,105.1667,2026-03-18 18:21:08,openmeteo,high,2026-03-18T18:15,,28.7,32.2,24.9,27.9,74,89,53,75.0,1010.1,1014.6,1007.1,1010.9,13.2,18.8,1.4,12.1,235,124.8,0.0,0.1,0.1,0.0,0.4,59,100,0,56.7,24.1,24.1,22.5,24.1,5
KG_GT,Huyện Giang Thành - Kiên Giang,Kiên Giang,Giang Thành,10.4833,104.6333,2026-03-18 18:21:09,openmeteo,high,2026-03-18T18:15,,28.8,35.3,23.5,28.8,63,89,41,68.6,1009.8,1014.8,1006.9,1010.8,10.3,16.9,1.5,7.5,234,156.6,0.0,0.3,0.1,0.0,0.7,9,100,0,57.8,24.1,24.1,22.1,24.1,5
KG_GD,Huyện Gò Quao - Kiên Giang,Kiên Giang,Gò Quao,9.7333,105.2667,2026-03-18 18:21:08,openmeteo,high,2026-03-18T18:15,,30.8,35.7,23.4,28.6,54,92,35,67.7,1009.7,1014.5,1006.4,1010.8,4.5,17.7,3.6,9.2,166,113.4,0.0,0.0,0.0,0.0,0.0,83,100,3,66.3,24.1,24.1,16.2,24.1,10
KG_HG,Huyện Hòn Đất - Kiên Giang,Kiên Giang,Hòn Đất,10.2333,104.9333,2026-03-18 18:21:08,openmeteo,high,2026-03-18T18:15,,28.6,31.7,25.2,28.1,71,84,58,74.0,1009.8,1014.7,1007.1,1010.9,9.3,14.5,4.6,10.4,257,158.5,0.0,0.2,0.1,0.0,1.1,40,99,0,52.0,24.1,24.1,24.0,24.1,5
KG_KT,Huyện Kiên Hải - Kiên Giang,Kiên Giang,Kiên Hải,9.71,104.33,2026-03-18 18:21:09,openmeteo,high,2026-03-18T18:15,,28.2,29.0,26.1,27.7,72,84,69,76.4,1010.1,1014.5,1007.5,1011.0,13.0,20.1,1.5,12.9,219,146.0,0.0,0.3,0.1,0.1,2.2,0,100,0,43.9,24.1,24.1,20.6,24.1,5
KG_LS,Huyện Kiên Lương - Kiên Giang,Kiên Giang,Kiên Lương,10.25,104.6333,2026-03-18 18:21:10,openmeteo,high,2026-03-18T18:15,,28.9,29.7,26.0,28.1,68,82,67,75.0,1009.9,1014.6,1007.2,1010.9,8.3,17.6,7.4,11.9,236,170.1,0.0,0.3,0.1,0.2,3.9,13,100,0,42.2,24.1,24.1,23.8,24.1,5
KG_PQ,Huyện Phú Quốc - Kiên Giang,Kiên Giang,Phú Quốc,10.227,103.9679,2026-03-18 18:21:07,openmeteo,high,2026-03-18T18:15,,28.7,30.9,26.5,28.5,69,85,59,73.9,1010.1,1014.4,1007.5,1010.9,10.4,17.0,3.8,9.6,194,162.5,0.0,0.4,0.1,0.4,9.7,0,100,0,51.1,24.1,24.1,14.8,24.0,5
KG_TG,Huyện Tân Hiệp - Kiên Giang,Kiên Giang,Tân Hiệp,10.1,105.2833,2026-03-18 18:21:09,openmeteo,high,2026-03-18T18:15,,30.8,36.0,23.0,28.6,56,92,35,67.9,1009.6,1014.6,1006.4,1010.8,7.0,15.4,2.2,8.1,192,122.0,0.0,0.1,0.1,0.0,0.3,64,100,20,67.3,24.1,24.1,22.5,24.1,10
KG_UM,Huyện U Minh Thượng - Kiên Giang,Kiên Giang,U Minh Thượng,9.6,105.1,2026-03-18 18:21:09,openmeteo,high,2026-03-18T18:15,,29.1,35.5,22.8,28.0,66,95,36,71.1,1010.1,1014.5,1006.6,1010.8,10.3,17.5,2.6,7.9,234,114.2,0.0,0.0,0.0,0.0,0.0,81,100,2,66.4,24.1,24.1,17.3,24.0,5
KG_VT,Huyện Vĩnh Thuận - Kiên Giang,Kiên Giang,Vĩnh Thuận,9.5333,105.25,2026-03-18 18:21:10,openmeteo,high,2026-03-18T18:15,,29.7,34.9,22.8,27.8,58,95,39,71.3,1009.9,1014.4,1006.6,1010.8,6.9,18.1,3.1,8.8,141,106.4,0.0,0.0,0.0,0.0,0.0,70,100,8,61.3,24.1,24.1,24.0,24.1,5
KG_HN,Thành phố Hà Tiên - Kiên Giang,Kiên Giang,Hà Tiên,10.3833,104.4833,2026-03-18 18:21:07,openmeteo,high,2026-03-18T18:15,,28.4,29.6,25.7,27.8,70,85,68,76.0,1009.9,1014.7,1007.3,1010.9,8.7,15.5,5.8,10.9,210,178.6,0.0,0.4,0.1,0.2,5.7,0,100,0,42.4,24.1,24.1,17.8,24.0,5
KG_RG,Thành phố Rạch Giá - Kiên Giang,Kiên Giang,Rạch Giá,10.0317,105.0809,2026-03-18 18:21:07,openmeteo,high,2026-03-18T18:15,,28.9,34.1,24.5,28.3,75,88,42,71.5,1009.9,1014.6,1006.8,1010.8,9.8,15.9,1.1,9.2,234,130.2,0.0,0.2,0.1,0.0,0.7,46,100,3,61.8,24.1,24.1,22.5,24.1,5
KG_ND,Đảo Nam Du - Kiên Giang,Kiên Giang,Kiên Hải,9.71,104.33,2026-03-18 18:22:01,openmeteo,high,2026-03-18T18:15,,28.2,29.0,26.1,27.7,72,84,69,76.4,1010.1,1014.5,1007.5,1011.0,13.0,20.1,1.5,12.9,219,146.0,0.0,0.3,0.1,0.1,2.2,0,100,0,43.9,24.1,24.1,20.6,24.1,5
KG_PQ2,Đảo Phú Quốc - Kiên Giang,Kiên Giang,Phú Quốc,10.227,103.9679,2026-03-18 18:22:01,openmeteo,high,2026-03-18T18:15,,28.7,30.9,26.5,28.5,69,85,59,73.9,1010.1,1014.4,1007.5,1010.9,10.4,17.0,3.8,9.6,194,162.5,0.0,0.4,0.1,0.4,9.7,0,100,0,51.1,24.1,24.1,14.8,24.0,5
KG_TC,Đảo Thổ Chu - Kiên Giang,Kiên Giang,Phú Quốc,9.3,103.4833,2026-03-18 18:22:02,openmeteo,high,2026-03-18T18:15,,27.1,27.7,26.0,27.0,73,83,67,75.4,1010.5,1014.2,1007.9,1010.9,8.4,19.8,3.8,12.1,149,131.0,0.0,0.5,0.1,0.2,5.2,16,100,2,52.1,24.1,24.1,24.1,24.1,5
KT_NH,Huyện Ngọc Hồi - Kon Tum,Kon Tum,Ngọc Hồi,14.7,107.8333,2026-03-18 18:21:56,openmeteo,high,2026-03-18T18:15,,27.3,32.4,17.9,25.2,51,96,36,70.3,1011.5,1016.4,1008.8,1012.6,7.1,11.8,0.5,4.3,105,102.8,0.0,2.8,0.1,0.6,15.4,92,100,0,51.4,24.1,24.1,10.0,23.4,5
KT_DG,Huyện Đắk Glei - Kon Tum,Kon Tum,Đắk Glei,15.0167,107.75,2026-03-18 18:21:56,openmeteo,high,2026-03-18T18:15,,25.6,32.2,18.1,24.6,56,98,34,75.9,1013.2,1016.9,1010.2,1013.9,5.8,10.6,0.4,4.4,7,359.4,0.0,2.7,0.1,0.5,12.3,82,100,0,56.7,24.1,24.1,8.2,22.3,5
KT_KT,Thành phố Kon Tum - Kon Tum,Kon Tum,Kon Tum,14.3833,107.9833,2026-03-18 18:21:56,openmeteo,high,2026-03-18T18:15,,27.8,34.2,19.3,26.5,51,95,30,64.5,1011.3,1016.3,1007.6,1012.3,16.1,19.2,0.4,4.3,70,89.8,0.0,1.5,0.1,0.3,6.8,54,100,0,46.6,24.1,24.1,14.8,24.0,5
LC_PT,Huyện Phong Thổ - Lai Châu,Lai Châu,Phong Thổ,22.5333,103.3333,2026-03-18 18:21:42,openmeteo,high,2026-03-18T18:15,,24.3,31.4,15.3,22.0,56,100,33,74.7,1010.7,1016.5,1005.6,1011.4,5.9,12.3,0.8,4.8,128,181.3,0.0,1.0,0.1,0.5,11.6,8,100,0,51.2,24.1,24.1,13.3,23.9,0
LC_TN,Huyện Tam Đường - Lai Châu,Lai Châu,Tam Đường,22.3667,103.6167,2026-03-18 18:21:42,openmeteo,high,2026-03-18T18:15,,18.2,24.1,12.1,16.9,60,96,36,72.8,1011.8,1016.9,1007.1,1012.2,3.4,18.9,0.7,7.3,212,135.1,0.0,2.3,0.1,1.3,30.2,95,100,0,49.5,24.1,24.1,9.1,23.9,0
LC_LC,Thành phố Lai Châu - Lai Châu,Lai Châu,Lai Châu,22.4,103.45,2026-03-18 18:21:40,openmeteo,high,2026-03-18T18:15,,25.0,30.3,17.6,23.0,60,94,35,71.9,1011.2,1016.6,1006.5,1011.8,1.3,15.4,1.1,5.8,146,131.9,0.0,2.3,0.1,1.4,34.1,51,100,0,49.6,24.1,24.1,4.5,21.7,0
LA_DH,Huyện Đức Hòa - Long An,Long An,Đức Hòa,10.8833,106.4167,2026-03-18 18:21:58,openmeteo,high,2026-03-18T18:15,,29.1,35.7,22.4,28.1,56,92,38,68.5,1009.9,1014.6,1006.5,1010.8,21.5,21.5,3.6,10.9,157,135.7,0.0,0.0,0.0,0.0,0.0,39,99,0,57.0,24.1,24.1,24.1,24.1,5
LA_TA,Thành phố Tân An - Long An,Long An,Tân An,10.5333,106.4167,2026-03-18 18:21:57,openmeteo,high,2026-03-18T18:15,,27.7,33.8,23.1,27.6,62,93,39,71.2,1010.5,1014.4,1007.4,1011.0,14.9,21.1,4.5,12.4,127,123.6,0.0,0.0,0.0,0.0,0.0,0,94,0,53.5,24.1,24.1,24.1,24.1,5
LA_KT,Thị xã Kiến Tường - Long An,Long An,Kiến Tường,10.7667,105.9,2026-03-18 18:21:57,openmeteo,high,2026-03-18T18:15,,30.2,35.1,22.8,28.1,56,94,41,69.7,1009.5,1014.7,1006.5,1010.8,6.6,15.8,4.3,9.5,131,133.3,0.0,0.0,0.0,0.0,0.0,53,99,0,57.5,24.1,24.1,22.3,24.1,10
LC_BT,Huyện Bát Xát - Lào Cai,Lào Cai,Bát Xát,22.5333,103.8833,2026-03-18 18:21:57,openmeteo,high,2026-03-18T18:15,,19.8,25.8,15.4,19.6,57,98,41,70.1,1013.4,1017.4,1008.9,1013.4,4.6,19.1,1.9,7.3,231,222.9,0.0,1.7,0.1,0.7,17.9,39,100,0,56.6,24.1,24.1,11.6,22.0,0
LC_SM,Huyện Sa Pa - Lào Cai,Lào Cai,Sa Pa,22.3367,103.84,2026-03-18 18:21:57,openmeteo,high,2026-03-18T18:15,,21.7,27.6,16.0,20.7,59,97,38,73.7,1012.5,1017.2,1007.9,1012.8,4.8,22.4,1.3,7.4,222,137.7,0.0,2.2,0.1,1.2,28.4,83,100,0,47.1,24.1,24.1,5.3,19.7,0
LC_LC2,Thành phố Lào Cai - Lào Cai,Lào Cai,Lào Cai,22.4833,103.95,2026-03-18 18:21:56,openmeteo,high,2026-03-18T18:15,,24.9,29.3,19.5,23.6,78,100,60,84.7,1011.2,1016.1,1006.9,1011.8,7.1,13.8,0.4,5.6,105,72.2,0.0,0.6,0.1,0.5,12.6,100,100,28,76.2,24.1,24.1,11.6,22.0,0
LD_BD,Huyện Bảo Lâm - Lâm Đồng,Lâm Đồng,Bảo Lâm,11.7,107.7167,2026-03-18 18:20:54,openmeteo,high,2026-03-18T18:15,,25.6,33.1,16.5,24.2,63,96,30,70.1,1011.2,1015.8,1007.2,1012.1,6.9,11.9,1.3,5.0,227,80.9,0.0,0.3,0.2,0.0,0.5,82,95,0,50.9,24.1,24.1,16.8,24.0,5
LD_CD,Huyện Cát Tiên - Lâm Đồng,Lâm Đồng,Cát Tiên,11.5833,107.35,2026-03-18 18:20:54,openmeteo,high,2026-03-18T18:15,,28.6,34.8,20.9,26.8,60,96,39,70.7,1010.0,1015.0,1006.8,1011.2,8.3,14.7,0.0,4.3,178,216.0,0.0,0.2,0.1,0.0,0.3,68,88,0,57.6,24.1,24.1,24.1,24.1,5
LD_DD,Huyện Di Linh - Lâm Đồng,Lâm Đồng,Di Linh,11.5833,108.0667,2026-03-18 18:20:55,openmeteo,high,2026-03-18T18:15,,22.8,30.3,14.0,21.0,68,100,32,76.5,1012.5,1016.8,1008.5,1013.4,7.7,14.3,1.3,4.8,169,92.7,0.0,0.4,0.1,0.0,0.7,76,95,0,54.9,24.1,24.1,18.5,24.0,0
LD_LH,Huyện Lâm Hà - Lâm Đồng,Lâm Đồng,Lâm Hà,11.8333,108.2,2026-03-18 18:20:56,openmeteo,high,2026-03-18T18:15,,24.3,32.3,13.8,22.5,59,100,28,69.9,1012.6,1016.8,1008.6,1013.7,2.5,13.5,1.1,5.7,352,93.5,0.0,0.0,0.0,0.0,0.0,84,92,0,44.1,24.1,24.1,21.9,24.1,0
LD_LC,Huyện Lạc Dương - Lâm Đồng,Lâm Đồng,Lạc Dương,12.0,108.4333,2026-03-18 18:20:56,openmeteo,high,2026-03-18T18:15,,19.6,27.5,12.9,19.2,58,95,30,58.4,1013.6,1017.2,1009.5,1014.3,6.0,16.3,1.3,7.8,17,49.0,0.0,0.1,0.1,0.0,0.1,5,97,0,27.5,24.1,24.1,4.5,23.5,0
LD_DT2,Huyện Đam Rông - Lâm Đồng,Lâm Đồng,Đam Rông,12.0833,108.1667,2026-03-18 18:20:55,openmeteo,high,2026-03-18T18:15,,27.1,34.6,16.3,25.2,47,100,25,66.8,1011.2,1016.5,1007.4,1012.4,8.6,15.0,0.4,5.6,15,42.8,0.0,0.0,0.0,0.0,0.0,45,100,0,33.7,24.1,24.1,10.5,24.0,5
LD_DL2,Huyện Đơn Dương - Lâm Đồng,Lâm Đồng,Đơn Dương,11.75,108.55,2026-03-18 18:20:56,openmeteo,high,2026-03-18T18:15,,21.6,29.0,11.6,20.7,76,99,33,71.1,1013.5,1017.0,1009.7,1014.2,9.1,15.9,2.2,8.4,124,91.8,0.0,0.0,0.0,0.0,0.0,61,94,0,40.1,24.1,24.1,0.7,23.5,0
LD_DH,Huyện Đạ Huoai - Lâm Đồng,Lâm Đồng,Đạ Huoai,11.4167,107.6333,2026-03-18 18:20:54,openmeteo,high,2026-03-18T18:15,,28.0,34.9,20.8,27.1,66,98,41,73.7,1010.4,1014.9,1006.9,1011.3,11.2,15.5,0.0,4.7,165,155.1,0.0,0.9,0.1,0.0,1.1,37,89,0,57.3,24.1,24.1,23.5,24.1,5
LD_DT,Huyện Đạ Tẻh - Lâm Đồng,Lâm Đồng,Đạ Tẻh,11.5,107.5167,2026-03-18 18:20:55,openmeteo,high,2026-03-18T18:15,,29.1,36.1,21.0,27.6,58,97,32,70.2,1009.9,1014.8,1006.5,1011.0,13.7,14.8,0.4,3.8,175,226.6,0.0,1.9,1.1,0.1,3.0,50,100,0,55.5,24.1,24.1,22.6,24.1,5
LD_DR,Huyện Đức Trọng - Lâm Đồng,Lâm Đồng,Đức Trọng,11.7333,108.3,2026-03-18 18:20:55,openmeteo,high,2026-03-18T18:15,,25.1,31.9,14.8,22.2,59,100,28,73.8,1012.0,1016.8,1008.1,1013.3,2.6,16.8,1.1,5.2,124,99.7,0.0,0.1,0.1,0.0,0.1,76,96,0,50.8,24.1,24.1,21.9,24.1,5
LD_BA,Thành phố Bảo Lộc - Lâm Đồng,Lâm Đồng,Bảo Lộc,11.55,107.8,2026-03-18 18:20:54,openmeteo,high,2026-03-18T18:15,,25.2,31.7,18.1,24.3,66,93,42,73.7,1010.9,1015.3,1007.7,1011.8,5.1,10.8,0.4,6.3,176,123.2,0.0,0.8,0.1,0.1,1.5,52,96,0,50.8,24.1,24.1,23.5,24.1,5
LD_DL,Thành phố Đà Lạt - Lâm Đồng,Lâm Đồng,Đà Lạt,11.9404,108.4587,2026-03-18 18:20:54,openmeteo,high,2026-03-18T18:15,,20.2,28.2,13.6,19.8,58,95,30,58.4,1013.6,1017.2,1009.5,1014.3,6.0,16.3,1.3,7.8,17,49.0,0.0,0.1,0.1,0.0,0.1,5,97,0,27.5,24.1,24.1,4.5,23.5,0
LS_CL,Huyện Cao Lộc - Lạng Sơn,Lạng Sơn,Cao Lộc,21.9,106.8,2026-03-18 18:21:43,openmeteo,high,2026-03-18T18:15,,22.1,26.8,17.3,21.6,85,99,69,85.7,1013.2,1017.1,1008.7,1013.2,8.6,16.3,1.8,7.2,178,173.4,0.0,0.1,0.1,0.0,0.5,49,100,39,76.9,24.1,24.1,20.0,24.1,0
LS_LL,Huyện Lộc Bình - Lạng Sơn,Lạng Sơn,Lộc Bình,21.75,106.9333,2026-03-18 18:21:43,openmeteo,high,2026-03-18T18:15,,22.2,27.0,16.9,21.6,81,100,65,84.0,1013.5,1016.9,1008.9,1013.2,7.6,15.7,1.5,6.8,175,175.2,0.0,0.1,0.1,0.0,0.1,58,100,28,71.7,24.1,24.1,23.3,24.1,0
LS_LS,Thành phố Lạng Sơn - Lạng Sơn,Lạng Sơn,Lạng Sơn,21.8478,106.7578,2026-03-18 18:21:43,openmeteo,high,2026-03-18T18:15,,22.2,26.9,17.4,21.7,85,99,69,85.7,1013.2,1017.1,1008.7,1013.2,8.6,16.3,1.8,7.2,178,173.4,0.0,0.1,0.1,0.0,0.5,49,100,39,76.9,24.1,24.1,10.0,24.0,0
ND_GL,Huyện Giao Thủy - Nam Định,Nam Định,Giao Thủy,20.2333,106.45,2026-03-18 18:20:38,openmeteo,high,2026-03-18T18:15,,23.1,26.7,20.6,23.4,88,99,72,88.3,1013.4,1016.5,1008.8,1012.7,9.2,21.4,1.0,11.7,129,143.3,0.0,0.0,0.0,0.0,0.0,25,100,25,71.3,24.1,24.1,11.7,23.9,10
ND_HH,Huyện Hải Hậu - Nam Định,Nam Định,Hải Hậu,20.1833,106.3,2026-03-18 18:20:38,openmeteo,high,2026-03-18T18:15,,23.7,27.2,20.8,23.7,84,98,68,86.5,1013.4,1016.3,1008.5,1012.6,9.7,20.4,1.1,10.1,141,151.8,0.0,0.0,0.0,0.0,0.0,52,100,27,72.7,24.1,24.1,10.6,23.8,0
ND_ML,Huyện Mỹ Lộc - Nam Định,Nam Định,Mỹ Lộc,20.4667,106.1167,2026-03-18 18:20:38,openmeteo,high,2026-03-18T18:15,,24.4,28.6,20.8,23.9,78,98,63,84.5,1012.9,1016.2,1008.0,1012.4,12.6,20.2,3.1,10.2,149,152.9,0.0,0.1,0.1,0.0,0.1,100,100,33,76.0,24.1,24.1,20.2,24.0,0
ND_NC,Huyện Nam Trực - Nam Định,Nam Định,Nam Trực,20.3333,106.2,2026-03-18 18:20:39,openmeteo,high,2026-03-18T18:15,,23.7,27.2,20.4,23.6,84,99,63,86.3,1013.2,1016.3,1008.5,1012.5,11.8,22.4,1.3,11.3,142,148.7,0.0,0.0,0.0,0.0,0.0,44,100,35,74.3,24.1,24.1,15.8,24.0,0
ND_TK,Huyện Trực Ninh - Nam Định,Nam Định,Trực Ninh,20.25,106.25,2026-03-18 18:20:39,openmeteo,high,2026-03-18T18:15,,23.5,27.3,20.5,23.6,85,99,66,86.7,1013.3,1016.3,1008.5,1012.6,10.7,22.6,0.4,11.6,140,148.3,0.0,0.0,0.0,0.0,0.0,41,100,37,73.9,24.1,24.1,15.8,24.0,0
ND_VB,Huyện Vụ Bản - Nam Định,Nam Định,Vụ Bản,20.3667,106.1,2026-03-18 18:20:40,openmeteo,high,2026-03-18T18:15,,24.1,27.9,20.6,23.8,80,99,62,85.4,1013.1,1016.2,1008.2,1012.5,13.0,21.6,1.8,10.6,146,151.2,0.0,0.0,0.0,0.0,0.0,100,100,34,76.0,24.1,24.1,18.9,24.0,0
ND_XT,Huyện Xuân Trường - Nam Định,Nam Định,Xuân Trường,20.3,106.35,2026-03-18 18:20:39,openmeteo,high,2026-03-18T18:15,,23.1,26.7,20.5,23.3,88,99,72,88.3,1013.4,1016.5,1008.8,1012.7,9.2,21.4,1.0,11.7,129,143.3,0.0,0.0,0.0,0.0,0.0,25,100,25,71.3,24.1,24.1,15.8,24.0,10
ND_YN,Huyện Ý Yên - Nam Định,Nam Định,Ý Yên,20.3167,106.0167,2026-03-18 18:20:40,openmeteo,high,2026-03-18T18:15,,24.1,28.1,20.6,23.8,79,97,65,85.2,1013.1,1016.4,1008.1,1012.5,13.2,22.3,2.4,10.3,151,152.6,0.0,0.0,0.0,0.0,0.0,100,100,35,80.6,24.1,24.1,18.9,24.0,0
ND_TP,Thành phố Nam Định - Nam Định,Nam Định,Nam Định,20.42,106.1683,2026-03-18 18:20:38,openmeteo,high,2026-03-18T18:15,,24.0,27.9,20.5,23.7,80,99,62,85.4,1013.1,1016.2,1008.2,1012.5,13.0,21.6,1.8,10.6,146,151.2,0.0,0.0,0.0,0.0,0.0,100,100,34,76.0,24.1,24.1,15.8,24.0,0
NA_HH,Huyện Hoàng Mai - Nghệ An,Nghệ An,Hoàng Mai,19.2667,105.7167,2026-03-18 18:21:32,openmeteo,high,2026-03-18T18:15,,23.4,27.6,20.5,23.7,88,99,69,87.7,1013.3,1016.4,1008.5,1012.5,9.2,18.0,0.0,7.6,121,121.6,0.0,0.0,0.0,0.0,0.0,48,100,37,71.3,24.1,24.1,0.6,23.4,10
NA_VH,Thành phố Vinh - Nghệ An,Nghệ An,Vinh,18.6733,105.6811,2026-03-18 18:21:31,openmeteo,high,2026-03-18T18:15,,24.9,31.0,19.4,24.6,74,100,58,83.9,1012.6,1016.0,1007.7,1012.0,7.3,14.1,0.4,4.8,99,60.2,0.0,0.0,0.0,0.0,0.0,53,100,5,67.3,24.1,24.1,13.4,23.7,0
NA_CT,Thị xã Cửa Lò - Nghệ An,Nghệ An,Cửa Lò,18.8167,105.7167,2026-03-18 18:21:31,openmeteo,high,2026-03-18T18:15,,23.7,28.7,19.5,23.8,86,100,63,87.2,1012.8,1016.1,1008.3,1012.2,9.1,15.9,0.0,5.8,99,74.7,0.0,0.0,0.0,0.0,0.0,38,100,0,61.8,24.1,24.1,13.4,23.7,10
NA_TH,Thị xã Thái Hòa - Nghệ An,Nghệ An,Thái Hòa,19.3,105.4667,2026-03-18 18:21:32,openmeteo,high,2026-03-18T18:15,,23.7,30.4,19.8,23.9,83,100,67,86.4,1013.2,1016.3,1008.0,1012.4,11.3,17.7,0.5,5.9,112,89.9,0.0,0.0,0.0,0.0,0.0,60,100,24,78.9,24.1,24.1,13.9,24.0,0
NB_HS,Huyện Hoa Lư - Ninh Bình,Ninh Bình,Hoa Lư,20.2833,105.9167,2026-03-18 18:21:51,openmeteo,high,2026-03-18T18:15,,23.7,27.9,20.3,23.7,82,98,66,84.4,1013.2,1016.3,1008.2,1012.5,12.9,21.7,1.8,9.7,150,160.8,0.0,0.0,0.0,0.0,0.0,100,100,27,80.3,24.1,24.1,18.9,24.0,0
NB_NB,Thành phố Ninh Bình - Ninh Bình,Ninh Bình,Ninh Bình,20.2539,105.975,2026-03-18 18:21:51,openmeteo,high,2026-03-18T18:15,,23.7,27.4,20.5,23.6,84,98,66,86.0,1013.3,1016.3,1008.4,1012.5,12.2,22.2,1.3,9.8,146,152.8,0.0,0.0,0.0,0.0,0.0,100,100,36,79.2,24.1,24.1,18.9,24.0,0
NB_TL,Thành phố Tam Điệp - Ninh Bình,Ninh Bình,Tam Điệp,20.15,105.9167,2026-03-18 18:21:51,openmeteo,high,2026-03-18T18:15,,23.6,27.9,20.5,23.8,84,97,66,85.6,1013.3,1016.2,1008.4,1012.5,11.2,21.7,0.5,9.1,140,148.3,0.0,0.0,0.0,0.0,0.0,74,100,33,79.1,24.1,24.1,18.9,24.0,0
NT_NA,Huyện Ninh Hải - Ninh Thuận,Ninh Thuận,Ninh Hải,11.6,109.0333,2026-03-18 18:21:38,openmeteo,high,2026-03-18T18:15,,25.6,33.1,18.4,25.4,69,96,45,74.0,1012.2,1015.7,1008.8,1012.4,7.6,20.4,0.4,7.0,121,179.7,0.0,0.0,0.0,0.0,0.0,16,90,0,25.1,24.1,24.1,24.1,24.1,5
NT_TA,Huyện Thuận Bắc - Ninh Thuận,Ninh Thuận,Thuận Bắc,11.75,108.9333,2026-03-18 18:21:38,openmeteo,high,2026-03-18T18:15,,25.1,33.1,17.4,24.6,67,93,38,69.9,1012.4,1016.0,1008.6,1012.6,8.4,18.0,0.4,6.4,140,142.1,0.0,0.0,0.0,0.0,0.0,62,95,0,44.8,24.1,24.1,24.1,24.1,5
NT_PH,Thành phố Phan Rang-Tháp Chàm - Ninh Thuận,Ninh Thuận,Phan Rang-Tháp Chàm,11.5667,108.9833,2026-03-18 18:21:38,openmeteo,high,2026-03-18T18:15,,25.6,33.1,18.4,25.4,69,96,45,74.0,1012.2,1015.7,1008.8,1012.4,7.6,20.4,0.4,7.0,121,179.7,0.0,0.0,0.0,0.0,0.0,16,90,0,25.1,24.1,24.1,24.1,24.1,5
PT_HT,Huyện Hạ Hòa - Phú Thọ,Phú Thọ,Hạ Hòa,21.55,105.0,2026-03-18 18:21:48,openmeteo,high,2026-03-18T18:15,,24.4,27.3,20.1,23.1,79,99,69,88.4,1012.1,1016.5,1008.1,1012.3,6.7,12.6,0.4,4.8,144,94.6,0.0,0.6,0.1,0.1,2.5,55,100,36,88.5,24.1,24.1,9.5,23.9,0
PT_VT,Thành phố Việt Trì - Phú Thọ,Phú Thọ,Việt Trì,21.3,105.4333,2026-03-18 18:21:47,openmeteo,high,2026-03-18T18:15,,25.9,29.4,20.7,24.3,74,97,65,84.9,1011.6,1015.9,1007.1,1011.7,14.0,19.2,4.0,10.9,125,108.9,0.0,0.4,0.4,0.1,2.4,65,100,25,81.1,24.1,24.1,17.9,24.0,5
PT_PT,Thị xã Phú Thọ - Phú Thọ,Phú Thọ,Phú Thọ,21.4,105.2333,2026-03-18 18:21:48,openmeteo,high,2026-03-18T18:15,,25.7,28.9,20.7,24.1,74,96,67,84.7,1011.6,1016.0,1007.2,1011.7,15.6,18.5,2.4,9.1,128,113.3,0.0,0.4,0.1,0.1,1.6,68,100,29,84.7,24.1,24.1,6.6,23.9,5
PY_DD,Huyện Đông Hòa - Phú Yên,Phú Yên,Đông Hòa,12.9833,109.3667,2026-03-18 18:21:37,openmeteo,high,2026-03-18T18:15,,23.2,29.4,17.8,23.6,84,99,62,84.9,1013.2,1016.4,1009.3,1013.2,4.9,12.8,0.4,5.7,73,130.9,0.0,0.0,0.0,0.0,0.0,44,89,0,54.7,24.1,24.1,23.2,24.1,0
PY_TH,Thành phố Tuy Hòa - Phú Yên,Phú Yên,Tuy Hòa,13.0833,109.3,2026-03-18 18:21:36,openmeteo,high,2026-03-18T18:15,,23.5,31.0,17.3,24.2,78,100,50,80.7,1013.0,1016.3,1009.2,1013.1,7.4,16.6,1.4,6.8,67,51.2,0.0,0.0,0.0,0.0,0.0,37,91,8,55.4,24.1,24.1,23.2,24.1,0
PY_SH,Thị xã Sông Cầu - Phú Yên,Phú Yên,Sông Cầu,13.45,109.2167,2026-03-18 18:21:37,openmeteo,high,2026-03-18T18:15,,23.9,31.1,16.3,24.1,76,100,48,79.5,1013.1,1016.4,1009.4,1013.2,4.7,14.7,0.5,5.5,99,48.0,0.0,0.0,0.0,0.0,0.0,27,92,8,51.2,24.1,24.1,19.5,24.0,0
QB_BT,Huyện Bố Trạch - Quảng Bình,Quảng Bình,Bố Trạch,17.5,106.25,2026-03-18 18:20:45,openmeteo,high,2026-03-18T18:15,,21.0,28.0,14.6,21.0,85,100,60,86.1,1013.7,1016.8,1008.9,1013.3,4.0,11.2,0.4,3.8,63,72.2,0.0,2.7,0.1,0.2,4.5,69,100,0,61.2,24.1,24.1,0.2,19.4,0
QB_LT,Huyện Lệ Thủy - Quảng Bình,Quảng Bình,Lệ Thủy,17.2167,106.8,2026-03-18 18:20:45,openmeteo,high,2026-03-18T18:15,,23.5,28.3,19.0,23.7,89,100,69,87.9,1013.3,1016.0,1008.7,1012.5,4.3,12.6,0.4,4.5,85,55.0,0.0,0.0,0.0,0.0,0.0,55,100,2,61.1,24.1,24.1,4.8,23.4,10
QB_MC,Huyện Minh Hóa - Quảng Bình,Quảng Bình,Minh Hóa,17.7833,105.9167,2026-03-18 18:20:46,openmeteo,high,2026-03-18T18:15,,22.1,31.0,16.6,22.6,89,100,54,84.4,1013.8,1017.2,1009.4,1013.4,5.4,9.4,0.0,4.1,48,19.4,0.0,1.3,0.1,0.2,5.2,60,100,0,63.8,24.1,24.1,0.3,18.3,10
QB_QN,Huyện Quảng Ninh - Quảng Bình,Quảng Bình,Quảng Ninh,17.4,106.55,2026-03-18 18:20:47,openmeteo,high,2026-03-18T18:15,,22.7,30.5,17.5,23.2,83,100,61,85.4,1013.8,1016.6,1009.0,1013.2,4.1,11.7,0.4,4.3,105,116.1,0.0,0.1,0.1,0.0,0.7,57,100,0,58.6,24.1,24.1,7.1,23.6,0
QB_QH,Huyện Quảng Trạch - Quảng Bình,Quảng Bình,Quảng Trạch,17.8333,106.4167,2026-03-18 18:20:46,openmeteo,high,2026-03-18T18:15,,22.7,28.9,19.4,23.1,91,100,69,88.9,1013.2,1016.1,1008.7,1012.6,9.3,14.4,0.4,6.4,126,127.7,0.0,0.0,0.0,0.0,0.0,56,100,24,68.3,24.1,24.1,10.7,22.6,10
QB_TN,Huyện Tuyên Hóa - Quảng Bình,Quảng Bình,Tuyên Hóa,17.9,106.0,2026-03-18 18:20:46,openmeteo,high,2026-03-18T18:15,,24.8,31.7,18.8,24.3,81,100,64,86.4,1012.9,1016.6,1008.0,1012.6,4.7,9.0,1.1,4.1,99,114.1,0.0,0.7,0.1,0.1,2.0,61,100,5,64.1,24.1,24.1,3.2,23.2,0
QB_DH,Thành phố Đồng Hới - Quảng Bình,Quảng Bình,Đồng Hới,17.4687,106.6227,2026-03-18 18:20:45,openmeteo,high,2026-03-18T18:15,,22.7,29.3,17.8,23.0,86,100,62,85.9,1013.6,1016.3,1008.9,1012.9,4.0,13.5,0.4,4.3,90,72.8,0.0,0.0,0.0,0.0,0.0,64,100,0,60.6,24.1,24.1,7.1,23.6,10
QB_BAD,Thị xã Ba Đồn - Quảng Bình,Quảng Bình,Ba Đồn,17.75,106.4167,2026-03-18 18:20:45,openmeteo,high,2026-03-18T18:15,,23.6,28.0,19.4,23.6,88,100,69,88.4,1013.1,1016.0,1008.7,1012.5,7.6,14.5,0.4,5.6,98,72.9,0.0,0.0,0.0,0.0,0.0,50,100,0,58.0,24.1,24.1,10.7,22.6,10
QN_NT,Huyện Núi Thành - Quảng Nam,Quảng Nam,Núi Thành,15.4333,108.6667,2026-03-18 18:21:34,openmeteo,high,2026-03-18T18:15,,25.3,33.0,19.5,25.2,80,99,54,81.9,1013.2,1016.2,1008.5,1012.8,6.8,13.7,2.3,6.1,87,130.8,0.0,0.0,0.0,0.0,0.0,38,100,0,41.4,24.1,24.1,24.1,24.1,5
QN_DG,Huyện Điện Bàn - Quảng Nam,Quảng Nam,Điện Bàn,15.9,108.25,2026-03-18 18:21:35,openmeteo,high,2026-03-18T18:15,,24.3,30.1,19.1,24.5,85,100,59,84.0,1013.1,1016.2,1008.7,1012.7,6.5,18.4,0.0,6.1,84,108.0,0.0,0.0,0.0,0.0,0.0,100,100,0,50.5,24.1,24.1,18.2,24.0,0
QN_HT,Thành phố Hội An - Quảng Nam,Quảng Nam,Hội An,15.8833,108.3333,2026-03-18 18:21:34,openmeteo,high,2026-03-18T18:15,,24.1,29.9,18.9,24.3,85,100,59,84.0,1013.1,1016.2,1008.7,1012.7,6.5,18.4,0.0,6.1,84,108.0,0.0,0.0,0.0,0.0,0.0,100,100,0,50.5,24.1,24.1,18.2,24.0,0
QN_TC,Thành phố Tam Kỳ - Quảng Nam,Quảng Nam,Tam Kỳ,15.5667,108.4833,2026-03-18 18:21:34,openmeteo,high,2026-03-18T18:15,,23.6,31.3,17.8,24.0,86,100,55,83.9,1013.1,1016.3,1008.4,1012.7,6.2,16.3,0.0,5.6,83,135.5,0.0,0.0,0.0,0.0,0.0,100,100,0,45.0,24.1,24.1,24.1,24.1,10
QN_BT,Huyện Bình Sơn - Quảng Ngãi,Quảng Ngãi,Bình Sơn,15.3167,108.7667,2026-03-18 18:21:35,openmeteo,high,2026-03-18T18:15,,22.6,29.4,18.3,23.1,83,96,60,81.8,1013.5,1016.5,1009.1,1013.1,6.9,13.6,2.5,7.2,118,148.4,0.0,0.0,0.0,0.0,0.0,48,100,0,45.3,24.1,24.1,24.1,24.1,0
QN_LS,Huyện Lý Sơn - Quảng Ngãi,Quảng Ngãi,Lý Sơn,15.3833,109.1167,2026-03-18 18:21:35,openmeteo,high,2026-03-18T18:15,,24.5,25.3,22.9,24.3,83,93,71,84.8,1013.0,1016.1,1009.0,1012.8,10.7,19.9,1.5,9.8,102,151.7,0.0,0.0,0.0,0.0,0.0,14,100,0,29.0,24.1,24.1,24.1,24.1,0
QN_QN,Thành phố Quảng Ngãi - Quảng Ngãi,Quảng Ngãi,Quảng Ngãi,15.1167,108.8,2026-03-18 18:21:34,openmeteo,high,2026-03-18T18:15,,24.0,31.1,18.0,24.0,81,100,56,82.9,1013.3,1016.4,1009.0,1012.9,4.3,15.3,0.0,5.6,95,157.8,0.0,0.0,0.0,0.0,0.0,43,100,0,43.6,24.1,24.1,24.1,24.1,0
QN_LS2,Đảo Lý Sơn - Quảng Ngãi,Quảng Ngãi,Lý Sơn,15.3833,109.1167,2026-03-18 18:22:02,openmeteo,high,2026-03-18T18:15,,24.5,25.3,22.9,24.3,83,93,71,84.8,1013.0,1016.1,1009.0,1012.8,10.7,19.9,1.5,9.8,102,151.7,0.0,0.0,0.0,0.0,0.0,14,100,0,29.0,24.1,24.1,24.1,24.1,0
QN_BG,Huyện Ba Chẽ - Quảng Ninh,Quảng Ninh,Ba Chẽ,21.2833,107.1833,2026-03-18 18:20:35,openmeteo,high,2026-03-18T18:15,,23.0,27.5,18.2,22.5,81,100,62,84.9,1013.7,1017.1,1009.4,1013.3,6.0,13.8,0.7,6.0,163,159.1,0.0,0.0,0.0,0.0,0.0,100,100,25,71.3,24.1,24.1,16.7,24.0,0
QN_BQ,Huyện Bình Liêu - Quảng Ninh,Quảng Ninh,Bình Liêu,21.5333,107.4333,2026-03-18 18:20:35,openmeteo,high,2026-03-18T18:15,,21.5,27.6,17.4,21.5,87,97,62,86.3,1014.2,1017.5,1009.8,1013.8,8.2,14.2,1.4,6.7,142,137.8,0.0,0.0,0.0,0.0,0.0,80,100,22,72.8,24.1,24.1,16.4,24.0,10
QN_CT,Huyện Cô Tô - Quảng Ninh,Quảng Ninh,Cô Tô,20.9681,107.7639,2026-03-18 18:20:34,openmeteo,high,2026-03-18T18:15,,22.2,23.8,21.0,22.1,89,97,84,91.4,1013.7,1016.9,1009.9,1013.3,3.9,10.3,0.4,3.8,158,89.5,0.0,0.0,0.0,0.0,0.0,32,100,0,52.0,24.1,24.1,24.1,24.1,10
QN_HD,Huyện Hải Hà - Quảng Ninh,Quảng Ninh,Hải Hà,21.4333,107.7167,2026-03-18 18:20:36,openmeteo,high,2026-03-18T18:15,,19.5,25.8,17.1,20.1,95,100,66,88.5,1014.7,1017.6,1010.3,1014.0,4.6,11.0,1.6,5.5,162,198.8,0.0,0.0,0.0,0.0,0.0,76,100,8,72.3,24.1,24.1,13.0,22.7,10
QN_TY,Huyện Tiên Yên - Quảng Ninh,Quảng Ninh,Tiên Yên,21.3833,107.3833,2026-03-18 18:20:36,openmeteo,high,2026-03-18T18:15,,22.6,28.7,17.2,22.2,82,98,57,84.4,1013.9,1017.1,1009.4,1013.4,6.1,12.6,1.1,5.6,130,93.9,0.0,0.0,0.0,0.0,0.0,90,100,3,69.4,24.1,24.1,16.4,24.0,0
QN_VD,Huyện Vân Đồn - Quảng Ninh,Quảng Ninh,Vân Đồn,20.9551,107.4764,2026-03-18 18:20:36,openmeteo,high,2026-03-18T18:15,,22.9,27.5,17.9,22.5,83,100,64,86.0,1013.9,1017.0,1009.8,1013.3,6.1,16.7,0.4,6.2,180,192.3,0.0,0.0,0.0,0.0,0.0,49,100,0,67.7,24.1,24.1,1.1,23.5,0
QN_DH,Huyện Đầm Hà - Quảng Ninh,Quảng Ninh,Đầm Hà,21.3667,107.6,2026-03-18 18:20:35,openmeteo,high,2026-03-18T18:15,,23.1,28.8,18.4,22.8,87,99,62,87.0,1014.2,1017.1,1009.9,1013.6,3.4,11.7,0.8,5.1,148,83.8,0.0,0.0,0.0,0.0,0.0,79,100,32,71.1,24.1,24.1,0.6,22.6,10
QN_CP,Thành phố Cẩm Phả - Quảng Ninh,Quảng Ninh,Cẩm Phả,21.0167,107.3167,2026-03-18 18:20:33,openmeteo,high,2026-03-18T18:15,,22.2,26.4,19.1,22.3,85,95,66,84.0,1014.0,1017.1,1010.0,1013.4,5.0,13.3,0.0,5.4,159,108.1,0.0,0.1,0.1,0.0,0.1,61,100,0,66.0,24.1,24.1,1.1,23.5,0
QN_HL,Thành phố Hạ Long - Quảng Ninh,Quảng Ninh,Hạ Long,20.9582,107.0758,2026-03-18 18:20:33,openmeteo,high,2026-03-18T18:15,,23.7,27.1,21.0,23.8,86,95,71,85.4,1013.8,1017.0,1009.7,1013.2,5.4,15.2,2.1,6.6,132,94.6,0.0,0.0,0.0,0.0,0.0,57,100,0,65.3,24.1,24.1,18.4,23.5,10
QN_MC,Thành phố Móng Cái - Quảng Ninh,Quảng Ninh,Móng Cái,21.5247,107.9664,2026-03-18 18:20:34,openmeteo,high,2026-03-18T18:15,,22.5,26.6,18.5,22.4,87,98,67,86.7,1014.0,1017.2,1009.9,1013.4,3.9,14.5,0.4,5.3,158,179.6,0.0,0.1,0.1,0.0,0.2,38,100,0,60.7,24.1,24.1,13.0,22.7,10
QN_UB,Thành phố Uông Bí - Quảng Ninh,Quảng Ninh,Uông Bí,21.0361,106.7633,2026-03-18 18:20:34,openmeteo,high,2026-03-18T18:15,,24.0,28.0,20.6,23.9,82,96,61,84.0,1013.4,1016.7,1009.1,1012.8,13.0,21.4,2.2,9.9,129,113.8,0.0,0.0,0.0,0.0,0.0,100,100,32,74.1,24.1,24.1,19.4,24.0,0
QN_QY,Thị xã Quảng Yên - Quảng Ninh,Quảng Ninh,Quảng Yên,20.9333,106.8167,2026-03-18 18:20:34,openmeteo,high,2026-03-18T18:15,,23.3,27.0,21.1,23.4,86,95,65,85.8,1013.5,1016.8,1009.3,1012.9,10.5,16.9,1.3,9.2,131,115.1,0.0,0.0,0.0,0.0,0.0,54,100,10,72.7,24.1,24.1,19.4,24.0,10
QN_DK,Thị xã Đông Triều - Quảng Ninh,Quảng Ninh,Đông Triều,21.0833,106.5,2026-03-18 18:20:35,openmeteo,high,2026-03-18T18:15,,24.6,28.5,21.3,24.2,78,95,68,84.1,1013.0,1016.5,1008.4,1012.6,14.1,19.5,2.4,9.7,142,139.4,0.0,0.4,0.1,0.0,0.7,100,100,11,74.9,24.1,24.1,19.8,24.0,0
QN_CT,Đảo Cô Tô - Quảng Ninh,Quảng Ninh,Cô Tô,20.9681,107.7639,2026-03-18 18:21:59,openmeteo,high,2026-03-18T18:15,,22.2,23.8,21.0,22.1,89,97,84,91.4,1013.7,1016.9,1009.9,1013.3,3.9,10.3,0.4,3.8,158,89.5,0.0,0.0,0.0,0.0,0.0,32,100,0,52.0,24.1,24.1,24.1,24.1,10
QN_VD,Đảo Vân Đồn - Quảng Ninh,Quảng Ninh,Vân Đồn,20.9551,107.4764,2026-03-18 18:22:00,openmeteo,high,2026-03-18T18:15,,22.9,27.5,17.9,22.5,83,100,64,86.0,1013.9,1017.0,1009.8,1013.3,6.1,16.7,0.4,6.2,180,192.3,0.0,0.0,0.0,0.0,0.0,49,100,0,67.7,24.1,24.1,1.1,23.5,0
QT_CL,Huyện Cam Lộ - Quảng Trị,Quảng Trị,Cam Lộ,16.8,106.9833,2026-03-18 18:20:42,openmeteo,high,2026-03-18T18:15,,23.2,32.2,17.5,23.7,82,100,55,82.9,1013.3,1016.1,1008.5,1012.6,5.1,13.7,0.7,5.4,45,359.9,0.0,0.0,0.0,0.0,0.0,45,100,0,49.0,24.1,24.1,15.7,24.0,0
QT_CC,Huyện Cồn Cỏ - Quảng Trị,Quảng Trị,Cồn Cỏ,17.1597,107.3408,2026-03-18 18:20:43,openmeteo,high,2026-03-18T18:15,,23.8,24.4,23.2,23.8,87,93,83,88.0,1012.8,1015.7,1008.4,1012.3,14.8,26.1,8.9,14.8,94,115.4,0.0,0.0,0.0,0.0,0.0,8,100,0,37.4,24.1,24.1,24.1,24.1,10
QT_GL,Huyện Gio Linh - Quảng Trị,Quảng Trị,Gio Linh,16.9167,107.05,2026-03-18 18:20:44,openmeteo,high,2026-03-18T18:15,,23.9,32.0,17.9,24.3,84,100,57,84.7,1013.1,1015.8,1008.3,1012.4,4.8,13.8,0.7,5.5,63,357.5,0.0,0.0,0.0,0.0,0.0,41,100,0,56.4,24.1,24.1,6.1,23.8,0
QT_HL,Huyện Hướng Hóa - Quảng Trị,Quảng Trị,Hướng Hóa,16.7,106.6667,2026-03-18 18:20:44,openmeteo,high,2026-03-18T18:15,,25.5,34.3,18.1,25.4,67,94,38,70.0,1012.1,1015.4,1007.4,1012.0,7.0,12.0,0.4,5.0,55,64.1,0.0,0.2,0.1,0.1,1.6,26,100,0,37.8,24.1,24.1,0.4,21.6,5
QT_HH,Huyện Hải Lăng - Quảng Trị,Quảng Trị,Hải Lăng,16.7,107.25,2026-03-18 18:20:44,openmeteo,high,2026-03-18T18:15,,23.7,28.4,19.4,24.0,86,100,68,88.1,1012.8,1015.6,1008.3,1012.2,8.0,16.3,0.5,6.0,82,59.8,0.0,0.0,0.0,0.0,0.0,25,100,0,48.1,24.1,24.1,10.4,23.7,10
QT_TL,Huyện Triệu Phong - Quảng Trị,Quảng Trị,Triệu Phong,16.7833,107.1667,2026-03-18 18:20:44,openmeteo,high,2026-03-18T18:15,,23.8,31.2,17.8,24.1,83,100,57,84.7,1012.9,1015.7,1008.2,1012.2,5.3,14.7,0.4,5.4,62,359.2,0.0,0.0,0.0,0.0,0.0,26,100,0,53.0,24.1,24.1,10.4,23.7,0
QT_VL,Huyện Vĩnh Linh - Quảng Trị,Quảng Trị,Vĩnh Linh,17.0,106.9333,2026-03-18 18:20:45,openmeteo,high,2026-03-18T18:15,,22.4,30.0,17.6,22.9,84,100,62,85.9,1013.7,1016.4,1008.9,1013.0,4.8,11.5,0.0,4.3,77,66.6,0.0,0.0,0.0,0.0,0.0,52,100,0,55.0,24.1,24.1,6.1,23.8,0
QT_DK,Huyện Đa Krông - Quảng Trị,Quảng Trị,Đa Krông,16.5556,106.9722,2026-03-18 18:20:44,openmeteo,high,2026-03-18T18:15,,23.0,32.4,17.4,23.7,80,100,55,84.0,1013.2,1016.3,1008.5,1012.8,6.9,15.5,0.8,5.7,43,65.0,0.0,0.3,0.1,0.0,1.0,42,100,0,58.6,12.7,24.1,0.2,20.8,0
QT_DH,Thành phố Đông Hà - Quảng Trị,Quảng Trị,Đông Hà,16.816,107.1,2026-03-18 18:20:42,openmeteo,high,2026-03-18T18:15,,23.3,31.4,17.3,23.7,84,100,57,84.7,1013.1,1015.8,1008.3,1012.4,4.8,13.8,0.7,5.5,63,357.5,0.0,0.0,0.0,0.0,0.0,41,100,0,56.4,24.1,24.1,15.7,24.0,0
QT_QH,Thị xã Quảng Trị - Quảng Trị,Quảng Trị,Quảng Trị,16.75,107.1833,2026-03-18 18:20:42,openmeteo,high,2026-03-18T18:15,,23.9,31.2,17.9,24.2,83,100,57,84.7,1012.9,1015.7,1008.2,1012.2,5.3,14.7,0.4,5.4,62,359.2,0.0,0.0,0.0,0.0,0.0,26,100,0,53.0,24.1,24.1,10.4,23.7,0
QT_CC2,Đảo Cồn Cỏ - Quảng Trị,Quảng Trị,Cồn Cỏ,17.1597,107.3408,2026-03-18 18:22:02,openmeteo,high,2026-03-18T18:15,,23.8,24.4,23.2,23.8,87,93,83,88.0,1012.8,1015.7,1008.4,1012.3,14.8,26.1,8.9,14.8,94,115.4,0.0,0.0,0.0,0.0,0.0,8,100,0,37.4,24.1,24.1,24.1,24.1,10
ST_CL,Huyện Châu Thành - Sóc Trăng,Sóc Trăng,Châu Thành,9.7,105.9,2026-03-18 18:21:25,openmeteo,high,2026-03-18T18:15,,28.5,34.1,22.9,27.8,62,92,39,70.6,1010.4,1014.4,1007.2,1010.9,13.0,20.9,1.9,10.5,118,108.0,0.0,0.0,0.0,0.0,0.0,40,94,0,55.9,24.1,24.1,24.1,24.1,5
ST_CT,Huyện Cù Lao Dung - Sóc Trăng,Sóc Trăng,Cù Lao Dung,9.6667,106.1667,2026-03-18 18:21:26,openmeteo,high,2026-03-18T18:15,,27.7,33.1,23.4,27.6,67,90,45,71.7,1010.5,1014.3,1007.6,1011.0,14.0,22.7,3.1,11.9,113,102.4,0.0,0.0,0.0,0.0,0.0,37,94,0,55.9,24.1,24.1,24.1,24.1,5
ST_KS,Huyện Kế Sách - Sóc Trăng,Sóc Trăng,Kế Sách,9.8167,105.9833,2026-03-18 18:21:25,openmeteo,high,2026-03-18T18:15,,28.5,33.9,23.2,27.9,62,92,40,70.6,1010.4,1014.4,1007.2,1010.9,13.0,21.0,2.5,10.8,114,108.9,0.0,0.0,0.0,0.0,0.0,42,95,0,53.7,24.1,24.1,24.1,24.1,5
ST_LT,Huyện Long Phú - Sóc Trăng,Sóc Trăng,Long Phú,9.6167,106.1167,2026-03-18 18:21:26,openmeteo,high,2026-03-18T18:15,,27.7,33.1,23.4,27.6,67,90,45,71.7,1010.5,1014.3,1007.6,1011.0,14.0,22.7,3.1,11.9,113,102.4,0.0,0.0,0.0,0.0,0.0,37,94,0,55.9,24.1,24.1,24.1,24.1,5
ST_MD,Huyện Mỹ Tú - Sóc Trăng,Sóc Trăng,Mỹ Tú,9.6333,105.8167,2026-03-18 18:21:26,openmeteo,high,2026-03-18T18:15,,28.2,33.6,23.2,27.7,65,91,42,71.6,1010.5,1014.3,1007.3,1011.0,13.7,20.9,2.3,10.8,117,105.6,0.0,0.0,0.0,0.0,0.0,43,95,0,57.0,24.1,24.1,24.1,24.1,5
ST_MX,Huyện Mỹ Xuyên - Sóc Trăng,Sóc Trăng,Mỹ Xuyên,9.5333,105.9833,2026-03-18 18:21:27,openmeteo,high,2026-03-18T18:15,,27.4,32.7,23.5,27.5,69,90,47,72.5,1010.6,1014.3,1007.7,1011.1,15.5,24.1,3.3,12.3,108,101.4,0.0,0.0,0.0,0.0,0.0,32,94,0,56.6,24.1,24.1,24.1,24.1,5
ST_TN,Huyện Thạnh Trị - Sóc Trăng,Sóc Trăng,Thạnh Trị,9.4667,105.7167,2026-03-18 18:21:27,openmeteo,high,2026-03-18T18:15,,28.0,33.8,23.4,27.6,65,91,43,71.9,1010.4,1014.3,1007.4,1011.0,14.6,20.6,3.2,11.0,110,101.7,0.0,0.0,0.0,0.0,0.0,29,95,0,55.3,24.1,24.1,24.1,24.1,5
ST_TP,Huyện Trần Đề - Sóc Trăng,Sóc Trăng,Trần Đề,9.5,106.0833,2026-03-18 18:21:27,openmeteo,high,2026-03-18T18:15,,27.0,32.0,23.7,27.3,72,89,50,73.3,1010.6,1014.4,1008.0,1011.1,15.6,24.5,5.4,13.6,105,101.5,0.0,0.0,0.0,0.0,0.0,33,95,8,56.7,24.1,24.1,24.1,24.1,5
ST_ST,Thành phố Sóc Trăng - Sóc Trăng,Sóc Trăng,Sóc Trăng,9.6025,105.9739,2026-03-18 18:21:24,openmeteo,high,2026-03-18T18:15,,27.7,32.9,23.4,27.6,67,90,46,71.7,1010.5,1014.3,1007.6,1011.0,14.0,22.0,2.9,11.6,113,102.8,0.0,0.0,0.0,0.0,0.0,30,94,0,55.1,24.1,24.1,24.1,24.1,5
ST_NG,Thị xã Ngã Năm - Sóc Trăng,Sóc Trăng,Ngã Năm,9.5667,105.85,2026-03-18 18:21:24,openmeteo,high,2026-03-18T18:15,,28.2,33.6,23.2,27.7,65,91,42,71.6,1010.5,1014.3,1007.3,1011.0,13.7,20.9,2.3,10.8,117,105.6,0.0,0.0,0.0,0.0,0.0,43,95,0,57.0,24.1,24.1,24.1,24.1,5
ST_VC,Thị xã Vĩnh Châu - Sóc Trăng,Sóc Trăng,Vĩnh Châu,9.3333,105.9833,2026-03-18 18:21:24,openmeteo,high,2026-03-18T18:15,,27.3,32.3,24.0,27.7,71,88,49,71.7,1010.6,1014.3,1007.9,1011.1,16.2,23.6,4.5,13.3,102,100.8,0.0,0.0,0.0,0.0,0.0,33,95,0,55.7,24.1,24.1,24.1,24.1,5
SL_ML,Huyện Mộc Châu - Sơn La,Sơn La,Mộc Châu,20.85,104.6333,2026-03-18 18:21:41,openmeteo,high,2026-03-18T18:15,,21.1,29.9,16.3,22.2,83,100,47,81.0,1013.6,1016.8,1007.6,1012.8,7.7,11.1,0.0,5.5,131,145.2,0.2,3.1,0.1,0.9,20.8,88,100,12,64.6,24.1,24.1,0.2,18.2,25
SL_YB,Huyện Yên Châu - Sơn La,Sơn La,Yên Châu,21.05,104.3,2026-03-18 18:21:41,openmeteo,high,2026-03-18T18:15,,28.8,35.7,19.9,26.4,58,98,28,74.1,1011.2,1016.3,1005.2,1011.8,2.5,14.4,0.5,5.9,98,118.2,0.0,4.8,0.1,1.0,23.3,72,100,0,55.7,24.1,24.1,3.9,23.6,5
SL_SL,Thành phố Sơn La - Sơn La,Sơn La,Sơn La,21.3256,103.9189,2026-03-18 18:21:41,openmeteo,high,2026-03-18T18:15,,26.2,34.2,18.8,24.6,70,94,33,74.9,1010.9,1016.2,1005.1,1011.3,4.5,12.4,0.7,5.5,76,140.6,0.0,1.6,0.1,0.6,14.1,100,100,0,50.6,24.1,24.1,12.2,23.7,5
HCM_BC,Huyện Bình Chánh - TP Hồ Chí Minh,TP Hồ Chí Minh,Bình Chánh,10.7269,106.5672,2026-03-18 18:20:25,openmeteo,high,2026-03-18T18:15,,28.0,35.3,23.0,28.0,60,89,39,68.6,1010.3,1014.5,1007.2,1010.9,17.2,21.8,4.1,12.5,147,130.6,0.0,0.0,0.0,0.0,0.0,0,95,0,56.0,24.1,24.1,24.1,24.1,5
HCM_CG,Huyện Cần Giờ - TP Hồ Chí Minh,TP Hồ Chí Minh,Cần Giờ,10.4111,106.9547,2026-03-18 18:20:25,openmeteo,high,2026-03-18T18:15,,26.6,32.8,24.9,27.6,73,82,47,71.3,1010.7,1014.5,1008.0,1011.2,14.7,19.4,10.0,14.4,121,114.8,0.0,0.0,0.0,0.0,0.0,38,92,0,58.5,24.1,24.1,24.1,24.1,5
HCM_CC,Huyện Củ Chi - TP Hồ Chí Minh,TP Hồ Chí Minh,Củ Chi,10.9733,106.4939,2026-03-18 18:20:24,openmeteo,high,2026-03-18T18:15,,29.3,35.9,22.2,28.1,56,90,38,67.7,1009.8,1014.6,1006.4,1010.8,21.6,21.5,1.3,10.0,165,135.4,0.0,0.0,0.0,0.0,0.0,66,93,0,58.4,24.1,24.1,24.1,24.1,5
HCM_HM,Huyện Hóc Môn - TP Hồ Chí Minh,TP Hồ Chí Minh,Hóc Môn,10.8894,106.5953,2026-03-18 18:20:24,openmeteo,high,2026-03-18T18:15,,28.7,36.4,22.7,28.3,57,89,34,66.7,1010.1,1014.5,1006.7,1010.8,17.1,19.7,3.2,11.2,155,132.6,0.0,0.0,0.0,0.0,0.0,0,93,0,58.1,24.1,24.1,24.1,24.1,5
HCM_NB,Huyện Nhà Bè - TP Hồ Chí Minh,TP Hồ Chí Minh,Nhà Bè,10.6956,106.735,2026-03-18 18:20:25,openmeteo,high,2026-03-18T18:15,,28.1,35.5,23.4,28.3,61,86,38,67.0,1010.4,1014.5,1007.3,1010.9,17.7,21.5,6.1,13.0,141,128.8,0.0,0.0,0.0,0.0,0.0,8,94,0,58.0,24.1,24.1,24.1,24.1,5
HCM_1,Quận 1 - TP Hồ Chí Minh,TP Hồ Chí Minh,Quận 1,10.7757,106.7004,2026-03-18 18:20:20,openmeteo,high,2026-03-18T18:15,,28.0,35.5,23.4,28.2,61,86,38,67.0,1010.4,1014.5,1007.3,1010.9,17.7,21.5,6.1,13.0,141,128.8,0.0,0.0,0.0,0.0,0.0,8,94,0,58.0,24.1,24.1,24.1,24.1,5
HCM_10,Quận 10 - TP Hồ Chí Minh,TP Hồ Chí Minh,Quận 10,10.7679,106.6668,2026-03-18 18:20:21,openmeteo,high,2026-03-18T18:15,,28.0,35.2,23.0,28.0,60,89,39,68.6,1010.3,1014.5,1007.2,1010.9,17.2,21.8,4.1,12.5,147,130.6,0.0,0.0,0.0,0.0,0.0,0,95,0,56.0,24.1,24.1,24.1,24.1,5
HCM_11,Quận 11 - TP Hồ Chí Minh,TP Hồ Chí Minh,Quận 11,10.7639,106.6474,2026-03-18 18:20:22,openmeteo,high,2026-03-18T18:15,,28.0,35.2,23.0,28.0,60,89,39,68.6,1010.3,1014.5,1007.2,1010.9,17.2,21.8,4.1,12.5,147,130.6,0.0,0.0,0.0,0.0,0.0,0,95,0,56.0,24.1,24.1,24.1,24.1,5
HCM_12,Quận 12 - TP Hồ Chí Minh,TP Hồ Chí Minh,Quận 12,10.8642,106.6543,2026-03-18 18:20:22,openmeteo,high,2026-03-18T18:15,,28.7,36.4,22.7,28.3,57,89,34,66.7,1010.1,1014.5,1006.7,1010.8,17.1,19.7,3.2,11.2,155,132.6,0.0,0.0,0.0,0.0,0.0,0,93,0,58.1,24.1,24.1,24.1,24.1,5
HCM_2,Quận 2 - TP Hồ Chí Minh,TP Hồ Chí Minh,Quận 2,10.7872,106.7498,2026-03-18 18:20:20,openmeteo,high,2026-03-18T18:15,,28.1,35.5,23.4,28.3,61,86,38,67.0,1010.4,1014.5,1007.3,1010.9,17.7,21.5,6.1,13.0,141,128.8,0.0,0.0,0.0,0.0,0.0,8,94,0,58.0,24.1,24.1,24.1,24.1,5
HCM_3,Quận 3 - TP Hồ Chí Minh,TP Hồ Chí Minh,Quận 3,10.7823,106.6848,2026-03-18 18:20:20,openmeteo,high,2026-03-18T18:15,,28.0,35.2,23.0,28.0,60,89,39,68.6,1010.3,1014.5,1007.2,1010.9,17.2,21.8,4.1,12.5,147,130.6,0.0,0.0,0.0,0.0,0.0,0,95,0,56.0,24.1,24.1,24.1,24.1,5
HCM_4,Quận 4 - TP Hồ Chí Minh,TP Hồ Chí Minh,Quận 4,10.7642,106.7053,2026-03-18 18:20:19,openmeteo,high,2026-03-18T18:15,,28.0,35.5,23.3,28.2,61,86,38,67.0,1010.4,1014.5,1007.3,1010.9,17.7,21.5,6.1,13.0,141,128.8,0.0,0.0,0.0,0.0,0.0,8,94,0,58.0,24.1,24.1,24.1,24.1,5
HCM_5,Quận 5 - TP Hồ Chí Minh,TP Hồ Chí Minh,Quận 5,10.754,106.669,2026-03-18 18:20:20,openmeteo,high,2026-03-18T18:15,,27.9,35.2,22.9,27.9,60,89,39,68.6,1010.3,1014.5,1007.2,1010.9,17.2,21.8,4.1,12.5,147,130.6,0.0,0.0,0.0,0.0,0.0,0,95,0,56.0,24.1,24.1,24.1,24.1,5
HCM_6,Quận 6 - TP Hồ Chí Minh,TP Hồ Chí Minh,Quận 6,10.7464,106.6492,2026-03-18 18:20:21,openmeteo,high,2026-03-18T18:15,,28.0,35.2,23.0,28.0,60,89,39,68.6,1010.3,1014.5,1007.2,1010.9,17.2,21.8,4.1,12.5,147,130.6,0.0,0.0,0.0,0.0,0.0,0,95,0,56.0,24.1,24.1,24.1,24.1,5
HCM_7,Quận 7 - TP Hồ Chí Minh,TP Hồ Chí Minh,Quận 7,10.7329,106.7269,2026-03-18 18:20:21,openmeteo,high,2026-03-18T18:15,,28.1,35.5,23.4,28.3,61,86,38,67.0,1010.4,1014.5,1007.3,1010.9,17.7,21.5,6.1,13.0,141,128.8,0.0,0.0,0.0,0.0,0.0,8,94,0,58.0,24.1,24.1,24.1,24.1,5
HCM_8,Quận 8 - TP Hồ Chí Minh,TP Hồ Chí Minh,Quận 8,10.7241,106.6286,2026-03-18 18:20:21,openmeteo,high,2026-03-18T18:15,,28.0,35.2,23.0,28.0,60,89,39,68.6,1010.3,1014.5,1007.2,1010.9,17.2,21.8,4.1,12.5,147,130.6,0.0,0.0,0.0,0.0,0.0,0,95,0,56.0,24.1,24.1,24.1,24.1,5
HCM_9,Quận 9 - TP Hồ Chí Minh,TP Hồ Chí Minh,Quận 9,10.8428,106.8287,2026-03-18 18:20:21,openmeteo,high,2026-03-18T18:15,,28.7,36.7,22.7,28.3,58,88,32,66.7,1010.1,1014.5,1006.7,1010.9,17.0,19.6,3.3,10.8,144,131.8,0.0,0.0,0.0,0.0,0.0,0,94,0,58.2,24.1,24.1,24.1,24.1,5
HCM_BT2,Quận Bình Thạnh - TP Hồ Chí Minh,TP Hồ Chí Minh,Bình Thạnh,10.801,106.6959,2026-03-18 18:20:23,openmeteo,high,2026-03-18T18:15,,28.0,35.5,23.3,28.2,61,86,38,67.0,1010.4,1014.5,1007.3,1010.9,17.7,21.5,6.1,13.0,141,128.8,0.0,0.0,0.0,0.0,0.0,8,94,0,58.0,24.1,24.1,24.1,24.1,5
HCM_BT,Quận Bình Tân - TP Hồ Chí Minh,TP Hồ Chí Minh,Bình Tân,10.7654,106.6032,2026-03-18 18:20:23,openmeteo,high,2026-03-18T18:15,,28.0,35.2,23.0,28.0,60,89,39,68.6,1010.3,1014.5,1007.2,1010.9,17.2,21.8,4.1,12.5,147,130.6,0.0,0.0,0.0,0.0,0.0,0,95,0,56.0,24.1,24.1,24.1,24.1,5
HCM_GB,Quận Gò Vấp - TP Hồ Chí Minh,TP Hồ Chí Minh,Gò Vấp,10.8383,106.6653,2026-03-18 18:20:23,openmeteo,high,2026-03-18T18:15,,28.7,36.4,22.6,28.3,57,89,34,66.7,1010.1,1014.5,1006.7,1010.8,17.1,19.7,3.2,11.2,155,132.6,0.0,0.0,0.0,0.0,0.0,0,93,0,58.1,24.1,24.1,24.1,24.1,5
HCM_PN,Quận Phú Nhuận - TP Hồ Chí Minh,TP Hồ Chí Minh,Phú Nhuận,10.7992,106.6753,2026-03-18 18:20:24,openmeteo,high,2026-03-18T18:15,,27.9,35.2,22.9,27.9,60,89,39,68.6,1010.3,1014.5,1007.2,1010.9,17.2,21.8,4.1,12.5,147,130.6,0.0,0.0,0.0,0.0,0.0,0,95,0,56.0,24.1,24.1,24.1,24.1,5
HCM_TB,Quận Tân Bình - TP Hồ Chí Minh,TP Hồ Chí Minh,Tân Bình,10.8014,106.6526,2026-03-18 18:20:22,openmeteo,high,2026-03-18T18:15,,28.0,35.2,23.0,28.0,60,89,39,68.6,1010.3,1014.5,1007.2,1010.9,17.2,21.8,4.1,12.5,147,130.6,0.0,0.0,0.0,0.0,0.0,0,95,0,56.0,24.1,24.1,24.1,24.1,5
HCM_TP,Quận Tân Phú - TP Hồ Chí Minh,TP Hồ Chí Minh,Tân Phú,10.7902,106.6289,2026-03-18 18:20:22,openmeteo,high,2026-03-18T18:15,,28.0,35.2,23.0,28.0,60,89,39,68.6,1010.3,1014.5,1007.2,1010.9,17.2,21.8,4.1,12.5,147,130.6,0.0,0.0,0.0,0.0,0.0,0,95,0,56.0,24.1,24.1,24.1,24.1,5
HCM_TD,Thành phố Thủ Đức - TP Hồ Chí Minh,TP Hồ Chí Minh,Thủ Đức,10.8494,106.7717,2026-03-18 18:20:24,openmeteo,high,2026-03-18T18:15,,28.6,36.3,22.6,28.2,57,89,34,66.7,1010.1,1014.5,1006.7,1010.8,17.1,19.7,3.2,11.2,155,132.6,0.0,0.0,0.0,0.0,0.0,0,93,0,58.1,24.1,24.1,24.1,24.1,5
TH_NC,Huyện Nghi Sơn - Thanh Hóa,Thanh Hóa,Nghi Sơn,19.45,105.7833,2026-03-18 18:21:31,openmeteo,high,2026-03-18T18:15,,23.6,28.5,19.8,23.8,85,99,65,85.9,1013.2,1016.2,1008.2,1012.5,9.4,16.8,0.4,6.8,130,148.2,0.0,0.0,0.0,0.0,0.0,52,100,30,75.8,24.1,24.1,12.2,24.0,0
TH_TH,Thành phố Thanh Hóa - Thanh Hóa,Thanh Hóa,Thanh Hóa,19.8,105.7667,2026-03-18 18:21:30,openmeteo,high,2026-03-18T18:15,,23.4,28.7,20.2,23.7,86,98,66,85.8,1013.2,1016.2,1008.2,1012.4,9.7,17.3,0.5,7.3,129,147.4,0.0,0.1,0.1,0.0,0.1,51,100,38,78.6,24.1,24.1,12.5,23.2,10
TH_BT,Thị xã Bỉm Sơn - Thanh Hóa,Thanh Hóa,Bỉm Sơn,20.0781,105.8603,2026-03-18 18:21:31,openmeteo,high,2026-03-18T18:15,,23.7,28.1,20.7,23.9,84,97,66,85.6,1013.3,1016.2,1008.4,1012.5,11.2,21.7,0.5,9.1,140,148.3,0.0,0.0,0.0,0.0,0.0,74,100,33,79.1,24.1,24.1,15.8,24.0,0
TH_SL,Thị xã Sầm Sơn - Thanh Hóa,Thanh Hóa,Sầm Sơn,19.7333,105.9,2026-03-18 18:21:30,openmeteo,high,2026-03-18T18:15,,23.7,28.3,20.7,23.9,85,97,66,85.8,1013.2,1016.1,1008.2,1012.4,8.9,17.1,1.1,7.5,130,134.0,0.0,0.0,0.0,0.0,0.0,50,100,30,76.4,24.1,24.1,12.5,23.2,0
TB_HH,Huyện Hưng Hà - Thái Bình,Thái Bình,Hưng Hà,20.6,106.2167,2026-03-18 18:20:37,openmeteo,high,2026-03-18T18:15,,23.9,27.6,20.5,23.6,81,99,64,86.5,1013.0,1016.3,1008.2,1012.5,12.5,21.3,2.8,11.1,147,146.7,0.0,0.0,0.0,0.0,0.0,100,100,31,75.9,24.1,24.1,15.8,24.0,0
TB_KL,Huyện Kiến Xương - Thái Bình,Thái Bình,Kiến Xương,20.4,106.4167,2026-03-18 18:20:37,openmeteo,high,2026-03-18T18:15,,23.6,26.8,20.3,23.5,85,99,69,87.1,1013.3,1016.3,1008.6,1012.6,11.8,21.8,1.3,11.3,142,145.3,0.0,0.0,0.0,0.0,0.0,50,100,29,73.2,24.1,24.1,11.7,23.9,0
TB_QH,Huyện Quỳnh Phụ - Thái Bình,Thái Bình,Quỳnh Phụ,20.65,106.3333,2026-03-18 18:20:37,openmeteo,high,2026-03-18T18:15,,23.8,27.8,20.1,23.4,82,99,67,86.6,1013.1,1016.3,1008.3,1012.5,13.1,23.0,2.3,11.7,143,142.5,0.0,0.0,0.0,0.0,0.0,100,100,23,75.2,24.1,24.1,15.6,23.9,0
TB_TT,Huyện Thái Thụy - Thái Bình,Thái Bình,Thái Thụy,20.5333,106.5333,2026-03-18 18:20:37,openmeteo,high,2026-03-18T18:15,,23.6,27.4,20.0,23.5,84,99,68,86.4,1013.2,1016.4,1008.6,1012.6,12.5,23.0,0.4,11.8,139,140.4,0.0,0.0,0.0,0.0,0.0,51,100,28,72.9,24.1,24.1,11.7,23.9,0
TB_VT,Huyện Vũ Thư - Thái Bình,Thái Bình,Vũ Thư,20.4333,106.2833,2026-03-18 18:20:38,openmeteo,high,2026-03-18T18:15,,23.7,27.2,20.4,23.6,84,99,63,86.3,1013.2,1016.3,1008.5,1012.5,11.8,22.4,1.3,11.3,142,148.7,0.0,0.0,0.0,0.0,0.0,44,100,35,74.3,24.1,24.1,15.8,24.0,0
TB_DH,Huyện Đông Hưng - Thái Bình,Thái Bình,Đông Hưng,20.55,106.35,2026-03-18 18:20:37,openmeteo,high,2026-03-18T18:15,,23.7,26.9,20.2,23.4,83,99,68,86.9,1013.2,1016.3,1008.5,1012.5,12.1,21.3,1.1,11.1,143,145.1,0.0,0.0,0.0,0.0,0.0,65,100,30,73.6,24.1,24.1,15.8,24.0,0
TB_TP,Thành phố Thái Bình - Thái Bình,Thái Bình,Thái Bình,20.4461,106.3366,2026-03-18 18:20:36,openmeteo,high,2026-03-18T18:15,,23.7,26.8,20.2,23.4,83,99,68,86.9,1013.2,1016.3,1008.5,1012.5,12.1,21.3,1.1,11.1,143,145.1,0.0,0.0,0.0,0.0,0.0,65,100,30,73.6,24.1,24.1,15.8,24.0,0
TN_DD,Huyện Định Hóa - Thái Nguyên,Thái Nguyên,Định Hóa,21.9,105.6333,2026-03-18 18:21:46,openmeteo,high,2026-03-18T18:15,,23.7,25.8,19.9,22.5,80,96,73,87.0,1012.3,1016.6,1008.3,1012.6,10.0,14.1,3.6,6.9,128,112.2,0.0,0.2,0.1,0.1,1.2,55,100,40,89.5,24.1,24.1,11.0,23.6,0
TN_SC,Thành phố Sông Công - Thái Nguyên,Thái Nguyên,Sông Công,21.4833,105.85,2026-03-18 18:21:45,openmeteo,high,2026-03-18T18:15,,24.1,28.4,20.3,23.4,82,97,63,84.5,1012.6,1016.8,1007.8,1012.5,9.7,15.3,2.4,8.7,138,142.6,0.0,0.2,0.1,0.1,1.8,71,100,59,89.1,24.1,24.1,4.7,23.6,0
TN_TN,Thành phố Thái Nguyên - Thái Nguyên,Thái Nguyên,Thái Nguyên,21.5928,105.8442,2026-03-18 18:21:45,openmeteo,high,2026-03-18T18:15,,24.8,28.5,21.0,23.8,77,95,62,83.3,1012.2,1016.6,1007.7,1012.3,14.5,17.1,3.0,10.0,134,123.9,0.0,0.1,0.1,0.0,0.6,61,100,57,88.7,24.1,24.1,4.7,23.6,0
TTH_AD,Huyện A Lưới - Thừa Thiên Huế,Thừa Thiên Huế,A Lưới,16.2333,107.3,2026-03-18 18:20:41,openmeteo,high,2026-03-18T18:15,,22.3,29.7,16.8,22.8,86,100,56,83.6,1013.8,1016.6,1009.9,1013.5,4.6,11.3,0.0,4.3,72,110.4,0.0,1.3,0.1,0.3,6.4,53,100,0,52.2,24.1,24.1,0.3,21.9,10
TTH_NL,Huyện Nam Đông - Thừa Thiên Huế,Thừa Thiên Huế,Nam Đông,16.1667,107.7,2026-03-18 18:20:41,openmeteo,high,2026-03-18T18:15,,24.4,31.8,17.7,24.1,81,100,55,84.2,1012.6,1015.9,1008.1,1012.4,5.4,10.6,0.0,4.3,352,183.8,0.0,0.0,0.0,0.0,0.0,36,100,0,52.2,24.1,24.1,9.3,23.9,0
TTH_PD,Huyện Phong Điền - Thừa Thiên Huế,Thừa Thiên Huế,Phong Điền,16.5833,107.35,2026-03-18 18:20:41,openmeteo,high,2026-03-18T18:15,,23.8,29.5,18.3,24.0,84,100,66,87.2,1012.6,1015.7,1008.0,1012.1,7.6,15.9,0.4,5.5,90,58.0,0.0,0.0,0.0,0.0,0.0,9,100,0,48.2,24.1,24.1,4.5,22.8,0
TTH_PL,Huyện Phú Lộc - Thừa Thiên Huế,Thừa Thiên Huế,Phú Lộc,16.2667,107.9,2026-03-18 18:20:42,openmeteo,high,2026-03-18T18:15,,25.4,32.6,18.2,25.0,79,99,54,81.1,1012.3,1015.8,1008.0,1012.2,4.5,11.0,0.0,4.7,29,121.6,0.0,0.0,0.0,0.0,0.0,24,100,0,38.7,24.1,24.1,5.5,23.2,5
TTH_QD,Huyện Quảng Điền - Thừa Thiên Huế,Thừa Thiên Huế,Quảng Điền,16.5833,107.5,2026-03-18 18:20:42,openmeteo,high,2026-03-18T18:15,,23.6,29.9,18.2,23.9,83,100,61,86.4,1012.6,1015.7,1007.9,1012.1,4.2,13.0,0.4,4.5,70,21.1,0.0,0.0,0.0,0.0,0.0,0,100,0,50.5,24.1,24.1,15.7,23.9,0
TTH_H,Thành phố Huế - Thừa Thiên Huế,Thừa Thiên Huế,Huế,16.4637,107.5909,2026-03-18 18:20:41,openmeteo,high,2026-03-18T18:15,,23.6,28.5,18.9,23.8,86,100,68,86.9,1012.5,1015.7,1008.0,1012.1,9.7,16.3,0.0,6.1,88,111.7,0.0,0.0,0.0,0.0,0.0,0,100,0,41.4,24.1,24.1,15.7,23.9,10
TTH_HL,Thị xã Hương Thủy - Thừa Thiên Huế,Thừa Thiên Huế,Hương Thủy,16.4167,107.7167,2026-03-18 18:20:40,openmeteo,high,2026-03-18T18:15,,24.0,31.5,18.0,24.5,83,100,59,82.6,1012.4,1015.7,1007.8,1012.0,5.8,13.9,0.4,4.8,60,357.4,0.0,0.0,0.0,0.0,0.0,12,100,0,41.2,24.1,24.1,18.3,24.1,0
TTH_HT,Thị xã Hương Trà - Thừa Thiên Huế,Thừa Thiên Huế,Hương Trà,16.5,107.4833,2026-03-18 18:20:40,openmeteo,high,2026-03-18T18:15,,23.6,29.9,18.3,23.9,83,100,61,86.4,1012.6,1015.7,1007.9,1012.1,4.2,13.0,0.4,4.5,70,21.1,0.0,0.0,0.0,0.0,0.0,0,100,0,50.5,24.1,24.1,15.7,23.9,0
TG_CB,Huyện Cai Lậy - Tiền Giang,Tiền Giang,Cai Lậy,10.4,106.1167,2026-03-18 18:21:15,openmeteo,high,2026-03-18T18:15,,29.2,34.1,23.4,28.2,58,91,38,69.2,1010.2,1014.5,1007.1,1010.9,14.8,20.0,2.9,11.7,124,119.9,0.0,0.0,0.0,0.0,0.0,0,100,0,56.4,24.1,24.1,24.1,24.1,5
TG_CL,Huyện Châu Thành - Tiền Giang,Tiền Giang,Châu Thành,10.45,106.25,2026-03-18 18:21:13,openmeteo,high,2026-03-18T18:15,,28.3,34.4,22.9,27.8,59,93,39,70.7,1010.3,1014.5,1007.2,1010.9,14.5,20.2,4.1,11.8,132,126.4,0.0,0.0,0.0,0.0,0.0,0,100,0,54.9,24.1,24.1,24.1,24.1,5
TG_CL2,Huyện Chợ Gạo - Tiền Giang,Tiền Giang,Chợ Gạo,10.35,106.4667,2026-03-18 18:21:15,openmeteo,high,2026-03-18T18:15,,27.1,33.1,23.6,27.7,67,90,43,71.0,1010.6,1014.4,1007.6,1011.1,15.0,23.5,5.6,13.8,120,116.0,0.0,0.0,0.0,0.0,0.0,4,93,0,52.2,24.1,24.1,24.1,24.1,5
TG_CT,Huyện Cái Bè - Tiền Giang,Tiền Giang,Cái Bè,10.3333,105.95,2026-03-18 18:21:12,openmeteo,high,2026-03-18T18:15,,29.5,34.6,22.8,28.2,56,93,38,68.9,1010.0,1014.5,1006.9,1010.9,14.3,18.8,2.5,10.7,124,124.0,0.0,0.0,0.0,0.0,0.0,0,100,0,58.2,24.1,24.1,24.1,24.1,5
TG_GC,Huyện Gò Công Tây - Tiền Giang,Tiền Giang,Gò Công Tây,10.35,106.6,2026-03-18 18:21:13,openmeteo,high,2026-03-18T18:15,,26.8,32.8,23.9,27.6,68,89,45,71.4,1010.6,1014.5,1007.7,1011.1,16.2,24.5,6.3,14.6,122,117.7,0.0,0.0,0.0,0.0,0.0,15,93,0,53.2,24.1,24.1,24.1,24.1,5
TG_GD,Huyện Gò Công Đông - Tiền Giang,Tiền Giang,Gò Công Đông,10.3667,106.7167,2026-03-18 18:21:13,openmeteo,high,2026-03-18T18:15,,26.1,31.6,24.4,27.2,75,85,51,73.0,1010.7,1014.6,1008.1,1011.3,17.0,25.6,9.1,16.8,122,113.9,0.0,0.0,0.0,0.0,0.0,32,89,0,56.9,24.1,24.1,24.1,24.1,5
TG_TP,Huyện Tân Phú Đông - Tiền Giang,Tiền Giang,Tân Phú Đông,10.25,106.6,2026-03-18 18:21:14,openmeteo,high,2026-03-18T18:15,,26.3,32.0,24.1,27.4,73,88,48,73.1,1010.7,1014.6,1008.0,1011.2,15.1,25.1,7.8,15.4,115,110.2,0.0,0.0,0.0,0.0,0.0,35,91,0,56.0,24.1,24.1,24.1,24.1,5
TG_TL,Huyện Tân Phước - Tiền Giang,Tiền Giang,Tân Phước,10.5,106.15,2026-03-18 18:21:14,openmeteo,high,2026-03-18T18:15,,29.0,34.6,22.7,27.9,58,94,41,70.4,1010.0,1014.5,1006.9,1010.9,13.6,17.9,2.6,10.7,127,127.7,0.0,0.0,0.0,0.0,0.0,0,96,0,57.6,24.1,24.1,24.1,24.1,5
TG_MT,Thành phố Mỹ Tho - Tiền Giang,Tiền Giang,Mỹ Tho,10.35,106.35,2026-03-18 18:21:13,openmeteo,high,2026-03-18T18:15,,27.6,33.3,23.2,27.7,64,92,42,70.9,1010.5,1014.4,1007.4,1011.0,14.8,21.9,4.7,12.9,124,119.6,0.0,0.0,0.0,0.0,0.0,0,92,0,51.7,24.1,24.1,24.1,24.1,5
TG_GL,Thị xã Gò Công - Tiền Giang,Tiền Giang,Gò Công,10.3667,106.6667,2026-03-18 18:21:13,openmeteo,high,2026-03-18T18:15,,26.8,32.8,23.9,27.6,68,89,45,71.4,1010.6,1014.5,1007.7,1011.1,16.2,24.5,6.3,14.6,122,117.7,0.0,0.0,0.0,0.0,0.0,15,93,0,53.2,24.1,24.1,24.1,24.1,5
TV_CL,Huyện Càng Long - Trà Vinh,Trà Vinh,Càng Long,9.9667,106.2,2026-03-18 18:21:59,openmeteo,high,2026-03-18T18:15,,27.6,33.3,23.4,27.6,64,91,44,71.4,1010.5,1014.3,1007.6,1011.1,13.4,23.6,3.7,12.4,114,108.8,0.0,0.0,0.0,0.0,0.0,16,95,0,55.1,24.1,24.1,24.1,24.1,5
TV_CN,Huyện Cầu Ngang - Trà Vinh,Trà Vinh,Cầu Ngang,9.8,106.4333,2026-03-18 18:21:59,openmeteo,high,2026-03-18T18:15,,27.0,32.3,23.4,27.3,69,89,47,72.9,1010.6,1014.3,1007.9,1011.1,14.3,24.5,4.5,12.7,108,103.6,0.0,0.0,0.0,0.0,0.0,14,94,3,56.8,24.1,24.1,24.1,24.1,5
TV_TV,Thành phố Trà Vinh - Trà Vinh,Trà Vinh,Trà Vinh,9.9347,106.3453,2026-03-18 18:21:59,openmeteo,high,2026-03-18T18:15,,27.1,32.6,23.7,27.5,68,90,45,71.9,1010.6,1014.3,1007.9,1011.1,13.9,24.5,4.0,12.9,111,105.5,0.0,0.0,0.0,0.0,0.0,3,95,0,55.2,24.1,24.1,24.1,24.1,5
TQ_LB,Huyện Lâm Bình - Tuyên Quang,Tuyên Quang,Lâm Bình,22.4667,105.2167,2026-03-18 18:21:47,openmeteo,high,2026-03-18T18:15,,24.0,27.3,19.7,22.9,77,98,65,87.1,1012.0,1016.6,1008.0,1012.4,4.5,10.6,0.7,4.0,166,155.2,0.0,2.2,0.1,1.1,27.3,100,100,55,88.3,24.1,24.1,6.3,23.5,0
TQ_NH,Huyện Na Hang - Tuyên Quang,Tuyên Quang,Na Hang,22.35,105.3833,2026-03-18 18:21:46,openmeteo,high,2026-03-18T18:15,,25.1,28.3,20.8,23.8,77,96,66,86.4,1011.9,1016.5,1008.1,1012.5,5.4,10.5,0.0,4.3,176,172.3,0.0,1.5,0.1,0.7,17.8,71,100,45,87.5,24.1,24.1,9.4,23.5,5
TQ_TQ,Thành phố Tuyên Quang - Tuyên Quang,Tuyên Quang,Tuyên Quang,21.8181,105.2144,2026-03-18 18:21:46,openmeteo,high,2026-03-18T18:15,,26.5,29.2,21.4,24.8,71,96,64,82.6,1011.3,1016.0,1007.4,1011.8,10.7,13.6,0.4,6.3,147,137.3,0.0,0.4,0.1,0.1,3.4,76,100,56,91.8,24.1,24.1,9.0,23.7,5
TN_TB,Huyện Tân Biên - Tây Ninh,Tây Ninh,Tân Biên,11.55,105.9667,2026-03-18 18:21:58,openmeteo,high,2026-03-18T18:15,,29.6,34.7,21.9,27.9,66,95,43,71.3,1009.3,1014.8,1006.5,1010.7,5.0,13.2,0.5,6.5,249,171.3,0.0,0.0,0.0,0.0,0.0,42,100,0,50.9,24.1,24.1,18.4,24.0,5
TN_TC,Huyện Tân Châu - Tây Ninh,Tây Ninh,Tân Châu,11.3333,106.1667,2026-03-18 18:21:58,openmeteo,high,2026-03-18T18:15,,31.0,35.4,21.9,28.2,57,95,42,70.6,1009.2,1014.8,1006.4,1010.7,3.3,15.6,0.4,7.6,229,155.7,0.0,0.0,0.0,0.0,0.0,12,100,0,51.6,24.1,24.1,24.1,24.1,10
TN_TN2,Thành phố Tây Ninh - Tây Ninh,Tây Ninh,Tây Ninh,11.3131,106.0963,2026-03-18 18:21:58,openmeteo,high,2026-03-18T18:15,,31.1,35.4,22.0,28.2,57,95,42,70.6,1009.2,1014.8,1006.4,1010.7,3.3,15.6,0.4,7.6,229,155.7,0.0,0.0,0.0,0.0,0.0,12,100,0,51.6,24.1,24.1,14.9,24.0,10
VL_BT,Huyện Bình Tân - Vĩnh Long,Vĩnh Long,Bình Tân,10.0833,105.7667,2026-03-18 18:21:17,openmeteo,high,2026-03-18T18:15,,30.3,35.2,23.2,28.4,53,91,38,68.0,1009.9,1014.5,1006.6,1010.8,13.9,17.7,2.1,10.0,115,118.7,0.0,0.0,0.0,0.0,0.0,24,100,0,59.7,24.1,24.1,24.1,24.1,10
VL_LH,Huyện Long Hồ - Vĩnh Long,Vĩnh Long,Long Hồ,10.2,106.0167,2026-03-18 18:21:18,openmeteo,high,2026-03-18T18:15,,29.6,34.9,22.8,28.1,57,93,37,68.9,1010.0,1014.5,1006.7,1010.9,14.2,18.7,2.1,10.2,117,120.3,0.0,0.0,0.0,0.0,0.0,6,100,0,58.1,24.1,24.1,24.1,24.1,5
VL_MT,Huyện Mang Thít - Vĩnh Long,Vĩnh Long,Mang Thít,10.1833,106.1,2026-03-18 18:21:18,openmeteo,high,2026-03-18T18:15,,28.5,34.3,23.2,28.0,59,91,38,69.7,1010.4,1014.4,1007.3,1011.0,13.7,22.1,3.5,11.8,120,114.7,0.0,0.0,0.0,0.0,0.0,0,93,0,52.2,24.1,24.1,24.1,24.1,5
VL_TL,Huyện Tam Bình - Vĩnh Long,Vĩnh Long,Tam Bình,10.0667,105.9833,2026-03-18 18:21:18,openmeteo,high,2026-03-18T18:15,,29.2,34.6,23.1,28.1,58,93,38,69.0,1010.2,1014.4,1007.0,1010.9,14.0,20.3,2.4,10.7,119,118.5,0.0,0.0,0.0,0.0,0.0,19,98,0,56.4,24.1,24.1,24.1,24.1,5
VL_TR,Huyện Trà Ôn - Vĩnh Long,Vĩnh Long,Trà Ôn,9.9667,105.8833,2026-03-18 18:21:19,openmeteo,high,2026-03-18T18:15,,29.4,34.3,23.2,28.1,59,91,39,69.9,1010.2,1014.4,1006.9,1010.9,13.9,19.4,2.5,10.3,115,114.5,0.0,0.0,0.0,0.0,0.0,35,95,0,56.5,24.1,24.1,24.1,24.1,5
